~Version ---------------------------------------------------
VERS. 2.0 : CWLS log ASCII Standard -VERSION 2.0
WRAP.  NO : One line per depth step
~Well ------------------------------------------------------
STRT.M                   15.24 : START
STOP.M                  365.76 : STOP
STEP.M      0.1524000000000001 : STEP
NULL.                  -999.25 : NULL VALUE
COMP.              RAJAMANDALA : Company
WELL.              RAJAMANDALA : Well Name
FLD .              RAJAMANDALA : Field
CTRY.              RAJAMANDALA : Country
STAT.              RAJAMANDALA : State
PROV.                          : Province
LOC .                          : Field Location
LATI. 001 01' 01.000" S    DMS : Latitude
LONG. 001 01' 01.000" E    DMS : Longitude
PD  .                      MSL : Permanent Datum
EPD .M                   -1.52 : Elevation of PD
UWI .              RAJAMANDALA : Unique Well ID
EKB .M                    4.57 : Elevation of KB
EGL .M                   -1.52 : Elevation Ground lv
ELZ .M                    3.05 : Elevation Log Zero
APD .M                    3.05 : Above Perm. Datum
LMF .                       KB : Log measured from
MP  .                       KB : Drill measured from
OS  .            COMPOSITE LOG : Services
OS1 .        MULTIPLE ELECTRIK : Other Services Ln 1
OS2 .                   GR-DSN : Other Services Ln 2
OS3 .                     GR-N : Other Services Ln 3
SRVC.                          : Service company
DATE.              11 MAY 2050 : Date
~Curve Information -----------------------------------------
DEPT.M     : 1  Depth
GR  .API   : 2  Gamma-Ray Log
SP  .MV    : 3  Spontaneous Potential Log
SN  .OHMM  : 4  Short Normal Resistivity
LN  .OHMM  : 5  Long Normal Resistivity
LAT .OHMM  : 6  Lateral
DENS.CPS   : 7  Density Log
NEUT.API   : 8  Neutron Log Porosity
~Params ----------------------------------------------------
RUN .               1 : Run number
DD  .M         354.79 : Depth-Driller
DL  .M         356.01 : Depth-Logger
BLI .M         353.26 : Bottom log interval
TLI .M          40.23 : Top log interval
CS  .IN         9.625 : Casing Diameter
DFT . FRESH WATER GEL : Hole Fluid type
DFD .G/C3      1.1983 : Fluid Density
RMS .OHMM         1.8 : RM  @ Surface
RMT .DEGC       29.44 : Mud temp Surface
RMFS.OHMM         1.5 : RMF @ Surface
RMTF.DEGC       29.44 : MF temp Surface
MFSS.        FILTRATE : Source of RMF/RMC
TCS .            1430 : Time circ. stopped
TLAB.            1536 : Time logger at btm
~Other -----------------------------------------------------
~ASCII -----------------------------------------------------
# ...
  166.11600   58.08380   -1.48723    8.53175   10.31750    5.39683 4046.67000  635.68600
  166.26840   58.28340   -1.24507    8.33333   10.31750    5.39683 4026.81000  630.21900
  166.42080   59.88020   -1.00292    8.25397   10.31750    5.51587 4031.78000  621.27200
  166.57320   60.87820   -0.56037    8.04233   10.31750    5.63492 4096.33000  618.78700
  166.72560   61.07780   -0.41841    7.83069   10.31750    5.87302 4116.19000  616.30200
  166.87800   59.08180   -0.27646    7.22222   10.31750    5.99206 4150.94000  616.30200
  167.03040   57.48500   -0.43510    7.06349   10.31750    6.11111 4175.77000  618.78700
  167.18280   55.88820   -0.44345    6.98413   10.31750    6.42857 4180.73000  628.23100
  167.33520   53.09380   -0.45180    7.03704   10.39680    6.58730 4175.77000  634.19500
  167.48760   51.69660   -0.41004    7.08995   10.47620    6.74603 4076.46000  638.17100
  167.64000   50.29940   -0.26809    7.30159   10.87300    6.98413 4066.53000  643.14100
  167.79240   49.90020   -0.22634    7.46032   11.03170    7.22222 4294.94000  616.30200
  167.94480   48.30340   -0.18458    8.01587   11.11110    7.38095 4344.59000  606.36200
  168.09720   48.30340   -0.14283    8.01587   11.19050    7.30159 4414.10000  599.90100
  168.24960   48.30340    0.14943    8.01587   11.25000    7.38095 5148.96000  593.43900
  168.40200   49.90020    0.44168    7.85714   11.30950    7.46032 5243.30000  595.42700
  168.55440   49.70060    0.68383    7.97619   11.36900    7.53968 5253.23000  597.41600
  168.70680   49.50100    0.97609    8.09524   11.50790    7.93651 5218.47000  599.40400
  168.85920   49.10180    1.26834    8.09524   11.62700    7.93651 4563.06000  610.33800
  169.01160   47.90420    0.70889    8.09524   11.74600    7.93651 4483.61000  610.33800
  169.16400   46.70660    0.39995    8.09524   11.82540    8.25397 4463.75000  610.33800
  169.31640   45.10980    0.09100    8.25397   11.98410    8.49206 4260.18000  610.33800
  169.46880   44.31140   -0.76904    8.41270   12.02380    8.73016 4245.28000  606.36200
  169.62120   43.51300   -0.87759    8.57143   12.06350    9.44444 4235.35000  602.38600
  169.77360   43.51300   -0.98614    8.96825   12.06350    9.84127 4245.28000  596.42100
  169.92600   43.51300   -1.04458    9.16667   12.06350   10.23810 4433.96000  597.91200
  170.07840   43.51300   -1.00283    9.36508   12.06350   11.34920 4766.63000  599.40400
  170.23080   43.51300   -0.96108   10.87300   12.04370   11.74600 4870.90000  610.33800
  170.38320   43.11380   -0.61872   11.15080   12.02380   12.14290 4900.70000  616.79900
  170.53560   42.71460   -0.37657   11.42860   12.00400   12.77780 4865.94000  623.26000
  170.68800   42.71460   -0.13442   11.74600   11.98410   13.09520 4076.46000  635.18900
  170.84040   43.71260    0.50854   11.74600   11.82540   13.09520 4076.46000  641.65000
  170.99280   44.71060    0.75069   11.74600   11.74600   12.69840 4111.22000  648.11100
  171.14520   45.10980    0.99285   11.42860   11.66670   12.46030 4131.08000  651.09300
  171.29760   44.91020    1.03460   11.26980   11.58730   12.22220 4200.60000  654.57300
  171.45000   44.71060    1.27675   11.11110   11.50790   11.82540 4260.18000  658.05200
  171.60240   45.50900    1.51891   10.79370   11.19050   11.58730 4245.28000  662.02800
  171.75480   46.50700    1.46046   10.71430   11.11110   11.34920 4230.39000  665.01000
  171.90720   47.50500    1.80281   10.63490   11.11110   10.95240 3828.20000  661.03400
  172.05960   49.50100    2.14517   10.00000   11.19050   10.59520 3828.20000  657.05800
  172.21200   49.70060    2.48752    9.88095   11.26980   10.23810 3828.20000  643.14100
  172.36440   49.90020    2.57937    9.76190   11.26980    9.68254 3897.72000  638.66800
  172.51680   49.90020    2.67123    9.20635   11.26980    9.40476 3942.40000  634.19500
  172.66920   47.90420    2.71298    8.73016   11.26980    9.12698 3962.26000  623.26000
  172.82160   46.90620    2.40404    8.49206   11.26980    8.88889 4026.81000  625.24900
  172.97400   45.90820    2.09509    8.25397   11.19050    8.88889 4061.57000  627.23700
  173.12640   45.10980    1.83624    8.25397   11.19050    8.96825 4061.57000  630.21900
  173.27880   43.91220    1.67760    8.33333   10.15870    9.04762 4061.57000  631.71000
  173.43120   42.71460    1.51895    8.41270    9.92064    9.20635 3997.02000  633.20100
  173.58360   40.31940    1.66090    8.96825    9.92064    9.28571 3962.26000  651.09300
  173.73600   41.51700    2.00326    9.20635    9.89418    9.36508 3992.06000  657.05800
  173.88840   42.71460    2.34561    9.44444    9.86772    9.04762 4016.88000  659.04600
  174.04080   43.11380    2.48756    9.36508    9.68254    9.08730 4230.39000  637.17700
  174.19320   43.31340    2.67962    9.32540    9.72222    9.12698 4245.28000  632.20700
  174.34560   43.51300    2.87167    8.73016    9.76190    8.65079 4230.39000  627.23700
  174.49800   46.70660    3.11382    8.41270    9.76190    8.29365 4145.98000  603.38000
  174.65040   47.50500    3.20568    8.01587    9.73016    7.93651 3957.30000  604.37400
  174.80280   48.30340    3.29753    7.93651    9.69841    7.38095 3977.16000  605.36800
  174.95520   51.89620    3.94049    7.93651    9.66667    7.30159 3957.30000  614.31400
  175.10760   52.49500    4.48334    7.73810    9.63492    7.22222 3947.37000  614.31400
  175.26000   53.09380    5.02609    7.53968    9.60317    7.06349 3927.51000  614.31400
  175.41240   53.49300    5.56885    7.14286    9.36508    7.10317 3877.85000  619.28400
  175.56480   53.29340    5.71080    6.94444    9.24603    7.14286 3843.10000  623.26000
  175.71720   53.09380    5.85276    6.74603    9.12698    7.30159 3833.17000  624.75100
  175.86960   53.09380    5.99471    6.50794    9.04762    7.42063 3848.06000  626.24300
  176.02200   52.29540    6.03646    6.42857    9.08730    7.53968 3862.96000  633.20100
  176.17440   51.49700    5.82772    6.34921    9.12698    7.53968 3763.65000  642.14700
  176.32680   50.69860    5.61897    6.42857    9.04762    7.65873 3758.69000  651.09300
  176.47920   50.09980    4.95932    6.42857    9.00794    7.77778 3773.58000  657.05800
  176.63160   49.50100    4.70048    6.42857    8.96825    7.93651 3778.55000  659.54300
  176.78400   50.29940    4.44153    6.74603    9.04762    8.01587 3783.52000  709.74200
  176.93640   50.29940    3.88209    6.86508    9.08730    8.09524 3793.45000  723.65800
  177.08880   50.29940    3.62324    6.98413    9.12698    8.09524 3793.45000  726.64000
  177.24120   52.69460    3.36439    7.22222    9.20635    8.06878 3510.43000  726.64000
  177.39360   53.29340    4.00734    7.30159    9.16667    8.04233 3505.46000  701.78900
  177.54600   53.89220    3.99900    7.38095    9.12698    7.77778 3560.08000  693.83700
  177.69840   54.69060    3.99065    7.14286    9.04762    7.69841 3574.98000  685.88500
  177.85080   55.08980    4.43321    6.82540    9.04762    7.61905 3609.73000  667.99200
  178.00320   54.89020    4.67536    6.66667    9.04762    7.61905 3624.63000  666.00400
  178.15560   54.69060    4.91751    6.50794    9.04762    7.69841 3540.22000  664.01600
  178.30800   53.09380    5.56057    6.26984    9.04762    7.69841 3525.32000  665.01000
  178.46040   51.49700    5.45202    6.19048    9.04762    7.69841 3505.46000  665.01000
  178.61280   49.90020    5.34337    6.11111    9.04762    7.69841 3490.57000  665.01000
  178.76520   48.30340    4.38313    6.03175    8.96825    7.69841 3507.94000  671.96800
  178.91760   47.90420    4.27458    6.11111    9.00794    7.69841 3525.32000  674.95000
  179.07000   47.50500    4.16603    6.19048    9.04762    7.93651 3574.98000  677.93200
  179.22240   45.50900    3.80699    6.50794    8.96825    8.01587 3617.18000  675.94400
  179.37480   45.30940    3.84874    6.62698    8.96825    8.09524 3659.38000  667.99200
  179.52720   45.50900    3.89050    6.74603    8.96825    8.25397 3709.04000  664.51300
  179.67960   46.70660    3.63165    6.98413    9.20635    8.29365 3728.90000  661.03400
