~Version ---------------------------------------------------
VERS. 2.0 : CWLS log ASCII Standard -VERSION 2.0
WRAP.  NO : One line per depth step
~Well ------------------------------------------------------
STRT.M                   15.24 : START
STOP.M                  365.76 : STOP
STEP.M      0.1524000000000001 : STEP
NULL.                  -999.25 : NULL VALUE
COMP.              RAJAMANDALA : Company
WELL.              RAJAMANDALA : Well Name
FLD .              RAJAMANDALA : Field
CTRY.              RAJAMANDALA : Country
STAT.              RAJAMANDALA : State
PROV.                          : Province
LOC .                          : Field Location
LATI. 001 01' 01.000" S    DMS : Latitude
LONG. 001 01' 01.000" E    DMS : Longitude
PD  .                      MSL : Permanent Datum
EPD .M                   -1.52 : Elevation of PD
UWI .              RAJAMANDALA : Unique Well ID
EKB .M                    4.57 : Elevation of KB
EGL .M                   -1.52 : Elevation Ground lv
ELZ .M                    3.05 : Elevation Log Zero
APD .M                    3.05 : Above Perm. Datum
LMF .                       KB : Log measured from
MP  .                       KB : Drill measured from
OS  .            COMPOSITE LOG : Services
OS1 .        MULTIPLE ELECTRIK : Other Services Ln 1
OS2 .                   GR-DSN : Other Services Ln 2
OS3 .                     GR-N : Other Services Ln 3
SRVC.                          : Service company
DATE.              11 MAY 2050 : Date
~Curve Information -----------------------------------------
DEPT.M     : 1  Depth
GR  .API   : 2  Gamma-Ray Log
SP  .MV    : 3  Spontaneous Potential Log
SN  .OHMM  : 4  Short Normal Resistivity
LN  .OHMM  : 5  Long Normal Resistivity
LAT .OHMM  : 6  Lateral
DENS.CPS   : 7  Density Log
NEUT.API   : 8  Neutron Log Porosity
~Params ----------------------------------------------------
RUN .               1 : Run number
DD  .M         354.79 : Depth-Driller
DL  .M         356.01 : Depth-Logger
BLI .M         353.26 : Bottom log interval
TLI .M          40.23 : Top log interval
CS  .IN         9.625 : Casing Diameter
DFT . FRESH WATER GEL : Hole Fluid type
DFD .G/C3      1.1983 : Fluid Density
RMS .OHMM         1.8 : RM  @ Surface
RMT .DEGC       29.44 : Mud temp Surface
RMFS.OHMM         1.5 : RMF @ Surface
RMTF.DEGC       29.44 : MF temp Surface
MFSS.        FILTRATE : Source of RMF/RMC
TCS .            1430 : Time circ. stopped
TLAB.            1536 : Time logger at btm
~Other -----------------------------------------------------
~ASCII -----------------------------------------------------
# ...
  179.83200   46.70660    3.72350    7.02381    9.24603    8.33333 3748.76000  651.09300
  179.98440   47.50500    3.81536    7.06349    9.28571    8.33333 3992.06000  651.09300
  180.13680   52.29540    3.85711    7.06349    9.44444    8.13492 4006.95000  651.09300
  180.28920   51.49700    3.84876    7.10317    9.52381    7.93651 4046.67000  651.09300
  180.44160   50.29940    3.84042    7.14286    9.60317    7.53968 4051.64000  653.08200
  180.59400   49.90020    4.58357    6.98413    9.68254    7.38095 3828.20000  655.07000
  180.74640   49.50100    4.92592    6.90476    9.72222    7.38095 3763.65000  643.14100
  180.89880   49.90020    5.26828    6.82540    9.76190    7.38095 3758.69000  638.66800
  181.05120   53.49300    5.71083    6.74603    9.76190    7.36508 3778.55000  634.19500
  181.20360   53.49300    5.75259    6.62698    9.72222    7.34921 3828.20000  623.26000
  181.35600   49.10180    5.79434    6.50794    9.68254    7.33333 3843.10000  619.78100
  181.50840   47.90420    5.83609    6.34921    9.76190    7.31746 3843.10000  616.30200
  181.66080   47.50500    5.82775    6.34921    9.76190    7.30159 3748.76000  607.35600
  181.81320   46.70660    5.81940    6.34921    9.92064    7.27513 3714.00000  603.38000
  181.96560   43.11380    4.85915    6.50794    9.92064    7.24868 3694.14000  599.40400
  182.11800   42.11580    3.29771    6.58730   10.00000    7.22222 3694.14000  593.43900
  182.27040   41.11780    3.43966    6.66667   10.07940    7.14286 3689.18000  592.94200
  182.42280   40.71860    3.68181    6.98413   10.15870    7.14286 3743.79000  592.44500
  182.57520   41.31740    3.82377    7.14286   10.29100    7.06349 4031.78000  592.44500
  182.72760   41.91620    4.16612    7.30159   10.42330    7.09610 4131.08000  592.44500
  182.88000   42.71460    3.60668    7.53968   10.55560    7.12871 4160.87000  592.44500
  183.03240   41.91620    3.24763    7.69841   10.63490    7.12871 4210.53000  596.42100
  183.18480   41.11780    3.08898    7.77778   10.71430    7.12871 4260.18000  599.40400
  183.33720   38.72260    2.93034    7.85714   10.79370    7.16832 4309.83000  602.38600
  183.48960   38.52300    2.67149    8.25397   10.87300    7.20792 4334.66000  605.36800
  183.64200   38.32340    2.41264    8.29365   11.03170    7.26073 4359.48000  609.34400
  183.79440   37.52500    2.15380    8.33333   11.19050    7.76238 4404.17000  613.32000
  183.94680   37.52500    1.89495    8.65079   11.34920    7.76238 4361.97000  624.25400
  184.09920   37.52500    1.93671    8.80952   11.58730    7.76238 4319.76000  628.72800
  184.25160   36.32730    1.97846    8.96825   11.82540    8.00000 4210.53000  633.20100
  184.40400   36.52690    2.62141    9.12698   12.06350    8.11881 4136.05000  645.12900
  184.55640   36.72650    2.81346    9.24603   12.06350    8.23762 4061.57000  651.09300
  184.70880   37.92420    3.00552    9.36508   12.06350    8.63366 3743.79000  674.95000
  184.86120   37.72460    3.74867    9.68254   12.06350    8.87129 3728.90000  665.01000
  185.01360   37.52500    3.59002    9.76190   12.06350    9.10891 3689.18000  664.51300
  185.16600   36.32730    3.43138    9.84127   11.90480    9.74257 3709.04000  664.01600
  185.31840   36.32730    3.47313   10.39680   11.74600   10.21780 3773.58000  648.11100
  185.47080   36.32730    4.51689   10.55560   11.58730   10.69310 3927.51000  642.64400
  185.62320   35.92810    4.55864   11.34920   11.54760   11.64360 4006.95000  624.25400
  185.77560   35.92810    3.59840   12.06350   11.34920   12.07920 4066.53000  627.23700
  185.92800   35.92810    1.33555   12.06350   11.26980   12.51490 4101.29000  630.21900
  186.08040   37.92420    0.97651   12.38100   11.07140   12.75250 4836.15000  632.70400
  186.23280   37.72460    0.81786   13.01590   10.55560   12.59410 4851.04000  635.18900
  186.38520   37.52500    3.56501   13.25400   10.55560   12.43560 4801.39000  627.73400
  186.53760   36.72650    3.50656   13.25400   10.55560   11.40590 4697.12000  620.27800
  186.69000   36.32730    3.24771   13.41270   10.55560   10.85150 4637.54000  617.29600
  186.84240   35.92810    6.49587   12.02380   10.55560   10.29700 4528.30000  620.27800
  186.99480   35.12970    6.93842   10.63490   10.55560    8.95049 3828.20000  623.26000
  187.14720   33.93210    7.28078    9.76190   10.55560    8.43564 3813.31000  627.23700
  187.29960   32.73450    6.62113    9.40476   10.51590    7.92079 3793.45000  624.25400
  187.45200   31.13770    4.45848    9.04762   10.47620    6.89109 4081.43000  621.27200
  187.60440   29.94010    0.89304    8.33333   10.47620    6.61386 4141.01000  621.27200
  187.75680   28.74250   -0.26761    8.29365   10.47620    6.33663 4319.76000  629.22500
  187.90920   28.74250   -0.42625    8.25397   10.47620    5.86139 4379.34000  637.17700
  188.06160   28.74250   -0.38450    8.09524   10.47620    5.86139 4394.24000  665.01000
  188.21400   28.74250   -0.44295    7.93651   10.11900    5.86139 4369.41000  678.92600
  188.36640   28.74250   -1.40319    7.77778    9.76190    6.09901 4210.53000  692.84300
  188.51880   28.74250   -1.06084    7.77778    9.76190    6.25743 3942.40000  709.74200
  188.67120   28.74250   -0.71848    7.77778    9.68254    6.41584 3917.58000  718.68800
  188.82360   28.74250    1.02667    7.77778    9.60317    6.57426 3674.28000  758.44900
  188.97600   29.14170    1.06842    8.41270    9.44444    6.61386 3666.83000  764.41400
  189.12840   29.54090   -0.59322    8.41270    8.88889    6.65347 3659.38000  774.35400
  189.28080   30.73850   -0.35107    8.41270    8.88889    6.73267 3644.49000  776.34200
  189.43320   30.93810   -0.10892    8.65079    8.88889    6.73267 3642.01000  758.44900
  189.58560   31.13770    0.53403    8.69048    8.88889    6.73267 3639.52000  755.96400
  189.73800   31.93610    0.57579    8.73016    8.88889    6.57426 3659.38000  753.47900
  189.89040   32.53490   -1.28626    8.57143    8.88889    6.45545 3679.25000  733.59800
  190.04280   33.13370   -1.94590    8.49206    8.88889    6.33663 3699.11000  728.62800
  190.19520   33.93210   -2.40515    8.41270    8.88889    6.01980 3728.90000  723.65800
  190.34760   34.73050   -1.66199    7.53968    8.88889    5.98020 3753.72000  709.74200
  190.50000   35.52890   -0.81864    7.06349    8.96825    5.94059 3778.55000  706.75900
  190.65240   36.32730   -0.47629    6.94444    9.04762    5.94059 3823.24000  703.77700
  190.80480   37.32530   -1.03574    6.82540    9.08730    6.01980 3823.24000  699.80100
  190.95720   38.32340   -2.89778    6.74603    9.04762    6.17822 3800.89000  700.79500
  191.10960   45.50900   -2.85603    6.58730    9.04762    6.33663 3778.55000  701.78900
  191.26200   49.10180   -0.50967    6.42857    9.04762    6.57426 3714.00000  699.80100
  191.41440   52.69460    0.53408    6.34921    9.04762    6.69307 3704.07000  689.36400
  191.56680   61.87620    0.93166    6.42857    9.00794    6.81188 3694.14000  678.92600
  191.71920   70.25950    3.53363    6.50794    8.96825    7.12871 3813.31000  658.05200
  191.87160   71.85630    6.83701    6.42857    9.04762    7.12871 3830.69000  646.62000
  192.02400   64.67070    7.43498    6.34921    9.12698    7.12871 3848.06000  579.52300
  192.17640   63.47310   12.84266    6.26984    9.20635    7.12871 4046.67000  571.57100
  192.32880   62.27540   13.14004    6.11111    9.60317    7.12871 4041.71000  581.51100
  192.48120   58.68260   13.93841    5.87302    9.72222    7.12871 4016.88000  591.45100
  192.63360   55.48900   13.93518    5.63492    9.84127    7.12871 3977.16000  607.35600
  192.78600   52.29540   12.02816    5.47619    9.84127    7.12871 3778.55000  617.79300
  192.93840   49.10180   11.52394    5.71429    9.88095    7.12871 3748.76000  628.23100
  193.09080   45.90820   11.01971    5.95238    9.92064    7.12871 3709.04000  641.15300
  193.24320   42.71460    8.71189    6.11111   10.63490    7.24752 3709.04000  639.16500
  193.39560   39.92020    7.40596    6.50794   10.75400    7.36634 3738.83000  637.17700
