~Version ---------------------------------------------------
VERS. 2.0 : CWLS log ASCII Standard -VERSION 2.0
WRAP.  NO : One line per depth step
~Well ------------------------------------------------------
STRT.M                   15.24 : START
STOP.M                  365.76 : STOP
STEP.M      0.1524000000000001 : STEP
NULL.                  -999.25 : NULL VALUE
COMP.              RAJAMANDALA : Company
WELL.              RAJAMANDALA : Well Name
FLD .              RAJAMANDALA : Field
CTRY.              RAJAMANDALA : Country
STAT.              RAJAMANDALA : State
PROV.                          : Province
LOC .                          : Field Location
LATI. 001 01' 01.000" S    DMS : Latitude
LONG. 001 01' 01.000" E    DMS : Longitude
PD  .                      MSL : Permanent Datum
EPD .M                   -1.52 : Elevation of PD
UWI .              RAJAMANDALA : Unique Well ID
EKB .M                    4.57 : Elevation of KB
EGL .M                   -1.52 : Elevation Ground lv
ELZ .M                    3.05 : Elevation Log Zero
APD .M                    3.05 : Above Perm. Datum
LMF .                       KB : Log measured from
MP  .                       KB : Drill measured from
OS  .            COMPOSITE LOG : Services
OS1 .        MULTIPLE ELECTRIK : Other Services Ln 1
OS2 .                   GR-DSN : Other Services Ln 2
OS3 .                     GR-N : Other Services Ln 3
SRVC.                          : Service company
DATE.              11 MAY 2050 : Date
~Curve Information -----------------------------------------
DEPT.M     : 1  Depth
GR  .API   : 2  Gamma-Ray Log
SP  .MV    : 3  Spontaneous Potential Log
SN  .OHMM  : 4  Short Normal Resistivity
LN  .OHMM  : 5  Long Normal Resistivity
LAT .OHMM  : 6  Lateral
DENS.CPS   : 7  Density Log
NEUT.API   : 8  Neutron Log Porosity
~Params ----------------------------------------------------
RUN .               1 : Run number
DD  .M         354.79 : Depth-Driller
DL  .M         356.01 : Depth-Logger
BLI .M         353.26 : Bottom log interval
TLI .M          40.23 : Top log interval
CS  .IN         9.625 : Casing Diameter
DFT . FRESH WATER GEL : Hole Fluid type
DFD .G/C3      1.1983 : Fluid Density
RMS .OHMM         1.8 : RM  @ Surface
RMT .DEGC       29.44 : Mud temp Surface
RMFS.OHMM         1.5 : RMF @ Surface
RMTF.DEGC       29.44 : MF temp Surface
MFSS.        FILTRATE : Source of RMF/RMC
TCS .            1430 : Time circ. stopped
TLAB.            1536 : Time logger at btm
~Other -----------------------------------------------------
~ASCII -----------------------------------------------------
# ...
  358.14000   92.43030   13.86451    3.72277    3.96040    2.85149 1922.95000  727.63400
  358.29240   92.43030   13.86451    3.72277    3.93777    2.85149 1923.78000  727.63400
  358.44480   92.43030   13.86451    3.72277    3.91513    2.85149 1924.60000  727.63400
  358.59720   92.43030   13.96451    3.72277    3.89250    2.85149 1924.60000  727.63400
  358.74960   92.43030   14.06451    3.72277    3.86987    2.85149 1924.60000  727.63400
  358.90200   92.43030   14.06451    3.72277    3.84724    2.85149 1924.60000  727.63400
  359.05440   92.43030   14.06451    3.72277    3.82461    2.93069 1924.60000  727.46900
  359.20680   92.43030   14.06451    3.72277    3.80198    2.93069 1924.60000  727.30300
  359.35920   92.43030   14.06451    3.72277    3.80198    2.93069 1924.60000  727.13700
  359.51160   92.43030   14.06451    3.72277    3.80198    2.93069 1924.60000  726.97100
  359.66400   92.43030   14.06451    3.72277    3.80198    2.93069 1924.60000  726.80600
  359.81640   92.03190   14.06451    3.69637    3.80198    2.93069 1924.60000  726.64000
  359.96880   91.63350   14.06451    3.66997    3.80198    2.93069 1924.60000  726.64000
  360.12120   91.63350   14.06451    3.64356    3.80198    2.93069 1924.60000  726.64000
  360.27360   91.63350   14.06451    3.64356    3.80198    2.93069 1924.60000  726.64000
  360.42600   91.63350   14.06451    3.64356    3.80198    2.93069 1924.60000  726.64000
  360.57840   91.63350   14.06451    3.64356    3.80198    2.93069 1924.60000  726.64000
  360.73080   91.63350   14.16451    3.64356    3.80198    2.93069 1924.60000  726.64000
  360.88320   91.63350   14.16451    3.60396    3.80198    2.85149 1924.60000  726.64000
  361.03560   91.63350   14.16451    3.56436    3.80198    2.85149 1924.60000  726.64000
  361.18800   91.63350   14.06451    3.56436    3.80198    2.85149 1924.60000  726.64000
  361.34040   91.63350   14.06451    3.56436    3.80198    2.85149 1924.60000  726.64000
  361.49280   91.63350   14.06451    3.56436    3.80198    2.85149 1924.60000  726.64000
  361.64520   91.63350   14.06451    3.56436    3.80198    2.85149 1924.60000  726.64000
  361.79760   91.63350   14.06451    3.53267    3.80198    2.85149 1924.60000  726.64000
  361.95000   90.83670   14.16451    3.56436    3.80198    2.85149 1924.60000  726.64000
  362.10240   90.83670   14.16451    3.56436    3.80198    2.85149 1924.60000  726.64000
  362.25480   90.83670   14.16451    3.56436    3.80198    2.85149 1924.60000  726.64000
  362.40720   90.83670   14.16451    3.48515    3.80198    2.85149 1924.60000  726.64000
  362.55960   90.83670   14.16451    3.40594    3.80198    2.85149 1924.60000  726.64000
  362.71200   90.83670   14.16451    3.40594    3.80198    2.85149 1924.60000  726.64000
  362.86440   90.83670   14.16451    3.40594    3.80198    2.85149 1924.60000  726.64000
  363.01680   90.83670   14.16451    3.40594    3.80198    2.85149 1924.60000  726.64000
  363.16920   90.83670   14.16451    3.40594    3.80198    2.85149 1924.60000  726.24300
  363.32160   90.83670   14.16451    3.40594    3.80198    2.85149 1924.60000  725.84500
  363.47400   90.83670   14.16451    3.40594    3.80198    2.85149 1924.60000  725.44700
  363.62640   90.83670   14.16451    3.40594    3.80198    2.85149 1924.60000  725.05000
  363.77880   90.83670   14.16451    3.40594    3.80198    2.85149 1924.60000  724.65200
  363.93120   90.03980   14.16451    3.40594    3.80198    2.85149 1924.60000  724.65200
  364.08360   90.03980   14.16451    3.40594    3.77558    2.85149 1924.60000  724.65200
  364.23600   89.24300   14.16451    3.40594    3.74918    2.85149 1924.60000  724.65200
  364.38840   90.03980   14.16451    3.40594    3.72277    2.85149 1924.60000  724.65200
  364.54080   90.03980   14.26451    3.40594    3.72277    2.85149 1924.60000  724.65200
  364.69320   90.03980   14.26451    3.40594    3.72277    2.85149 1924.60000  724.65200
  364.84560   90.03980   14.26451    3.40594    3.72277    2.85149 1924.60000  724.65200
  364.99800   90.03980   14.26451    3.56436    3.72277    2.85149 1924.60000  724.65200
  365.15040   90.03980   14.26451    3.56436    3.72277    2.69307 1924.60000  724.65200
  365.30280   90.03980   14.26451    3.56436    3.72277    2.69307 1924.60000  724.65200
  365.45520   90.03980   14.16451    3.56436    3.72277    2.69307 1924.60000  724.65200
  365.60760   90.03980   14.16451    3.56436    3.72277    2.69307    -999.25  724.65200
  365.76000   90.03980   14.26451    3.64356    -999.25    -999.25    -999.25  724.65200
