~Version ---------------------------------------------------
VERS. 2.0 : CWLS log ASCII Standard -VERSION 2.0
WRAP.  NO : One line per depth step
~Well ------------------------------------------------------
STRT.M                   15.24 : START
STOP.M                  365.76 : STOP
STEP.M      0.1524000000000001 : STEP
NULL.                  -999.25 : NULL VALUE
COMP.              RAJAMANDALA : Company
WELL.              RAJAMANDALA : Well Name
FLD .              RAJAMANDALA : Field
CTRY.              RAJAMANDALA : Country
STAT.              RAJAMANDALA : State
PROV.                          : Province
LOC .                          : Field Location
LATI. 001 01' 01.000" S    DMS : Latitude
LONG. 001 01' 01.000" E    DMS : Longitude
PD  .                      MSL : Permanent Datum
EPD .M                   -1.52 : Elevation of PD
UWI .              RAJAMANDALA : Unique Well ID
EKB .M                    4.57 : Elevation of KB
EGL .M                   -1.52 : Elevation Ground lv
ELZ .M                    3.05 : Elevation Log Zero
APD .M                    3.05 : Above Perm. Datum
LMF .                       KB : Log measured from
MP  .                       KB : Drill measured from
OS  .            COMPOSITE LOG : Services
OS1 .        MULTIPLE ELECTRIK : Other Services Ln 1
OS2 .                   GR-DSN : Other Services Ln 2
OS3 .                     GR-N : Other Services Ln 3
SRVC.                          : Service company
DATE.              11 MAY 2050 : Date
~Curve Information -----------------------------------------
DEPT.M     : 1  Depth
GR  .API   : 2  Gamma-Ray Log
SP  .MV    : 3  Spontaneous Potential Log
SN  .OHMM  : 4  Short Normal Resistivity
LN  .OHMM  : 5  Long Normal Resistivity
LAT .OHMM  : 6  Lateral
DENS.CPS   : 7  Density Log
NEUT.API   : 8  Neutron Log Porosity
~Params ----------------------------------------------------
RUN .               1 : Run number
DD  .M         354.79 : Depth-Driller
DL  .M         356.01 : Depth-Logger
BLI .M         353.26 : Bottom log interval
TLI .M          40.23 : Top log interval
CS  .IN         9.625 : Casing Diameter
DFT . FRESH WATER GEL : Hole Fluid type
DFD .G/C3      1.1983 : Fluid Density
RMS .OHMM         1.8 : RM  @ Surface
RMT .DEGC       29.44 : Mud temp Surface
RMFS.OHMM         1.5 : RMF @ Surface
RMTF.DEGC       29.44 : MF temp Surface
MFSS.        FILTRATE : Source of RMF/RMC
TCS .            1430 : Time circ. stopped
TLAB.            1536 : Time logger at btm
~Other -----------------------------------------------------
~ASCII -----------------------------------------------------
# ...
   28.95600   52.96440    -999.25    -999.25    -999.25    -999.25    -999.25  134.19500
   29.10840   53.75490    -999.25    -999.25    -999.25    -999.25    -999.25  202.78300
   29.26080   53.16210    -999.25    -999.25    -999.25    -999.25    -999.25  271.37200
   29.41320   52.56920    -999.25    -999.25    -999.25    -999.25    -999.25  406.56100
   29.56560   52.96440    -999.25    -999.25    -999.25    -999.25    -999.25  406.06400
   29.71800   52.96440    -999.25    -999.25    -999.25    -999.25    -999.25  405.56700
   29.87040   52.96440    -999.25    -999.25    -999.25    -999.25    -999.25  403.57900
   30.02280   48.22130    -999.25    -999.25    -999.25    -999.25    -999.25  403.08200
   30.17520   49.40710    -999.25    -999.25    -999.25    -999.25    -999.25  402.58500
   30.32760   50.19760    -999.25    -999.25    -999.25    -999.25    -999.25  403.57900
   30.48000   52.17390   35.34001    0.15873    2.14286   -0.63492 2881.94000  410.53700
   30.63240   54.15020   35.34001    0.15873    2.14286   -0.63492 2881.94000  413.51900
   30.78480   52.76680   35.34001    0.15873    2.14286   -0.63492 2881.94000  416.50100
   30.93720   51.38340   35.24121    0.15873    2.14286   -0.71429 2881.94000  410.53700
   31.08960   48.61660   35.24121    0.15873    2.14286   -0.71429 2869.54000  408.54900
   31.24200   47.43080   35.24121    0.15873    2.14286   -0.71429 2857.14000  406.56100
   31.39440   46.24510   35.24121    0.14286    2.14286   -0.71429 2827.38000  400.59600
   31.54680   44.66400   35.24121    0.12698    2.30159   -0.71429 2812.50000  393.63800
   31.69920   44.26880   35.24121    0.11111    2.26190   -0.71429 2797.62000  386.68000
   31.85160   43.87350   35.24121    0.09524    2.22222   -0.71429 2837.30000  382.70400
   32.00400   43.87350   35.24121    0.07937    2.22222   -0.71429 2862.10000  377.23700
   32.15640   43.87350   35.24121    0.07937    2.22222   -0.71429 2886.90000  371.76900
   32.30880   43.87350   35.24121    0.07937    2.22222   -0.71429 2946.43000  368.78700
   32.46120   43.08300   35.24121    0.07937    2.22222   -0.71429 2958.83000  368.78700
   32.61360   43.47830   35.24121    0.07937    2.22222   -0.71429 2971.23000  368.78700
   32.76600   43.87350   35.24121    0.07937    2.14286   -0.71429 2971.23000  368.78700
   32.91840   44.66400   35.24121    0.07937    2.14286   -0.71429 2966.27000  373.75700
   33.07080   45.65220   35.24121    0.07937    2.14286   -0.71429 2961.31000  378.72800
   33.22320   46.64030   35.24121    0.07937    2.14286   -0.71429 2931.55000  385.68600
   33.37560   47.43080   35.14231    0.07937    2.14286   -0.71429 2914.19000  385.68600
   33.52800   48.61660   35.14231    0.07937    2.14286   -0.71429 2896.83000  385.68600
   33.68040   49.80240   35.14231    0.09921    2.14286   -0.71429 2896.83000  382.70400
   33.83280   48.22130   35.14231    0.11905    2.14286   -0.71429 2896.83000  381.21300
   33.98520   47.23320   35.14231    0.13889    2.14286   -0.71429 2896.83000  379.72200
   34.13760   46.24510   35.14231    0.15873    2.14286   -0.71429 2906.75000  378.72800
   34.29000   42.68770   35.14231    0.15873    2.14286   -0.71429 2911.71000  381.71000
   34.44240   43.28060   35.14231    0.15873    2.14286   -0.71429 2916.67000  384.69200
   34.59480   43.87350   35.14231    0.15873    2.14286   -0.71429 2931.55000  386.68000
   34.74720   42.68770   35.14231    0.15873    2.14286   -0.71429 2931.55000  386.18300
   34.89960   42.49010   35.14231    0.15873    2.14286   -0.71429 2931.55000  385.68600
   35.05200   42.29250   35.14231    0.15873    2.14286   -0.71429 2971.23000  384.69200
   35.20440   42.68770   35.14231    0.15873    2.14286   -0.71429 2976.19000  384.69200
   35.35680   42.88540   35.14231    0.23810    2.14286   -0.71429 2981.15000  384.69200
   35.50920   43.08300   35.14231    0.23810    2.14286   -0.71429 2996.03000  382.70400
   35.66160   41.89720   35.14231    0.23810    2.14286   -0.71429 2983.63000  380.71600
   35.81400   40.90910   35.14231    0.23810    2.14286   -0.71429 2971.23000  378.72800
   35.96640   39.92090   35.14231    0.23810    2.14286   -0.71429 2956.35000  375.74600
   36.11880   40.71150   35.14231    0.23810    2.14286   -0.71429 2958.83000  376.74000
   36.27120   41.50200   35.04351    0.23810    2.14286   -0.71429 2961.31000  377.73400
   36.42360   42.29250   35.04351    0.23810    2.14286   -0.71429 2991.07000  382.70400
   36.57600   43.08300   35.04351    0.23810    2.14286   -0.71429 2996.03000  384.19500
   36.72840   43.67590   35.04351    0.23810    2.14286   -0.71429 3134.92000  385.68600
   36.88080   44.26880   35.04351    0.19841    2.14286   -0.71429 3095.24000  384.69200
   37.03320   52.17390   35.04351    0.15873    2.14286   -0.71429 3035.71000  382.20700
   37.18560   55.13830   35.14231    0.15873    2.14286   -0.71429 2991.07000  379.72200
   37.33800   58.10280   35.14231    0.15873    2.14286   -0.71429 3144.84000  379.72200
   37.49040   63.24110   35.14231    0.15873    2.14286   -0.71429 3249.01000  387.67400
   37.64280   66.79840   35.14231    0.15873    2.14286   -0.71429 3492.06000  395.62600
   37.79520   70.35570   35.14231    0.15873    2.06349   -0.63492 3913.69000  406.56100
   37.94760   75.49410   35.14231    0.15873    2.06349   -0.63492 5610.12000  416.50100
   38.10000   78.06320   35.14231    0.15873    2.06349   -0.59524 6359.13000  426.44100
   38.25240   80.63240   35.14231    0.15873    2.06349   -0.55556 6547.62000  444.33400
   38.40480   83.79450   35.14231    0.15873    2.06349   -0.55556 6547.62000  451.29200
   38.55720   83.00400   35.04351    0.23810    2.06349   -0.55556 6547.62000  458.25000
   38.70960   82.21340   29.31231    0.39682    2.30159   -0.51587 6522.82000  472.16700
   38.86200   78.65610   17.65223    0.79365    2.69841   -0.47619 6473.21000  475.64600
   39.01440   81.02770   11.03167    1.34921    4.92063   -0.47619 6245.04000  479.12500
   39.16680   81.42290    9.94472    3.49206    5.63492   -0.55556 6240.08000  479.12500
   39.31920   84.58500    8.90717    3.92857    5.71429   -0.47619 6264.88000  479.12500
   39.47160   84.58500    7.86962    4.36508    6.11111   -0.47619 6344.25000  479.12500
   39.62400   84.58500    6.78266    4.68254    6.23016   -0.55556 6369.05000  479.12500
   39.77640   80.23720    6.23918    4.76190    6.34921   -0.31746 6369.05000  473.65800
   39.92880   78.85380    5.69571    4.84127    6.58730   -0.39682 6359.13000  468.19100
   40.08120   77.47040    3.91705    5.00000    6.82540   -0.39682 6299.60000  468.19100
   40.23360   76.28460    3.47241    5.00000    6.98413   -0.39682 6274.80000  472.16700
   40.38600   75.88930    3.02771    5.00000    7.77778   -0.43651 6264.88000  476.14300
   40.53840   75.49410    2.33601    5.07937    7.77778   -0.47619 6264.88000  479.12500
   40.69080   77.47040    2.13841    5.11905    7.81746   -0.47619 6220.24000  480.61600
   40.84320   79.24900    1.94081    5.15873    7.85714   -0.39682 5942.46000  482.10700
   40.99560   81.02770    1.54551    5.23810    7.93651   -0.39682 5858.13000  489.06600
   41.14800   84.98020    1.49611    5.27778    7.97619   -0.39682 5436.51000  496.02400
   41.30040   84.98020    1.44671    5.31746    8.01587   -0.39682 5158.73000  502.98200
   41.45280   86.16600    0.65621    5.47619    8.09524   -0.39682 4727.18000  515.90500
   41.60520   83.39920    0.40911    5.55556    8.13492   -0.35714 4662.70000  521.37200
   41.75760   82.41110    0.16211    5.63492    8.17460   -0.31746 4568.45000  526.83900
   41.91000   81.42290   -0.52959    5.55556    8.25397   -0.29101 4538.69000  530.81500
   42.06240   79.05140   -0.52959    5.63492    8.29365   -0.26455 4533.73000  530.31800
   42.21480   79.44660   -0.52959    5.71429    8.33333   -0.23810 4528.77000  529.82100
   42.36720   79.84190   -0.52959    5.95238    8.41270   -0.23810 4523.81000  523.85700
   42.51960   81.02770   -0.52959    5.95238    8.29365   -0.23810 4499.01000  521.86900
