~Version ---------------------------------------------------
VERS. 2.0 : CWLS log ASCII Standard -VERSION 2.0
WRAP.  NO : One line per depth step
~Well ------------------------------------------------------
STRT.M                   15.24 : START
STOP.M                  365.76 : STOP
STEP.M      0.1524000000000001 : STEP
NULL.                  -999.25 : NULL VALUE
COMP.              RAJAMANDALA : Company
WELL.              RAJAMANDALA : Well Name
FLD .              RAJAMANDALA : Field
CTRY.              RAJAMANDALA : Country
STAT.              RAJAMANDALA : State
PROV.                          : Province
LOC .                          : Field Location
LATI. 001 01' 01.000" S    DMS : Latitude
LONG. 001 01' 01.000" E    DMS : Longitude
PD  .                      MSL : Permanent Datum
EPD .M                   -1.52 : Elevation of PD
UWI .              RAJAMANDALA : Unique Well ID
EKB .M                    4.57 : Elevation of KB
EGL .M                   -1.52 : Elevation Ground lv
ELZ .M                    3.05 : Elevation Log Zero
APD .M                    3.05 : Above Perm. Datum
LMF .                       KB : Log measured from
MP  .                       KB : Drill measured from
OS  .            COMPOSITE LOG : Services
OS1 .        MULTIPLE ELECTRIK : Other Services Ln 1
OS2 .                   GR-DSN : Other Services Ln 2
OS3 .                     GR-N : Other Services Ln 3
SRVC.                          : Service company
DATE.              11 MAY 2050 : Date
~Curve Information -----------------------------------------
DEPT.M     : 1  Depth
GR  .API   : 2  Gamma-Ray Log
SP  .MV    : 3  Spontaneous Potential Log
SN  .OHMM  : 4  Short Normal Resistivity
LN  .OHMM  : 5  Long Normal Resistivity
LAT .OHMM  : 6  Lateral
DENS.CPS   : 7  Density Log
NEUT.API   : 8  Neutron Log Porosity
~Params ----------------------------------------------------
RUN .               1 : Run number
DD  .M         354.79 : Depth-Driller
DL  .M         356.01 : Depth-Logger
BLI .M         353.26 : Bottom log interval
TLI .M          40.23 : Top log interval
CS  .IN         9.625 : Casing Diameter
DFT . FRESH WATER GEL : Hole Fluid type
DFD .G/C3      1.1983 : Fluid Density
RMS .OHMM         1.8 : RM  @ Surface
RMT .DEGC       29.44 : Mud temp Surface
RMFS.OHMM         1.5 : RMF @ Surface
RMTF.DEGC       29.44 : MF temp Surface
MFSS.        FILTRATE : Source of RMF/RMC
TCS .            1430 : Time circ. stopped
TLAB.            1536 : Time logger at btm
~Other -----------------------------------------------------
~ASCII -----------------------------------------------------
# ...
   97.53600   84.23150   -0.10352    5.72565    8.03181    5.72565 3871.77000  543.73800
   97.68840   83.43310   -0.09768    5.72565    8.03181    5.44732 3871.77000  544.23500
   97.84080   82.63470   -0.09184    5.76541    7.99205    5.16899 3906.56000  544.73200
   97.99320   82.63470   -0.08600    5.80517    7.95229    4.93042 3906.56000  554.67200
   98.14560   82.23550   -0.08016    6.04374    8.03181    4.89066 3906.56000  554.17500
   98.29800   81.83630   -0.07432    6.04374    8.11133    4.85089 3891.65000  553.67800
   98.45040   83.83230   -0.11868    6.04374    8.19086    4.85089 3904.08000  544.73200
   98.60280   83.83230   -0.16304    6.04374    8.27038    4.85089 3916.50000  544.23500
   98.75520   83.83230   -0.15720    6.04374    8.27038    4.85089 3951.29000  543.73800
   98.90760   85.02990   -0.15136    6.04374    8.27038    4.61233 3976.14000  537.77300
   99.06000   89.42120   -0.14552    6.04374    8.27038    4.61233 4000.99000  539.26400
   99.21240   89.42120   -0.13968    6.28231    8.27038    4.61233 4105.37000  540.75500
   99.36480   81.43710   -0.13384    6.28231    8.27038    4.61233 4140.16000  546.72000
   99.51720   80.63870   -0.22840    6.28231    8.27038    4.61233 4174.95000  547.21700
   99.66960   84.63070   -0.32306    6.12326    8.27038    4.61233 4259.44000  547.71400
   99.82200   85.02990   -0.31722    6.08350    8.27038    4.61233 4294.23000  547.71400
   99.97440   85.82830   -0.31138    6.04374    8.27038    4.61233 4383.70000  547.21700
  100.12680   86.62670   -0.30554    6.12326    8.42942    4.61233 4373.76000  546.72000
  100.27920   79.84030   -0.29970    6.20278    8.46918    4.61233 4338.97000  540.75500
  100.43160   81.83630   -0.29386    6.28231    8.50895    4.61233 4314.12000  538.76700
  100.58400   87.42510   -0.28802    6.36183    8.50895    4.61233 4304.17000  536.77900
  100.73640   87.42510   -0.28218    6.36183    8.54871    4.61233 4279.32000  534.79100
  100.88880   87.42510   -0.27634    6.36183    8.58847    4.61233 4269.38000  534.29400
  101.04120   86.22750   -0.27050    6.36183    8.98608    4.61233 4289.26000  533.79700
  101.19360   83.83230   -0.06376    6.36183    8.98608    4.61233 4296.72000  534.79100
  101.34600   81.83630   -0.15833    6.36183    8.98608    4.61233 4304.17000  536.28200
  101.49840   80.63870   -0.23734    6.36183    8.82704    4.61233 4348.91000  537.77300
  101.65080   84.23150   -0.01496    6.60040    8.90656    4.61233 4366.30000  539.76100
  101.80320   84.23150   -0.09388    6.60040    8.98608    4.61233 4383.70000  537.27600
  101.95560   84.23150   -0.17290    6.60040    8.98608    4.61233 4408.55000  534.79100
  102.10800   82.23550    0.04948    6.44135    8.98608    4.61233 4420.97000  533.79700
  102.26040   82.03590   -0.02944    6.28231    8.98608    4.61233 4433.40000  535.28800
  102.41280   81.83630   -0.10846    6.12326    8.98608    4.97018 4468.19000  536.77900
  102.56520   81.43710   -0.08698    6.24254    8.98608    5.24851 4475.65000  544.73200
  102.71760   81.03790   -0.06550    6.36183    8.98608    5.24851 4483.10000  544.73200
  102.87000   80.63870   -0.04402    6.28231    8.82704    5.40755 4458.25000  544.73200
  103.02240   77.44510   -0.32373    6.40159    8.90656    5.56660 4363.82000  547.71400
  103.17480   76.24750   -0.15165    6.52087    8.98608    5.96421 4373.76000  549.70200
  103.32720   75.04990    0.02043    6.75944    8.98608    5.96421 4388.67000  551.69000
  103.47960   74.65070    0.04191    6.79920    8.98608    5.96421 4423.46000  555.66600
  103.63200   82.63470    0.01319    6.83897    8.98608    5.96421 4443.34000  555.66600
  103.78440   82.63470   -0.01553    7.07753    8.98608    5.96421 4388.67000  555.66600
  103.93680   77.44510    0.10635    7.11730    8.98608    5.96421 4388.67000  555.66600
  104.08920   75.24950    0.07763    7.15706    8.98608    5.72565 4388.67000  555.16900
  104.24160   73.05390    0.04891    7.39563    9.06561    5.60636 4329.03000  554.67200
  104.39400   73.45310   -0.13041    7.15706    9.06561    5.48708 4299.21000  557.65400
  104.54640   75.44910   -0.10892    6.91849    9.06561    5.40755 4269.38000  558.15100
  104.69880   77.44510   -0.08744    6.83897    9.06561    5.20875 4160.04000  558.64800
  104.85120   80.63870   -0.06596    6.83897    9.06561    5.00994 4160.04000  560.63600
  105.00360   80.23950   -0.04448    6.83897    9.06561    4.93042 4174.95000  560.63600
  105.15600   79.84030   -0.02300    6.91849    9.06561    4.93042 4259.44000  560.63600
  105.30840   79.44110   -0.00152    7.03777    9.06561    4.93042 4286.78000  579.52300
  105.46080   78.04390    0.01996    7.15706    9.06561    5.00994 4314.12000  585.48700
  105.61320   76.64670    0.04144    6.91849    9.06561    5.08946 4254.47000  589.46300
  105.76560   75.04990    0.06292    6.87873    9.06561    5.16899 4197.32000  588.46900
  105.91800   73.65270    0.18480    6.83897    9.06561    5.16899 4140.16000  584.49300
  106.07040   72.25550    0.30669    6.83897    9.06561    5.16899 4030.82000  582.50500
  106.22280   69.06190    0.32817    6.83897    9.06561    5.16899 4008.45000  582.50500
  106.37520   67.66470    0.34965    6.83897    9.06561    5.16899 3871.77000  585.48700
  106.52760   66.26750    0.37113    6.83897    9.06561    5.16899 3871.77000  589.46300
  106.68000   62.80000    0.49301    7.07753    9.30418    5.16899 3957.30000  592.44500
  106.83240   62.40000    0.51449    7.11730    9.34394    5.16899 3957.30000  586.48100
  106.98480   62.40000    0.63647    7.15706    9.38370    5.16899 3957.30000  579.52300
  107.13720   62.40000    0.75835    6.91849    9.62227    5.16899 3997.02000  576.54100
  107.28960   60.80000    0.77983    6.87873    9.62227    5.16899 4001.99000  581.51100
  107.44200   60.60000    0.80132    6.83897    9.62227    5.16899 4006.95000  585.48700
  107.59440   60.40000    0.82280    6.60040    9.62227    5.16899 4031.78000  589.46300
  107.74680   60.00000    0.94468    6.60040    9.62227    5.16899 4039.23000  589.46300
  107.89920   59.80000    0.96616    6.60040    9.62227    5.16899 4046.67000  589.46300
  108.05160   59.60000    0.98764    6.60040    9.62227    5.20875 4026.81000  589.46300
  108.20400   60.00000    1.00912    6.60040    9.62227    5.24851 4021.85000  588.46900
  108.35640   60.00000    1.03060    6.60040    9.62227    5.48708 3962.26000  586.97800
  108.50880   60.00000    1.05208    6.83897    9.70179    5.60636 3967.23000  585.48700
  108.66120   60.00000    1.07356    6.83897    9.78131    5.72565 3982.13000  579.52300
  108.81360   59.60000    1.09504    6.83897    9.86084    5.72565 4001.99000  578.03200
  108.96600   59.20000    1.11652    6.82903    9.86084    5.84493 4021.85000  576.54100
  109.11840   56.80000    1.13800    6.81909   10.01990    5.96421 4031.78000  575.54700
  109.27080   55.60000    1.25989    6.80914   10.17890    6.04374 4056.60000  576.04400
  109.42320   54.40000    1.38177    6.79920   10.41750    6.16302 4071.50000  576.54100
  109.57560   53.20000    1.40325    6.78926   10.41750    6.28231 4081.43000  578.52900
  109.72800   52.20000    1.42473    6.77932   10.41750    6.52087 4091.36000  578.52900
  109.88040   51.20000    1.44621    6.76938   10.49700    6.64016 3828.20000  578.52900
  110.03280   49.20000    1.46769    6.75944   10.57650    6.75944 3828.20000  599.40400
  110.18520   48.20000    1.48917    6.75944   10.65610    6.83897 3833.17000  602.88300
  110.33760   47.20000    1.51065    6.78595   10.65610    6.95825 3882.82000  606.36200
  110.49000   48.00000    1.53213    6.81246   10.65610    7.07753 3892.75000  620.27800
  110.64240   47.00000    1.55361    6.83897   10.65610    7.07753 3902.68000  625.24900
  110.79480   46.00000    1.57510    7.39563   11.05370    7.07753 3922.54000  630.21900
  110.94720   46.00000    1.59658    7.51491   11.05370    7.15706 3922.54000  648.11100
  111.09960   45.40000    1.61806    7.63419   11.05370    7.27634 3922.54000  653.08200
