~Version ---------------------------------------------------
VERS. 2.0 : CWLS log ASCII Standard -VERSION 2.0
WRAP.  NO : One line per depth step
~Well ------------------------------------------------------
STRT.M                   15.24 : START
STOP.M                  365.76 : STOP
STEP.M      0.1524000000000001 : STEP
NULL.                  -999.25 : NULL VALUE
COMP.              RAJAMANDALA : Company
WELL.              RAJAMANDALA : Well Name
FLD .              RAJAMANDALA : Field
CTRY.              RAJAMANDALA : Country
STAT.              RAJAMANDALA : State
PROV.                          : Province
LOC .                          : Field Location
LATI. 001 01' 01.000" S    DMS : Latitude
LONG. 001 01' 01.000" E    DMS : Longitude
PD  .                      MSL : Permanent Datum
EPD .M                   -1.52 : Elevation of PD
UWI .              RAJAMANDALA : Unique Well ID
EKB .M                    4.57 : Elevation of KB
EGL .M                   -1.52 : Elevation Ground lv
ELZ .M                    3.05 : Elevation Log Zero
APD .M                    3.05 : Above Perm. Datum
LMF .                       KB : Log measured from
MP  .                       KB : Drill measured from
OS  .            COMPOSITE LOG : Services
OS1 .        MULTIPLE ELECTRIK : Other Services Ln 1
OS2 .                   GR-DSN : Other Services Ln 2
OS3 .                     GR-N : Other Services Ln 3
SRVC.                          : Service company
DATE.              11 MAY 2050 : Date
~Curve Information -----------------------------------------
DEPT.M     : 1  Depth
GR  .API   : 2  Gamma-Ray Log
SP  .MV    : 3  Spontaneous Potential Log
SN  .OHMM  : 4  Short Normal Resistivity
LN  .OHMM  : 5  Long Normal Resistivity
LAT .OHMM  : 6  Lateral
DENS.CPS   : 7  Density Log
NEUT.API   : 8  Neutron Log Porosity
~Params ----------------------------------------------------
RUN .               1 : Run number
DD  .M         354.79 : Depth-Driller
DL  .M         356.01 : Depth-Logger
BLI .M         353.26 : Bottom log interval
TLI .M          40.23 : Top log interval
CS  .IN         9.625 : Casing Diameter
DFT . FRESH WATER GEL : Hole Fluid type
DFD .G/C3      1.1983 : Fluid Density
RMS .OHMM         1.8 : RM  @ Surface
RMT .DEGC       29.44 : Mud temp Surface
RMFS.OHMM         1.5 : RMF @ Surface
RMTF.DEGC       29.44 : MF temp Surface
MFSS.        FILTRATE : Source of RMF/RMC
TCS .            1430 : Time circ. stopped
TLAB.            1536 : Time logger at btm
~Other -----------------------------------------------------
~ASCII -----------------------------------------------------
# ...
  207.26400   36.52690    0.59036   10.63490   12.85710   13.02970 5104.27000  530.31800
  207.41640   36.32730    0.78714   10.87300   12.81750   14.01980 5114.20000  530.81500
  207.56880   35.92810    0.88391   11.11110   12.77780   14.41580 5089.37000  534.79100
  207.72120   36.12770    0.98069   11.50790   12.30160   14.45540 4990.07000  537.77300
  207.87360   36.32730    0.47746   11.66670   12.06350   14.49500 4612.71000  540.75500
  208.02600   36.32730   -0.02576   11.74600   11.82540   14.25740 4597.82000  547.71400
  208.17840   36.32730    0.17102   11.58730   11.26980   14.17820 4463.75000  550.69600
  208.33080   36.32730    1.86779   11.26980   10.63490   14.09900 3877.85000  564.61200
  208.48320   36.32730    1.36457   10.79370   10.35710   13.86140 3862.96000  562.62400
  208.63560   36.92610    0.86134   10.31750   10.07940   13.22770 3862.96000  562.12700
  208.78800   37.52500    0.75812    9.84127    9.60317   12.75250 3862.96000  561.63000
  208.94040   38.32340    2.25489    9.44444    9.32540   12.27720 3843.10000  548.70800
  209.09280   38.52300    2.15167    9.04762    9.12698   11.00990 3833.17000  551.19300
  209.24520   38.72260    1.64845    8.25397    9.07937   10.37620 3830.69000  553.67800
  209.39760   40.31940    1.34522    8.05556    9.03175    9.74257 3813.31000  560.63600
  209.55000   40.51900    1.14200    7.85714    8.98413    8.15842 3813.31000  562.62400
  209.70240   40.71860    1.13878    6.90476    8.93651    8.07921 3798.41000  564.61200
  209.85480   39.12180    1.13555    6.70635    8.65079    8.07921 3793.45000  565.60600
  210.00720   38.92220    2.53233    6.50794    8.57143    8.07921 3783.52000  567.09700
  210.15960   38.72260    3.32910    6.42857    8.41270    8.07921 3783.52000  568.58800
  210.31200   39.92020    3.72588    6.42857    8.17460    8.07921 4061.57000  575.54700
  210.46440   40.31940    4.02265    6.42857    7.93651    8.07921 4128.60000  579.02600
  210.61680   40.71860    3.91943    6.19048    7.53968    8.07921 4299.90000  582.50500
  210.76920   40.31940    3.91621    6.19048    7.38095    8.07921 4294.94000  589.46300
  210.92160   40.31940    3.91298    6.26984    7.38095    8.07921 4272.59000  584.49300
  211.07400   40.31940    3.70975    6.26984    7.14286    8.07921 4250.25000  579.52300
  211.22640   40.31940    3.60653    6.34921    7.14286    8.07921 4210.53000  579.52300
  211.37880   40.31940    3.50331    6.34921    7.14286    8.00000 4168.32000  583.00200
  211.53120   40.31940    3.20008    6.42857    6.98413    7.92079 4126.12000  586.48100
  211.68360   40.31940    2.94686    6.34921    6.98413    7.84158 4096.33000  595.42700
  211.83600   40.31940    2.69363    6.26984    6.94444    7.44554 4031.78000  595.42700
  211.98840   40.31940    2.39041    6.50794    6.90476    7.44554 4031.78000  595.42700
  212.14080   40.71860    2.53719    6.38889    6.90476    7.44554 4309.83000  588.46900
  212.29320   40.91820    2.68396    6.26984    6.90476    7.44554 4319.76000  584.99000
  212.44560   41.11780    3.78074    5.55556    6.90476    7.44554 4280.04000  581.51100
  212.59800   41.91620    3.87751    5.47619    6.90476    7.44554 4260.18000  572.56500
  212.75040   41.91620    3.97429    5.39683    6.90476    7.44554 4245.28000  569.08600
  212.90280   41.91620    4.37107    5.47619    6.90476    7.60396 4195.63000  565.60600
  213.05520   41.91620    4.21784    5.47619    6.74603    7.76238 4165.84000  567.59400
  213.20760   41.91620    4.06462    5.47619    6.62054    7.92079 4145.98000  568.09100
  213.36000   41.91620    3.66139    5.46535    6.41584    7.92079 4195.63000  568.58800
  213.51240   43.51300    3.05817    5.44554    6.33663    7.92079 4260.18000  568.58800
  213.66480   44.31140    3.00495    5.46535    6.25743    7.92079 4314.80000  574.55300
  213.81720   44.71060    2.95172    5.46535    6.21782    7.92079 4319.76000  580.51700
  213.96960   45.10980    5.14849    5.35974    6.17822    7.76238 4314.80000  586.48100
  214.12200   43.11380    5.84527    5.25413    6.09901    7.60396 4051.64000  589.46300
  214.27440   42.71460    9.24205    5.06931    6.07261    7.44554 3967.23000  595.92400
  214.42680   42.31540    8.73883    5.06931    6.04620    7.16832 3892.75000  602.38600
  214.57920   42.71460    4.43560    5.06931    6.01980    6.89109 3758.69000  593.43900
  214.73160   43.91220    3.73238    4.99010    5.86139    6.41584 3694.14000  590.95400
  214.88400   45.10980    2.12915    4.93729    6.17822    6.21782 3714.00000  588.46900
  215.03640   45.10980   -1.37407    4.88449    6.17822    6.01980 4061.57000  575.54700
  215.18880   44.91020   -1.57730    4.75248    6.17822    5.14851 4163.36000  572.06800
  215.34120   44.71060   -2.28052    4.75248    6.17822    4.95049 4448.86000  568.58800
  215.49360   43.51300   -8.78374    4.75248    6.13861    4.75248 4448.86000  575.54700
  215.64600   44.31140   -8.98697    4.75248    6.09901    4.67327 4404.17000  577.53500
  215.79840   45.10980   -9.19019    4.75248    5.86139    4.51485 4364.45000  579.52300
  215.95080   47.50500   -9.19342    4.43564    5.82178    4.35644 4319.76000  585.48700
  216.10320   48.70260   -9.19664    4.43564    5.78218    4.11881 4175.77000  588.46900
  216.25560   49.90020   -8.99987    4.43564    5.78218    3.96040 4031.78000  591.45100
  216.40800   49.50100   -8.10309    4.35644    5.78218    3.80198 3882.82000  595.42700
  216.56040   49.30140   -8.10632    4.35644    5.78218    3.64356 3813.31000  599.40400
  216.71280   49.10180   -7.60954    4.35644    5.78218    3.64356 3743.79000  603.38000
  216.86520   47.10580   -7.41277    4.27723    5.62376    3.64356 3560.08000  610.33800
  217.01760   47.10580   -7.21599    4.11881    5.46535    3.64356 3545.18000  611.82900
  217.17000   47.10580   -6.11921    4.11881    5.46535    3.60396 3545.18000  613.32000
  217.32240   45.50900   -5.92244    4.11881    5.46535    3.56436 3555.11000  607.35600
  217.47480   44.31140   -3.42566    4.11881    5.46535    3.40594 3589.87000  605.36800
  217.62720   43.11380   -3.22889    4.11881    5.38614    3.36634 3624.63000  603.38000
  217.77960   41.91620   -3.03211    4.11881    5.38614    3.32673 3659.38000  602.38600
  217.93200   41.91620   -3.23533    4.11881    5.38614    3.08911 3669.31000  602.38600
  218.08440   41.91620   -3.33855    4.07921    5.38614    3.00990 3679.25000  602.38600
  218.23680   42.71460   -5.04178    4.03960    5.38614    2.93069 3679.25000  596.42100
  218.38920   44.31140   -5.24501    3.92079    5.38614    2.93069 3666.83000  595.42700
  218.54160   43.31340   -5.54823    3.80198    5.22772    2.89109 3654.42000  596.91800
  218.69400   42.31540   -1.45145    3.80198    5.22772    2.85149 3609.73000  598.41000
  218.84640   42.71460   -1.25468    3.80198    5.22772    2.85149 3602.28000  603.38000
  218.99880   42.71460   -1.25790    3.72277    5.22772    2.73267 3594.84000  607.85300
  219.15120   42.71460   -1.26113    3.72277    5.22772    2.61386 3579.94000  612.32600
  219.30360   41.91620   -1.06435    3.72277    5.22772    2.61386 3602.28000  620.27800
  219.45600   41.31740   -1.06757    3.72277    5.06931    2.61386 3624.63000  623.75700
  219.60840   40.71860   -1.47080    3.72277    5.06931    2.61386 3689.18000  627.23700
  219.76080   40.31940   -1.57402    3.72277    5.06931    2.61386 3723.93000  635.18900
  219.91320   41.31740   -1.97725    3.68317    5.06931    2.61386 3758.69000  641.15300
  220.06560   42.31540   -6.28047    3.64356    4.95049    2.61386 3793.45000  651.09300
  220.21800   43.11380   -6.78369    3.64356    4.83168    2.61386 3786.00000  652.08700
  220.37040   43.91220   -7.78692    3.64356    4.75248    2.61386 3778.55000  651.09300
  220.52280   44.71060   -7.79015    3.64356    4.75248    2.61386 3723.93000  631.21300
  220.67520   44.31140   -7.79337    3.64356    4.75248    2.61386 3659.38000  631.21300
  220.82760   43.71260   -6.09659    3.64356    4.75248    2.61386 3644.49000  657.05800
