~Version ---------------------------------------------------
VERS. 2.0 : CWLS log ASCII Standard -VERSION 2.0
WRAP.  NO : One line per depth step
~Well ------------------------------------------------------
STRT.M                   15.24 : START
STOP.M                  365.76 : STOP
STEP.M      0.1524000000000001 : STEP
NULL.                  -999.25 : NULL VALUE
COMP.              RAJAMANDALA : Company
WELL.              RAJAMANDALA : Well Name
FLD .              RAJAMANDALA : Field
CTRY.              RAJAMANDALA : Country
STAT.              RAJAMANDALA : State
PROV.                          : Province
LOC .                          : Field Location
LATI. 001 01' 01.000" S    DMS : Latitude
LONG. 001 01' 01.000" E    DMS : Longitude
PD  .                      MSL : Permanent Datum
EPD .M                   -1.52 : Elevation of PD
UWI .              RAJAMANDALA : Unique Well ID
EKB .M                    4.57 : Elevation of KB
EGL .M                   -1.52 : Elevation Ground lv
ELZ .M                    3.05 : Elevation Log Zero
APD .M                    3.05 : Above Perm. Datum
LMF .                       KB : Log measured from
MP  .                       KB : Drill measured from
OS  .            COMPOSITE LOG : Services
OS1 .        MULTIPLE ELECTRIK : Other Services Ln 1
OS2 .                   GR-DSN : Other Services Ln 2
OS3 .                     GR-N : Other Services Ln 3
SRVC.                          : Service company
DATE.              11 MAY 2050 : Date
~Curve Information -----------------------------------------
DEPT.M     : 1  Depth
GR  .API   : 2  Gamma-Ray Log
SP  .MV    : 3  Spontaneous Potential Log
SN  .OHMM  : 4  Short Normal Resistivity
LN  .OHMM  : 5  Long Normal Resistivity
LAT .OHMM  : 6  Lateral
DENS.CPS   : 7  Density Log
NEUT.API   : 8  Neutron Log Porosity
~Params ----------------------------------------------------
RUN .               1 : Run number
DD  .M         354.79 : Depth-Driller
DL  .M         356.01 : Depth-Logger
BLI .M         353.26 : Bottom log interval
TLI .M          40.23 : Top log interval
CS  .IN         9.625 : Casing Diameter
DFT . FRESH WATER GEL : Hole Fluid type
DFD .G/C3      1.1983 : Fluid Density
RMS .OHMM         1.8 : RM  @ Surface
RMT .DEGC       29.44 : Mud temp Surface
RMFS.OHMM         1.5 : RMF @ Surface
RMTF.DEGC       29.44 : MF temp Surface
MFSS.        FILTRATE : Source of RMF/RMC
TCS .            1430 : Time circ. stopped
TLAB.            1536 : Time logger at btm
~Other -----------------------------------------------------
~ASCII -----------------------------------------------------
# ...
   56.38800   77.38100   -1.37039    6.91849   10.17890    8.09524 4851.04000  537.77300
   56.54040   76.58730   -1.37039    6.95825   10.13920    8.09524 4816.29000  539.26400
   56.69280   75.79360   -1.37039    6.99801   10.09940    8.09524 4771.60000  540.75500
   56.84520   68.25400   -1.37039    6.91849   10.17890    8.09524 4786.49000  533.79700
   56.99760   68.25400   -1.37039    6.91849   10.13920    8.09524 4801.39000  532.30600
   57.15000   68.25400   -1.37039    6.91849   10.09940    8.09524 4831.18000  530.81500
   57.30240   66.66670   -1.37039    6.91849   10.09940    8.09524 4831.18000  532.80300
   57.45480   65.87300   -1.37039    6.87873   10.09940    8.09524 4826.22000  533.79700
   57.60720   65.07940   -1.37039    6.83897   10.09940    8.09524 4726.91000  534.79100
   57.75960   63.49210   -1.37039    6.83897   10.17890    8.09524 4741.81000  540.75500
   57.91200   63.69050   -1.37039    6.79920   10.13920    8.09524 4741.81000  543.73800
   58.06440   63.88890   -1.37039    6.75944   10.09940    8.09524 4741.81000  546.72000
   58.21680   63.88890   -1.07219    6.83897   10.17890    8.09524 4667.33000  551.69000
   58.36920   63.88890   -1.07219    6.87873   10.17890    8.09524 4667.33000  553.18100
   58.52160   63.88890   -1.07219    6.91849   10.17890    8.09524 4682.22000  554.67200
   58.67400   63.49210   -0.97279    6.99801   10.17890    8.09524 4915.59000  555.66600
   58.82640   63.09520   -0.37639    7.23658   10.13920    8.05556 4890.76000  558.64800
   58.97880   62.69840   -0.37639    7.31610   10.09940    8.01587 4841.11000  561.63000
   59.13120   60.71430   -0.47579    7.39563   10.17890    7.93651 4587.88000  567.59400
   59.28360   59.92060   -0.57519    7.39563   10.13920    7.93651 4627.61000  568.09100
   59.43600   59.12700   -0.67459    7.39563   10.09940    7.93651 4657.40000  568.58800
   59.58840   59.12700   -0.77399    7.39563   10.01990    7.85714 4677.26000  575.54700
   59.74080   58.73020   -0.27699    7.39563    9.98012    7.85714 4692.15000  580.51700
   59.89320   58.33330    0.22011    7.39563    9.94036    7.85714 4548.16000  585.48700
   60.04560   57.53970    0.51831    7.36382    9.94036    7.69841 4558.09000  596.42100
   60.19800   57.73810    0.36921    7.33201    9.90060    7.81746 4602.78000  599.40400
   60.35040   57.93650    0.22011    7.30020    9.86084    7.93651 4612.71000  602.38600
   60.50280   57.93650   -0.27699    7.26839    9.78131    8.09524 4602.78000  599.40400
   60.65520   58.13490   -0.42609    7.23658    9.82107    8.09524 4572.99000  596.42200
   60.80760   58.33330   -0.57519    7.07753    9.86084    8.41270 4543.20000  593.43900
   60.96000   58.84690   -0.72329    7.15706    9.86084    8.41270 4393.64000  591.45100
   61.11240   58.84690   -0.72329    7.15706    9.86084    8.41270 4393.64000  594.43300
   61.26480   57.25650   -0.72329    7.17978    9.82107    8.41270 4393.64000  597.41600
   61.41720   55.66600   -0.72329    7.20250    9.78131    8.41270 4398.61000  600.39800
   61.56960   54.87080   -0.82289    7.22522    9.78131    8.41270 4443.34000  592.44500
   61.72200   54.87080   -0.92249    7.24794    9.82107    8.41270 4463.22000  585.98400
   61.87440   54.87080   -1.02209    7.27066    9.86084    8.41270 4547.71000  579.52300
   62.02680   54.47320   -1.12169    7.29338    9.86084    8.33333 4547.71000  575.54700
   62.17920   52.48510   -1.12169    7.31610    9.82107    8.33333 4547.71000  576.04400
   62.33160   50.49700   -1.12169    7.31610    9.78131    8.33333 4572.56000  576.54100
   62.48400   49.30420   -1.22129    7.31610    9.86084    8.33333 4594.93000  605.36800
   62.63640   50.49700   -1.22129    7.31610    9.86084    8.33333 4617.30000  603.38000
   62.78880   51.68990   -1.32089    7.31610    9.86084    8.33333 4681.91000  596.42100
   62.94120   54.47320   -1.32089    7.31610    9.86084    8.33333 4741.55000  591.45100
   63.09360   54.07550   -1.32089    7.31610    9.86084    8.33333 4721.67000  588.96600
   63.24600   53.67790   -1.32089    7.39563    9.86084    8.33333 4676.94000  586.48100
   63.39840   51.68990   -1.32089    7.47515    9.86084    8.33333 4642.15000  585.48700
   63.55080   50.69580   -1.28769    7.47515    9.86084    8.33333 4622.27000  585.98400
   63.70320   49.70180   -1.25449    7.47515    9.86084    8.33333 4582.50000  586.48100
   63.85560   48.90660   -1.22129    7.47515    9.86084    8.33333 4572.56000  595.42700
   64.00800   48.90660   -1.12169    7.47515   10.01990    8.33333 4577.53000  595.92400
   64.16040   48.90660   -1.02209    7.47515   10.17890    8.33333 4602.39000  596.42100
   64.31280   49.30420   -0.72329    7.47515   10.33800    8.33333 4642.15000  596.42100
   64.46520   48.50890   -0.72329    7.47515   10.45730    8.29365 4671.97000  592.44500
   64.61760   47.71370   -0.42449    7.47515   10.57650    8.25397 4935.39000  588.46900
   64.77000   46.12330    0.07351    7.15706   10.73560    8.17460 4980.12000  578.52900
   64.92240   45.12920    0.87031    7.03777   10.89460    7.97619 5700.80000  571.57100
   65.07480   44.13520    1.66711    6.91849   11.05370    7.77778 5725.65000  564.61200
   65.22720   42.54470    2.06561    6.44135   11.05370    7.14286 5815.11000  547.71400
   65.37960   43.14120    2.26481    6.16302   11.13320    6.82540 5989.07000  542.74400
   65.53200   43.73760    2.46401    5.88469   11.21270    6.50794 6371.77000  537.77300
   65.68440   44.13520    2.56361    5.48708   11.29220    6.03175 6873.76000  543.73800
   65.83680   45.92450    2.56361    5.40755   11.37180    6.03175 6863.82000  554.17500
   65.98920   47.71370    2.56361    5.32803   11.37180    6.03175 6684.89000  564.61200
   66.14160   52.48510    2.56361    5.24851   11.29220    6.26984 6600.40000  579.52300
   66.29400   53.47910    2.51381    5.28827   11.21270    6.50794 6545.73000  589.96000
   66.44640   62.82310    2.46401    5.32803   11.17300    6.74603 5690.85000  600.39800
   66.59880   65.20870    2.46401    5.24851   10.33800    7.61905 5626.24000  606.36200
   66.75120   65.60640    2.41421    5.28827   10.33800    7.97619 4880.72000  610.33800
   66.90360   66.00400    2.36441    5.32803   10.33800    8.33333 4577.53000  611.33200
   67.05600   69.98010    1.56751    5.64612    9.62227    9.04762 4577.53000  569.58300
   67.20840   71.57060    1.41811    5.80517    9.58251    9.44444 4642.15000  569.58300
   67.36080   73.16100    1.26871    5.96421    9.54274    9.84127 4771.37000  569.58300
   67.51320   80.31810    0.96991    6.44135    9.54274   10.07940 4801.19000  562.62400
   67.66560   77.33600    0.92011    6.60040    9.54274   10.03970 4806.16000  555.66600
   67.81800   74.35390    0.87031    6.75944    9.54274   10.00000 4781.31000  548.70800
   67.97040   67.99210    0.17311    6.83897    9.62227   10.00000 4597.42000  543.73800
   68.12280   65.40760    0.01786    6.87873    9.62227   10.00000 4577.53000  544.23500
   68.27520   62.82310   -0.13739    6.91849    9.62227   10.00000 4776.34000  544.73200
   68.42760   54.47320    0.20536    6.83897    9.54274   10.00000 4662.03000  561.63000
   68.58000   51.88870    0.64771    6.83897   10.09940   10.00000 4642.15000  565.60600
   68.73240   49.30420    1.09007    6.83897   10.33800   10.00000 4642.15000  569.58300
   68.88480   44.13520    1.53242    6.83897   10.57650    9.92064 4642.15000  582.50500
   69.03720   42.54470    2.37327    6.91849   10.57650    9.88095 4671.97000  585.98400
   69.18960   40.95430    2.61642    6.87873   10.69580    9.84127 4716.70000  589.46300
   69.34200   38.56860    2.85957    6.83897   10.81510    9.28571 4950.30000  582.50500
   69.49440   38.56860    3.20232    6.60040   11.13320    9.00794 6063.62000  580.51700
   69.64680   38.56860    3.29607    6.52087   11.37180    8.73016 6128.23000  578.52900
   69.79920   38.56860    3.38982    6.44135   11.41150    8.17460 6153.08000  575.54700
   69.95160   38.36980    3.83217    6.44135   11.45130    8.17460 6163.02000  578.52900
