~Version ---------------------------------------------------
VERS. 2.0 : CWLS log ASCII Standard -VERSION 2.0
WRAP.  NO : One line per depth step
~Well ------------------------------------------------------
STRT.M                   15.24 : START
STOP.M                  365.76 : STOP
STEP.M      0.1524000000000001 : STEP
NULL.                  -999.25 : NULL VALUE
COMP.              RAJAMANDALA : Company
WELL.              RAJAMANDALA : Well Name
FLD .              RAJAMANDALA : Field
CTRY.              RAJAMANDALA : Country
STAT.              RAJAMANDALA : State
PROV.                          : Province
LOC .                          : Field Location
LATI. 001 01' 01.000" S    DMS : Latitude
LONG. 001 01' 01.000" E    DMS : Longitude
PD  .                      MSL : Permanent Datum
EPD .M                   -1.52 : Elevation of PD
UWI .              RAJAMANDALA : Unique Well ID
EKB .M                    4.57 : Elevation of KB
EGL .M                   -1.52 : Elevation Ground lv
ELZ .M                    3.05 : Elevation Log Zero
APD .M                    3.05 : Above Perm. Datum
LMF .                       KB : Log measured from
MP  .                       KB : Drill measured from
OS  .            COMPOSITE LOG : Services
OS1 .        MULTIPLE ELECTRIK : Other Services Ln 1
OS2 .                   GR-DSN : Other Services Ln 2
OS3 .                     GR-N : Other Services Ln 3
SRVC.                          : Service company
DATE.              11 MAY 2050 : Date
~Curve Information -----------------------------------------
DEPT.M     : 1  Depth
GR  .API   : 2  Gamma-Ray Log
SP  .MV    : 3  Spontaneous Potential Log
SN  .OHMM  : 4  Short Normal Resistivity
LN  .OHMM  : 5  Long Normal Resistivity
LAT .OHMM  : 6  Lateral
DENS.CPS   : 7  Density Log
NEUT.API   : 8  Neutron Log Porosity
~Params ----------------------------------------------------
RUN .               1 : Run number
DD  .M         354.79 : Depth-Driller
DL  .M         356.01 : Depth-Logger
BLI .M         353.26 : Bottom log interval
TLI .M          40.23 : Top log interval
CS  .IN         9.625 : Casing Diameter
DFT . FRESH WATER GEL : Hole Fluid type
DFD .G/C3      1.1983 : Fluid Density
RMS .OHMM         1.8 : RM  @ Surface
RMT .DEGC       29.44 : Mud temp Surface
RMFS.OHMM         1.5 : RMF @ Surface
RMTF.DEGC       29.44 : MF temp Surface
MFSS.        FILTRATE : Source of RMF/RMC
TCS .            1430 : Time circ. stopped
TLAB.            1536 : Time logger at btm
~Other -----------------------------------------------------
~ASCII -----------------------------------------------------
# ...
  138.68400   45.10980   -4.50859   22.18690   25.20870   43.25400 3877.85000  534.79100
  138.83640   45.10980   -4.33670   19.32410   23.37970   43.25400 3905.16000  529.32400
  138.98880   45.10980   -4.51572   18.25050   23.30020   43.25400 3932.47000  523.85700
  139.14120   45.90820   -4.49424   17.17690   22.34590   43.25400 4011.92000  517.89300
  139.29360   46.10780   -4.47276   15.50700   21.23260   43.25400 3997.02000  519.38400
  139.44600   46.30740   -4.25078   15.14910   20.51690   43.25400 3897.72000  520.87500
  139.59840   47.10580   -3.97880   14.79130   19.96020   43.25400 3892.75000  533.79700
  139.75080   47.10580   -3.70682   14.39360   19.08550   43.25400 3892.75000  535.78500
  139.90320   47.10580   -3.38474   14.15510   18.76740   43.25400 3907.65000  537.77300
  140.05560   47.10580   -3.46346   13.91650   18.44930   43.17460 4180.73000  540.75500
  140.20800   48.30340   -3.54217   13.59840   17.89260   43.17460 4041.71000  542.74400
  140.36040   49.50100   -3.62089   13.39960   17.09740   43.17460 4011.92000  544.73200
  140.51280   51.89620   -3.54931   13.20080   16.77930   42.61900 3977.16000  548.70800
  140.66520   52.49500   -3.47773   12.64410   16.69980   41.98410 3962.26000  554.67200
  140.81760   53.09380   -3.45625   12.24650   15.94430   36.11110 3872.89000  554.67200
  140.97000   52.69460   -3.38467   11.84890   15.18890   33.73020 3862.96000  554.67200
  141.12240   52.89420   -3.31309   11.61030   14.47320   32.81750 3843.10000  552.68400
  141.27480   53.09380   -2.79061   11.49110   14.39360   31.90480 3828.20000  550.69600
  141.42720   53.89220   -2.46853   11.37180   14.31410   30.79370 3828.20000  547.71400
  141.57960   53.69260   -2.14645   11.21270   14.07550   30.35710 3813.31000  548.21100
  141.73200   53.49300   -1.82437   11.17300   13.79720   29.92060 3808.34000  548.70800
  141.88440   53.49300   -1.75279   11.13320   13.51890   29.44440 3897.72000  553.67800
  142.03680   54.29140   -1.68121   10.81510   12.88270   29.52380 3929.99000  554.67200
  142.18920   55.08980   -1.35912   10.73560   12.72370   29.60320 3962.26000  555.66600
  142.34160   59.48100   -1.63824   10.73560   12.64410   29.68250 3977.16000  560.63600
  142.49400   65.06990   -1.71696   10.73560   12.48510   29.04760 3954.82000  557.65400
  142.64640   66.66670   -1.79568   10.73560   12.16700   28.13490 3932.47000  554.67200
  142.79880   68.26350   -1.67400   10.73560   11.84890   27.22220 3927.51000  551.69000
  142.95120   67.06590   -1.60242   10.65610   11.68990   26.50790 3892.75000  550.69600
  143.10360   61.87620   -1.53084   10.25840   11.76940   25.07940 3857.99000  549.70200
  143.25600   63.87230   -1.40916   10.09940   11.76940   23.65080 3833.17000  548.70800
  143.40840   69.46110   -1.33758   10.01990   11.76940   20.71430 3838.13000  554.67200
  143.56080   71.45710   -1.26599    8.74751   11.76940   19.28570 3843.10000  555.16900
  143.71320   73.45310   -1.14431    8.74751   11.72960   17.85710 3892.75000  555.66600
  143.86560   76.24750   -1.17293    8.74751   11.68990   17.38100 3920.06000  554.67200
  144.01800   76.64670   -1.20155    8.74751   11.37180   16.78570 3947.37000  552.68400
  144.17040   77.04590   -1.38047    8.66799   11.25250   16.19050 3997.02000  550.69600
  144.32280   76.64670   -1.50929    8.58847   11.13320   14.92060 3979.64000  553.67800
  144.47520   76.24750   -1.63811    8.34990   11.13320   14.32540 3962.26000  554.17500
  144.62760   75.84830   -1.51643    8.27038   10.73560   13.73020 3957.30000  554.67200
  144.78000   77.44510   -1.39475    8.19086   10.57650   13.01590 3907.65000  551.69000
  144.93240   79.04190   -1.27307    8.19086   10.33800   12.73810 3900.20000  549.70200
  145.08480   80.63870   -1.15138    8.15109   10.17890   12.46030 3892.75000  547.71400
  145.23720   82.23550   -1.12990    8.11133   10.17890   12.06350 3862.96000  547.71400
  145.38960   83.03390   -1.10842    8.03181    9.86084   11.90480 3867.92000  548.21100
  145.54200   83.83230   -0.98674    7.67396    9.74155   11.74600 3872.89000  548.70800
  145.69440   82.23550   -0.81496    7.31610    9.62227   11.42860 3862.96000  548.70800
  145.84680   81.83630   -0.64318    6.83897    9.62227   11.19050 3855.51000  547.71400
  145.99920   81.43710   -0.52150    6.67992    9.62227   10.95240 3848.06000  546.72000
  146.15160   83.43310   -0.75052    6.52087    9.62227   10.47620 3848.06000  543.73800
  146.30400   84.43110   -0.97954    6.44135    9.30418   10.23810 3862.96000  544.23500
  146.45640   85.42910   -1.25866    6.48111    9.14513   10.00000 3877.85000  544.73200
  146.60880   84.63070   -1.28727    6.52087    8.98608    9.92064 3862.96000  547.71400
  146.76120   84.23150   -1.31590    6.44135    8.98608    9.92064 3845.58000  548.21100
  146.91360   83.83230   -1.19421    6.44135    8.98608    9.92064 3828.20000  548.70800
  147.06600   83.83230   -0.97233    6.44135    8.98608    9.84127 3748.76000  547.71400
  147.21840   84.43110   -0.75045    6.44135    9.06561    9.84127 3758.69000  547.71400
  147.37080   85.02990   -0.42837    6.52087    8.90656    9.84127 3778.55000  547.71400
  147.52320   83.03390    0.29451    6.52087    8.90656    9.84127 3778.55000  547.71400
  147.67560   81.83630    0.41619    6.52087    8.90656    9.84127 3763.65000  548.70800
  147.82800   81.43710    0.43767    6.44135    8.90656    9.84127 3758.69000  550.19900
  147.98040   81.03790    0.45915    6.40159    8.90656    9.84127 3758.69000  551.69000
  148.13280   80.63870    0.48063    6.36183    8.58847    9.60317 3758.69000  550.69600
  148.28520   84.23150    0.50212    6.36183    8.58847    9.52381 3728.90000  547.71400
  148.43760   85.82830    0.42340    6.32207    8.58847    9.44444 3728.90000  544.73200
  148.59000   87.02590    0.34468    6.28231    8.58847    9.28571 3738.83000  533.79700
  148.74240   88.22360    0.36616    6.20278    8.58847    9.12698 3808.34000  531.80900
  148.89480   88.62280    0.10731    6.04374    8.58847    8.96825 3848.06000  529.82100
  149.04720   83.83230    0.09897    5.88469    8.50895    8.80952 3882.82000  530.81500
  149.19960   82.63470    0.09062    5.72565    8.42942    8.84921 3917.58000  532.30600
  149.35200   81.43710   -0.06803    5.72565    8.38966    8.41270 3992.06000  533.79700
  149.50440   79.04190   -0.02627    5.72565    8.34990    8.33333 4026.81000  530.81500
  149.65680   77.84430    0.61668    5.80517    8.34990    8.33333 4061.57000  530.81500
  149.80920   76.64670    0.65844    5.80517    8.34990    8.17460 4150.94000  530.81500
  149.96160   75.84830    0.70019    5.80517    8.34990    7.77778 4183.22000  533.79700
  150.11400   77.24550    0.74194    5.72565    8.34990    7.69841 4215.49000  537.27600
  150.26640   78.64270    0.28269    5.72565    8.34990    7.61905 4230.39000  540.75500
  150.41880   81.43710    0.32445    5.72565    8.34990    7.46032 4170.80000  546.72000
  150.57120   80.83830    0.36620    5.80517    8.34990    7.38095 4111.22000  545.22900
  150.72360   80.23950    0.40796    5.76541    8.34990    7.30159 4016.88000  543.73800
  150.87600   80.23950    0.49981    5.72565    8.34990    7.14286 3828.20000  536.77900
  151.02840   81.43710    0.59166    5.72565    8.34990    7.10317 3833.17000  535.28800
  151.18080   82.63470    0.83382    5.68588    8.34990    7.06349 3862.96000  533.79700
  151.33320   83.43310    0.82547    5.64612    8.34990    6.74603 3917.58000  537.77300
  151.48560   82.63470    0.81713    5.64612    8.34990    6.66667 3957.30000  539.26400
  151.63800   81.83630    0.35788    5.64612    8.34990    6.58730 3947.37000  540.75500
  151.79040   83.43310    0.24933    5.64612    8.34990    6.34921 3932.47000  547.71400
  151.94280   87.42510    0.14079    5.64612    8.34753    6.19048 3917.58000  549.70200
  152.09520   86.62670   -0.21826    5.64612    8.34517    6.19048 3872.89000  551.69000
  152.24760   83.83230   -0.17651    5.64612    8.34280    6.07143 3862.96000  548.70800
