~Version ---------------------------------------------------
VERS. 2.0 : CWLS log ASCII Standard -VERSION 2.0
WRAP.  NO : One line per depth step
~Well ------------------------------------------------------
STRT.M                   15.24 : START
STOP.M                  365.76 : STOP
STEP.M      0.1524000000000001 : STEP
NULL.                  -999.25 : NULL VALUE
COMP.              RAJAMANDALA : Company
WELL.              RAJAMANDALA : Well Name
FLD .              RAJAMANDALA : Field
CTRY.              RAJAMANDALA : Country
STAT.              RAJAMANDALA : State
PROV.                          : Province
LOC .                          : Field Location
LATI. 001 01' 01.000" S    DMS : Latitude
LONG. 001 01' 01.000" E    DMS : Longitude
PD  .                      MSL : Permanent Datum
EPD .M                   -1.52 : Elevation of PD
UWI .              RAJAMANDALA : Unique Well ID
EKB .M                    4.57 : Elevation of KB
EGL .M                   -1.52 : Elevation Ground lv
ELZ .M                    3.05 : Elevation Log Zero
APD .M                    3.05 : Above Perm. Datum
LMF .                       KB : Log measured from
MP  .                       KB : Drill measured from
OS  .            COMPOSITE LOG : Services
OS1 .        MULTIPLE ELECTRIK : Other Services Ln 1
OS2 .                   GR-DSN : Other Services Ln 2
OS3 .                     GR-N : Other Services Ln 3
SRVC.                          : Service company
DATE.              11 MAY 2050 : Date
~Curve Information -----------------------------------------
DEPT.M     : 1  Depth
GR  .API   : 2  Gamma-Ray Log
SP  .MV    : 3  Spontaneous Potential Log
SN  .OHMM  : 4  Short Normal Resistivity
LN  .OHMM  : 5  Long Normal Resistivity
LAT .OHMM  : 6  Lateral
DENS.CPS   : 7  Density Log
NEUT.API   : 8  Neutron Log Porosity
~Params ----------------------------------------------------
RUN .               1 : Run number
DD  .M         354.79 : Depth-Driller
DL  .M         356.01 : Depth-Logger
BLI .M         353.26 : Bottom log interval
TLI .M          40.23 : Top log interval
CS  .IN         9.625 : Casing Diameter
DFT . FRESH WATER GEL : Hole Fluid type
DFD .G/C3      1.1983 : Fluid Density
RMS .OHMM         1.8 : RM  @ Surface
RMT .DEGC       29.44 : Mud temp Surface
RMFS.OHMM         1.5 : RMF @ Surface
RMTF.DEGC       29.44 : MF temp Surface
MFSS.        FILTRATE : Source of RMF/RMC
TCS .            1430 : Time circ. stopped
TLAB.            1536 : Time logger at btm
~Other -----------------------------------------------------
~ASCII -----------------------------------------------------
# ...
  316.99200   84.46220    0.04649    3.32673    4.99010    2.29703 4751.74000  646.62000
  317.14440   86.05580   -0.12195    3.32673    4.99010    2.29703 4851.04000  637.17700
  317.29680   86.85260   -0.64180    3.32673    4.99010    2.29703 4865.94000  617.29600
  317.44920   86.05580   -0.96084    3.32673    4.99010    2.29703 4816.29000  614.31400
  317.60160   84.46220   -1.17948    3.32673    4.99010    2.29703 4716.98000  614.31400
  317.75400   84.06370   -0.69533    3.32673    4.99010    2.29703 4334.66000  614.31400
  317.90640   83.66530   -0.21117    3.32673    4.99010    2.29703 4334.66000  617.29600
  318.05880   83.66530    0.27299    3.32673    4.99010    2.29703 4334.66000  618.29000
  318.21120   84.06370    3.46804    3.32673    4.99010    2.29703 4250.25000  619.28400
  318.36360   84.46220    3.45020    3.32673    4.99010    2.29703 4225.42000  620.27800
  318.51600   84.46220    3.23156    3.32673    4.99010    2.29703 4200.60000  622.26600
  318.66840   84.46220    0.80411    3.32673    4.99010    2.29703 4145.98000  624.25400
  318.82080   84.46220    0.93687    3.32673    4.99010    2.29703 4150.94000  628.23100
  318.97320   83.66530    1.06962    3.32673    5.06931    2.29703 4155.91000  631.21300
  319.12560   84.06370    1.45338    3.32673    5.06931    2.29703 4205.56000  634.19500
  319.27800   84.46220    1.73674    3.32673    4.99010    2.29703 4222.94000  634.19500
  319.43040   82.86850    2.02009    3.32673    4.83168    2.29703 4240.32000  632.20700
  319.58280   82.47010    2.60465    3.32673    4.67327    2.29703 4265.14000  630.21900
  319.73520   82.07170    2.43621    3.32673    4.51485    2.29703 4262.66000  630.21900
  319.88760   79.68130    2.26776    3.32673    4.27723    2.29703 4260.18000  630.21900
  320.04000   79.68130    1.64752    3.32673    3.80198    2.29703 4126.98000  623.26000
  320.19240   79.68130    1.69648    3.32673    3.64356    2.29703 4122.02000  626.24300
  320.34480   80.47810    1.77883    3.35314    3.56436    2.29703 4117.06000  630.21900
  320.49720   80.87650    1.86119    3.37954    3.56436    2.29703 4126.98000  630.21900
  320.64960   81.27490    2.04375    3.40594    3.64356    2.29703 4176.59000  630.21900
  320.80200   83.66530    1.92570    3.40594    3.64356    2.29703 4181.55000  628.23100
  320.95440   82.07170    1.80766    3.40594    3.68317    2.29703 4186.51000  624.75100
  321.10680   82.86850    1.18862    3.40594    3.96040    2.29703 4255.95000  621.27200
  321.25920   84.46220    1.07057    3.40594    4.03960    2.29703 4265.87000  620.27800
  321.41160   84.46220    0.95253    3.40594    4.35644    2.29703 4275.79000  620.27800
  321.56400   84.46220    0.73429    3.40594    4.83168    2.29703 4298.12000  620.27800
  321.71640   77.29080   -0.38576    3.40594    4.83168    2.29703 4320.44000  624.25400
  321.86880   75.69720   -1.30540    3.40594    4.83168    2.29703 4325.40000  628.72800
  322.02120   74.10360   -1.42345    3.40594    5.06931    2.29703 4270.83000  633.20100
  322.17360   70.91630   -1.74189    3.40594    5.06931    2.29703 4253.47000  641.15300
  322.32600   68.12750   -0.25673    3.32673    5.06931    2.29703 4236.11000  643.14100
  322.47840   62.15140   -1.97797    3.32673    5.14851    2.29703 4250.99000  651.09300
  322.63080   61.35460   -2.19622    3.36634    5.18812    2.29703 4298.12000  655.07000
  322.78320   61.35460   -2.41446    3.40594    5.22772    2.29703 4345.24000  655.07000
  322.93560   60.55780   -2.43230    3.40594    5.38614    2.29703 4397.32000  651.09300
  323.08800   59.76100    2.66005    3.40594    5.42574    2.29703 4449.40000  627.23700
  323.24040   58.96410    2.64221    3.64356    5.46535    2.29703 4548.61000  627.23700
  323.39280   57.37050    2.22356    3.64356    5.46535    2.29703 5119.05000  632.86900
  323.54520   50.19920    2.20572    3.64356    5.50495    2.29703 5168.65000  651.09300
  323.69760   50.19920    2.18788    3.65677    5.54455    2.29703 5178.57000  651.09300
  323.85000   50.19920    1.86943    3.66997    5.78218    2.29703 5188.49000  651.09300
  324.00240   49.80080    1.75139    3.68317    5.78218    2.29703 5158.73000  651.09300
  324.15480   50.00000    1.63335    3.69637    5.78218    2.29703 5014.88000  652.58400
  324.30720   50.19920    2.11651    3.70957    5.78218    2.29703 4635.42000  654.07600
  324.45960   50.19920    2.34916    3.72277    5.78218    2.29703 4543.65000  662.02800
  324.61200   49.60160    2.58182    3.64356    5.78218    2.29703 4290.67000  668.48900
  324.76440   49.00400    2.96477    3.56436    5.78218    2.29703 4201.39000  674.95000
  324.91680   47.01200    3.29763    3.66337    5.78218    2.29703 4077.38000  691.84900
  325.06920   46.61350    3.63049    3.76238    5.78218    2.29703 4082.34000  697.31600
  325.22160   46.21510    4.41424    3.86139    5.78218    2.33663 4089.78000  702.78300
  325.37400   44.62150    4.29620    3.96040    5.78218    2.37624 4097.22000  719.68200
  325.52640   44.02390    3.87756    4.03960    5.78218    2.61386 4112.10000  726.64000
  325.67880   43.42630    2.65731    4.14521    5.78218    2.73267 4017.86000  733.59800
  325.83120   41.43430    2.33887    4.25083    5.78218    2.85149 3968.25000  748.50900
  325.98360   42.23110    1.76993    4.35644    5.78218    2.85149 3938.49000  769.38400
  326.13600   43.02790    1.20098    4.51485    6.09901    2.85149 3898.81000  769.38400
  326.28840   47.41040    1.18314    4.67327    6.17822    2.85149 3809.52000  765.40800
  326.44080   48.00800    2.96889    4.71287    6.25743    2.69307 3794.64000  744.53300
  326.59320   48.60560    3.15145    4.75248    6.49505    2.77228 3799.60000  744.53300
  326.74560   48.60560    0.02741    4.87129    6.49505    2.85149 3814.48000  744.53300
  326.89800   49.20320   -0.25103    5.06931    6.49505    2.93069 3869.05000  779.32400
  327.05040   49.80080   -0.52938    5.06931    6.49505    2.93069 3938.49000  781.31200
  327.20280   47.80880   -0.80772    5.06931    6.53465    3.24752 3960.81000  757.45500
  327.35520   46.81280   -2.94976    5.06931    6.57426    3.24752 3983.14000  754.47300
  327.50760   45.81670   -2.16601    5.06931    6.73267    3.24752 3983.14000  751.49100
  327.66000   43.82470   -2.18385    5.14851    6.77228    3.32673 3995.54000  748.50900
  327.81240   43.82470   -1.29990    5.46535    6.81188    3.40594 4007.94000  745.52700
  327.96480   44.02390   -1.91894    5.54455    6.89109    3.40594 4032.74000  751.49100
  328.11720   44.22310   -2.43778    5.62376    6.57426    3.39010 4047.62000  758.44900
  328.26960   45.01990   -2.95662    5.70297    6.73267    3.37426 4062.50000  762.42500
  328.42200   45.01990   -3.47557    5.74257    6.73267    3.35842 4002.98000  765.40800
  328.57440   45.01990   -3.59351    5.78218    6.73267    3.34257 3973.21000  751.49100
  328.72680   45.41830   -3.81185    6.09901    6.77228    3.32673 3943.45000  751.49100
  328.87920   45.01990   -3.92990    6.17822    6.81188    3.32673 3918.65000  751.49100
  329.03160   44.62150   -3.94774    6.25743    6.83168    3.32673 3893.85000  747.51500
  329.18400   43.42630   -3.86539    6.41584    6.85149    3.32673 3869.05000  744.03600
  329.33640   43.22710   -3.68273    6.57426    6.87129    3.32673 3874.01000  740.55700
  329.48880   43.02790   -3.50027    6.73267    6.89109    3.32673 3901.29000  733.59800
  329.64120   43.82470   -3.41782    6.97030    6.93069    3.32673 3988.10000  728.62800
  329.79360   44.02390   -1.03086    6.49505    6.97030    3.20792 3973.21000  723.65800
  329.94600   44.22310   -1.14890    6.25743    7.08911    3.08911 3923.61000  716.70000
  330.09840   44.62150   -1.36715    6.01980    7.20792    3.00990 3913.69000  718.68800
  330.25080   44.82070   -1.48519    5.78218    7.20792    3.04950 4057.54000  720.67600
  330.40320   45.01990   -1.50303    5.66337    7.20792    3.08911 4037.70000  730.61600
  330.55560   44.62150    1.18453    5.54455    7.32673    3.24752 4027.78000  724.15500
