~Version ---------------------------------------------------
VERS. 2.0 : CWLS log ASCII Standard -VERSION 2.0
WRAP.  NO : One line per depth step
~Well ------------------------------------------------------
STRT.M                   15.24 : START
STOP.M                  365.76 : STOP
STEP.M      0.1524000000000001 : STEP
NULL.                  -999.25 : NULL VALUE
COMP.              RAJAMANDALA : Company
WELL.              RAJAMANDALA : Well Name
FLD .              RAJAMANDALA : Field
CTRY.              RAJAMANDALA : Country
STAT.              RAJAMANDALA : State
PROV.                          : Province
LOC .                          : Field Location
LATI. 001 01' 01.000" S    DMS : Latitude
LONG. 001 01' 01.000" E    DMS : Longitude
PD  .                      MSL : Permanent Datum
EPD .M                   -1.52 : Elevation of PD
UWI .              RAJAMANDALA : Unique Well ID
EKB .M                    4.57 : Elevation of KB
EGL .M                   -1.52 : Elevation Ground lv
ELZ .M                    3.05 : Elevation Log Zero
APD .M                    3.05 : Above Perm. Datum
LMF .                       KB : Log measured from
MP  .                       KB : Drill measured from
OS  .            COMPOSITE LOG : Services
OS1 .        MULTIPLE ELECTRIK : Other Services Ln 1
OS2 .                   GR-DSN : Other Services Ln 2
OS3 .                     GR-N : Other Services Ln 3
SRVC.                          : Service company
DATE.              11 MAY 2050 : Date
~Curve Information -----------------------------------------
DEPT.M     : 1  Depth
GR  .API   : 2  Gamma-Ray Log
SP  .MV    : 3  Spontaneous Potential Log
SN  .OHMM  : 4  Short Normal Resistivity
LN  .OHMM  : 5  Long Normal Resistivity
LAT .OHMM  : 6  Lateral
DENS.CPS   : 7  Density Log
NEUT.API   : 8  Neutron Log Porosity
~Params ----------------------------------------------------
RUN .               1 : Run number
DD  .M         354.79 : Depth-Driller
DL  .M         356.01 : Depth-Logger
BLI .M         353.26 : Bottom log interval
TLI .M          40.23 : Top log interval
CS  .IN         9.625 : Casing Diameter
DFT . FRESH WATER GEL : Hole Fluid type
DFD .G/C3      1.1983 : Fluid Density
RMS .OHMM         1.8 : RM  @ Surface
RMT .DEGC       29.44 : Mud temp Surface
RMFS.OHMM         1.5 : RMF @ Surface
RMTF.DEGC       29.44 : MF temp Surface
MFSS.        FILTRATE : Source of RMF/RMC
TCS .            1430 : Time circ. stopped
TLAB.            1536 : Time logger at btm
~Other -----------------------------------------------------
~ASCII -----------------------------------------------------
# ...
  220.98000   43.11380   -5.69982    3.64356    4.75248    2.61386 3738.83000  655.07000
  221.13240   45.10980   -4.70305    3.64356    4.75248    2.61386 3790.96000  652.58400
  221.28480   45.30940   -1.50627    3.60396    4.75248    2.57426 3843.10000  650.09900
  221.43720   45.50900   -1.60949    3.56436    4.75248    2.53465 3932.47000  647.11700
  221.58960   47.50500   -1.81271    3.56436    4.75248    2.37624 4016.88000  630.21900
  221.74200   47.90420   -2.91594    3.56436    4.75248    2.33663 4026.81000  627.23700
  221.89440   48.30340   -8.81916    3.48515    4.71287    2.29703 3882.82000  624.25400
  222.04680   49.90020   -8.92239    3.40594    4.67327    2.29703 3853.03000  630.21900
  222.19920   49.90020   -8.92561    3.32673    4.67327    2.25743 3823.24000  632.20700
  222.35160   49.90020   -8.42883    3.32673    4.67327    2.21782 3758.69000  634.19500
  222.50400   50.29940   -8.03206    3.32673    4.67327    2.29703 3565.04000  640.15900
  222.65640   50.89820   -7.73529    3.32673    4.67327    2.25743 3545.18000  642.14700
  222.80880   51.49700   -7.03851    3.30693    4.67327    2.21782 3579.94000  667.99200
  222.96120   50.69860   -6.34173    3.28713    4.67327    2.29703 3604.77000  681.90900
  223.11360   50.09980   -5.94495    3.26733    4.67327    2.29703 3644.49000  683.89700
  223.26600   49.50100   -3.94818    3.24752    4.67327    2.29703 3728.90000  685.88500
  223.41840   49.10180   -4.05141    3.26073    4.67327    2.29703 3781.03000  674.95000
  223.57080   47.90420   -4.35463    3.27393    4.67327    2.29703 3833.17000  666.00400
  223.72320   47.30540   -3.35785    3.24752    4.71287    2.29703 3997.02000  660.53700
  223.87560   46.70660   -2.66108    3.24752    4.75248    2.29703 4113.70000  655.07000
  224.02800   46.70660   -2.66430    3.24752    4.75248    2.29703 4230.39000  640.15900
  224.18040   48.30340   -2.76753    3.24752    4.71287    2.29703 4548.16000  636.68000
  224.33280   53.09380   -2.97075    3.24752    4.67327    2.21782 4652.43000  633.20100
  224.48520   53.09380   -3.67397    3.32673    4.67327    2.21782 4349.55000  620.27800
  224.63760   52.69460   -6.07720    3.56436    4.67327    2.21782 4235.35000  620.27800
  224.79000   51.89620   -6.78043    3.56436    4.67327    2.21782 4200.60000  620.27800
  224.94240   50.29940   -7.18365    3.64356    4.67327    2.25743 4061.57000  630.21900
  225.09480   48.30340   -7.28687    3.64356    4.67327    2.29703 4061.57000  633.69800
  225.24720   52.29540   -7.39009    3.64356    4.67327    2.29703 4061.57000  650.09900
  225.39960   58.28340   -7.59332    3.64356    4.67327    2.25743 4066.53000  651.09300
  225.55200   64.67070   -7.39654    3.64356    4.67327    2.21782 4076.46000  650.59600
  225.70440   64.67070   -7.09977    3.64356    4.67327    2.29703 4081.43000  648.11100
  225.85680   55.88820   -3.60299    3.64356    4.67327    2.25743 3892.75000  641.15300
  226.00920   55.48900   -2.70621    3.64356    4.71287    2.21782 3808.34000  630.21900
  226.16160   55.08980   -1.80944    3.64356    4.75248    2.21782 3624.63000  632.20700
  226.31400   55.08980    0.58733    3.64356    4.67327    2.21782 3525.32000  634.19500
  226.46640   55.68860    1.68411    3.56436    4.67327    2.21782 3505.46000  636.18300
  226.61880   56.28740    3.48089    3.56436    4.67327    2.21782 3495.53000  638.17100
  226.77120   57.48500    3.47767    3.56436    4.67327    2.21782 3510.43000  647.11700
  226.92360   57.68460    3.37444    3.56436    4.67327    2.21782 3530.29000  647.61400
  227.07600   57.88420    3.07121    3.56436    4.67327    2.21782 3664.35000  648.11100
  227.22840   61.47700    2.66799    3.56436    4.67327    2.21782 3674.28000  647.11700
  227.38080   63.07390    0.76477    3.56436    4.67327    2.21782 3674.28000  646.12300
  227.53320   71.85630    0.56154    3.56436    4.67327    2.21782 3664.35000  645.12900
  227.68560   71.85630    1.45832    3.56436    4.67327    2.21782 3609.73000  638.17100
  227.83800   71.85630    1.45509    3.56436    4.71287    2.21782 3609.73000  637.67400
  227.99040   71.45710    1.45187    3.56436    4.75248    2.13861 3614.70000  637.17700
  228.14280   69.86030    2.64864    3.56436    4.67327    2.17822 3624.63000  631.21300
  228.29520   68.86230    2.74542    3.64356    4.71287    2.21782 3644.49000  632.70400
  228.44760   67.86430    3.04219    3.64356    4.75248    2.29703 3679.25000  634.19500
  228.60000   67.46510    3.43897    3.64356    4.75248    2.29703 3738.83000  638.17100
  228.75240   68.26350    5.23575    3.72277    4.75248    2.29703 3743.79000  648.11100
  228.90480   68.66270    5.13252    3.72277    4.71287    2.29703 3743.79000  648.11100
  229.05720   69.06190    4.12930    3.64356    4.67327    2.21782 3728.90000  648.11100
  229.20960   75.04990    3.72607    3.64356    4.67327    2.21782 3589.87000  651.09300
  229.36200   75.04990    2.62285    3.64356    4.67327    2.21782 3574.98000  650.59600
  229.51440   75.04990   -1.28037    3.64356    4.67327    2.21782 3560.08000  650.09900
  229.66680   74.65070   -0.98360    3.64356    4.75248    2.21782 3560.08000  650.09900
  229.81920   73.45310    1.21318    3.64356    4.71287    2.21782 3659.38000  652.58400
  229.97160   73.05390    4.40995    3.72277    4.67327    2.21782 3674.28000  655.07000
  230.12400   73.85230    0.50673    3.72277    4.67327    2.21782 3689.18000  665.01000
  230.27640   77.04590    0.50351    3.72277    4.67327    2.21782 3664.35000  679.92000
  230.42880   82.23550    0.50028    3.72277    4.67327    2.21782 3654.42000  679.92000
  230.58120   78.24350   -0.20295    3.64356    4.75248    2.21782 3644.49000  665.01000
  230.73360   77.44510    0.59383    3.64356    4.71287    2.21782 3614.70000  662.02800
  230.88600   76.64670    1.39061    3.64356    4.67327    2.21782 3604.77000  659.04600
  231.03840   73.45310    2.56491    3.56436    4.67327    2.21782 3594.84000  651.09300
  231.19080   74.65070    5.13922    3.56436    4.67327    2.21782 3579.94000  652.58400
  231.34320   75.84830    5.01352    3.56436    4.67327    2.21782 3540.22000  654.07600
  231.49560   76.24750    3.68783    3.40594    4.75248    2.21782 3545.18000  655.07000
  231.64800   82.63470    3.86214    3.40594    4.71287    2.21782 3614.70000  647.11700
  231.80040   81.43710    3.83644    3.40594    4.67327    2.21782 3634.56000  639.16500
  231.95280   72.25550    4.01075    3.40594    4.75248    2.21782 3654.42000  631.21300
  232.10520   72.25550    4.28505    3.40594    4.75248    2.21782 3699.11000  629.22500
  232.25760   72.25550    6.45936    3.40594    4.75248    2.21782 3714.00000  627.23700
  232.41000   65.46910    6.43366    3.40594    4.75248    2.21782 3728.90000  624.25400
  232.56240   62.27550    6.30797    3.40594    4.79208    2.21782 3743.79000  629.22500
  232.71480   59.08180    6.08227    3.40594    4.83168    2.21782 3736.35000  634.19500
  232.86720   53.09380    5.95658    3.48515    4.83168    2.21782 3728.90000  643.14100
  233.01960   51.89620    4.98089    3.56436    4.95049    2.21782 3689.18000  654.07600
  233.17200   50.69860    4.00519    3.56436    5.06931    2.21782 3664.35000  665.01000
  233.32440   52.29540    1.87949    3.56436    4.99010    2.21782 3639.52000  674.95000
  233.47680   52.69460    0.85380    3.58416    5.02970    2.21782 3574.98000  681.90900
  233.62920   53.09380   -0.17189    3.60396    5.06931    2.21782 3560.08000  688.86700
  233.78160   53.09380   -1.79759    3.62376    4.99010    2.25743 3545.18000  691.84900
  233.93400   52.29540   -1.57328    3.64356    4.99010    2.29703 3674.28000  692.84300
  234.08640   52.09580   -1.34898    3.64356    4.99010    2.29703 3674.28000  688.86700
  234.23880   51.89620    0.82533    3.80198    4.99010    2.29703 3674.28000  684.89100
  234.39120   51.49700    1.89963    3.96040    4.99010    2.29703 3728.90000  672.96200
  234.54360   52.29540    2.97394    3.96040    4.99010    2.29703 3756.21000  668.48900
