~Version ---------------------------------------------------
VERS. 2.0 : CWLS log ASCII Standard -VERSION 2.0
WRAP.  NO : One line per depth step
~Well ------------------------------------------------------
STRT.M                   15.24 : START
STOP.M                  365.76 : STOP
STEP.M      0.1524000000000001 : STEP
NULL.                  -999.25 : NULL VALUE
COMP.              RAJAMANDALA : Company
WELL.              RAJAMANDALA : Well Name
FLD .              RAJAMANDALA : Field
CTRY.              RAJAMANDALA : Country
STAT.              RAJAMANDALA : State
PROV.                          : Province
LOC .                          : Field Location
LATI. 001 01' 01.000" S    DMS : Latitude
LONG. 001 01' 01.000" E    DMS : Longitude
PD  .                      MSL : Permanent Datum
EPD .M                   -1.52 : Elevation of PD
UWI .              RAJAMANDALA : Unique Well ID
EKB .M                    4.57 : Elevation of KB
EGL .M                   -1.52 : Elevation Ground lv
ELZ .M                    3.05 : Elevation Log Zero
APD .M                    3.05 : Above Perm. Datum
LMF .                       KB : Log measured from
MP  .                       KB : Drill measured from
OS  .            COMPOSITE LOG : Services
OS1 .        MULTIPLE ELECTRIK : Other Services Ln 1
OS2 .                   GR-DSN : Other Services Ln 2
OS3 .                     GR-N : Other Services Ln 3
SRVC.                          : Service company
DATE.              11 MAY 2050 : Date
~Curve Information -----------------------------------------
DEPT.M     : 1  Depth
GR  .API   : 2  Gamma-Ray Log
SP  .MV    : 3  Spontaneous Potential Log
SN  .OHMM  : 4  Short Normal Resistivity
LN  .OHMM  : 5  Long Normal Resistivity
LAT .OHMM  : 6  Lateral
DENS.CPS   : 7  Density Log
NEUT.API   : 8  Neutron Log Porosity
~Params ----------------------------------------------------
RUN .               1 : Run number
DD  .M         354.79 : Depth-Driller
DL  .M         356.01 : Depth-Logger
BLI .M         353.26 : Bottom log interval
TLI .M          40.23 : Top log interval
CS  .IN         9.625 : Casing Diameter
DFT . FRESH WATER GEL : Hole Fluid type
DFD .G/C3      1.1983 : Fluid Density
RMS .OHMM         1.8 : RM  @ Surface
RMT .DEGC       29.44 : Mud temp Surface
RMFS.OHMM         1.5 : RMF @ Surface
RMTF.DEGC       29.44 : MF temp Surface
MFSS.        FILTRATE : Source of RMF/RMC
TCS .            1430 : Time circ. stopped
TLAB.            1536 : Time logger at btm
~Other -----------------------------------------------------
~ASCII -----------------------------------------------------
# ...
  289.56000   71.71320    0.21538    3.96040    5.54455    2.61386 3843.10000  665.01000
  289.71240   67.72910    0.30151    4.00000    5.54455    2.61386 3874.01000  670.97400
  289.86480   67.72910    0.68884    4.03960    5.54455    2.61386 3874.01000  654.07600
  290.01720   69.32270    0.27296    4.00000    5.54455    2.61386 3874.01000  657.05800
  290.16960   69.32270    0.25868    3.96040    5.46535    2.61386 3883.93000  661.03400
  290.32200   69.32270   -0.05679    3.97360    5.46535    2.61386 3876.49000  664.01600
  290.47440   70.11950   -0.17146    3.98680    5.46535    2.61386 3869.05000  667.99200
  290.62680   68.92430   -0.18574    4.00000    5.54455    2.61386 3829.36000  671.96800
  290.77920   67.72910   -0.30041    4.01320    5.54455    2.61386 3789.68000  675.44700
  290.93160   62.94820   -1.41909    4.02640    5.54455    2.61386 3774.80000  678.92600
  291.08400   62.15140   -1.53376    4.03960    5.54455    2.65347 3759.92000  682.40600
  291.23640   61.35460   -0.14244    4.03960    5.54455    2.69307 3730.16000  685.88500
  291.38880   60.55780   -0.15671    4.03960    5.54455    2.61386 3695.44000  689.36400
  291.54120   61.35460   -0.77339    4.03960    5.54455    2.65347 3675.60000  695.82500
  291.69360   62.15140   -1.08886    4.03960    5.54455    2.69307 3655.75000  697.31600
  291.84600   61.35460   -1.10314    4.03960    5.54455    2.61386 3660.71000  698.80700
  291.99840   60.55780   -0.71581    4.03960    5.54455    2.65347 3794.64000  699.80100
  292.15080   59.76100   -0.62969    4.03960    5.54455    2.69307 3802.08000  705.76500
  292.30320   58.96410   -0.34276    4.03960    5.54455    2.61386 3819.44000  708.41600
  292.45560   59.36250   -0.05584    4.03960    5.54455    2.61386 3849.21000  699.80100
  292.60800   59.76100   -0.01991    4.03960    5.54455    2.61386 3849.21000  699.80100
  292.76040   59.76100    0.11641    4.03960    5.54455    2.61386 3660.71000  699.80100
  292.91280   58.96410   -0.50026    4.03960    5.54455    2.61386 3660.71000  694.83100
  293.06520   58.16730   -0.51454    4.03960    5.54455    2.61386 3668.98000  688.37000
  293.21760   62.15140   -0.52881    4.03960    5.54455    2.61386 3677.25000  681.90900
  293.37000   63.74500   -0.84428    4.03960    5.54455    2.61386 3829.36000  672.96200
  293.52240   65.33860   -0.65776    4.03960    5.54455    2.61386 3829.36000  666.99800
  293.67480   70.11950   -0.47124    4.03960    5.54455    2.61386 3829.36000  661.03400
  293.82720   70.91630    0.01649    4.03960    5.46535    2.65347 3878.97000  651.09300
  293.97960   71.71320    0.00221    4.03960    5.46535    2.69307 3891.37000  649.10500
  294.13200   73.30680    0.59034    4.03960    5.46535    2.61386 3903.77000  647.11700
  294.28440   73.70520    0.77687    4.03960    5.54455    2.61386 3893.85000  648.11100
  294.43680   76.49400    0.76259    4.03960    5.50495    2.61386 3886.41000  651.09300
  294.58920   76.49400    0.74832    4.03960    5.46535    2.61386 3878.97000  654.07600
  294.74160   76.49400    0.73404    3.96040    5.54455    2.61386 3883.93000  655.07000
  294.89400   69.32270    0.26797    3.96040    5.50495    2.61386 3871.53000  656.56100
  295.04640   74.90040   -0.19811    3.96040    5.46535    2.61386 3859.13000  658.05200
  295.19880   75.69720   -0.51358    3.96040    5.54455    2.61386 3834.33000  658.05200
  295.35120   74.90040   -0.72866    3.96040    5.54455    2.61386 3799.60000  659.54300
  295.50360   65.33860   -1.34533    3.96040    5.54455    2.61386 3784.72000  661.03400
  295.65600   64.54180   -1.46001    3.96040    5.54455    2.61386 3769.84000  662.02800
  295.80840   63.74500   -0.26948    3.96040    5.54455    2.61386 3740.08000  663.02200
  295.96080   62.94820   -0.38416    3.96040    5.54455    2.61386 3700.40000  664.01600
  296.11320   61.35460   -1.50283    3.96040    5.46535    2.61386 4002.98000  665.01000
  296.26560   59.76100   -1.81831    3.96040    5.50495    2.61386 4007.94000  665.01000
  296.41800   58.16730   -2.03338    3.96040    5.54455    2.61386 3998.02000  665.01000
  296.57040   57.76890   -2.34886    3.96040    5.54455    2.61386 3968.25000  661.03400
  296.72280   57.37050   -2.56393    4.00000    5.54455    2.61386 3943.45000  659.54300
  296.87520   57.37050   -2.87940    4.03960    5.54455    2.61386 3918.65000  658.05200
  297.02760   56.97210   -2.79328    4.03960    5.54455    2.61386 3908.73000  655.07000
  297.18000   56.57370   -2.70716    4.27723    5.54455    2.61386 3933.53000  653.08200
  297.33240   56.97210   -2.62103    4.27723    5.54455    2.61386 3953.37000  651.09300
  297.48480   57.37050   -2.43451    4.27723    5.70297    2.61386 3988.10000  650.09900
  297.63720   60.55780   -2.44878    4.27723    5.62376    2.61386 4007.94000  649.10500
  297.78960   61.75300   -2.46306    4.27723    5.54455    2.61386 3973.21000  648.11100
  297.94200   62.94820   -2.37693    4.27723    5.54455    2.61386 3968.25000  652.08700
  298.09440   65.33860   -1.58800    4.27723    5.54455    2.61386 3958.33000  652.08700
  298.24680   66.13550   -1.40148    4.27723    5.54455    2.61386 3958.33000  659.04600
  298.39920   66.93230   -1.41575    4.27723    5.54455    2.61386 3864.09000  652.08700
  298.55160   66.93230   -1.43003    4.27723    5.54455    2.61386 3859.13000  648.11100
  298.70400   66.93230   -1.44430    4.27723    5.54455    2.61386 3829.36000  657.05800
  298.85640   66.93230   -1.75978    4.27723    5.46535    2.61386 3690.48000  663.02200
  299.00880   66.13550   -1.77405    4.27723    5.34653    2.61386 3690.48000  668.98600
  299.16120   66.53390   -1.78833    4.27723    5.22772    2.61386 3750.00000  674.95000
  299.31360   66.93230   -2.20420    4.27723    5.22772    2.61386 3804.56000  664.01600
  299.46600   69.32270   -2.62008    4.27723    5.22772    2.61386 4161.71000  664.01600
  299.61840   70.11950   -3.03595    4.27723    5.22772    2.61386 4176.59000  664.01600
  299.77080   70.91630   -3.45193    4.27723    5.06931    2.61386 3988.10000  657.05800
  299.92320   71.71320   -3.56660    4.30363    5.06931    2.61386 3908.73000  657.55500
  300.07560   71.71320   -3.68127    4.33003    5.06931    2.61386 3874.01000  658.05200
  300.22800   71.71320   -3.09305    4.35644    5.06931    2.61386 3715.28000  659.04600
  300.38040   74.90040   -2.70573    4.35644    5.06931    2.61386 3740.08000  656.56100
  300.53280   80.07970   -2.31840    4.35644    5.06931    2.53465 3792.16000  654.07600
  300.68520   85.25900   -1.52947    4.35644    5.06931    2.53465 3844.25000  637.17700
  300.83760   88.44620   -1.54375    4.35644    5.06931    2.53465 3883.93000  632.20700
  300.99000   92.82870   -1.55802    4.35644    5.06931    2.53465 3923.61000  627.23700
  301.14240   97.21120   -0.76910    4.03960    5.06931    2.57426 3988.10000  603.38000
  301.29480  100.39800   -0.43197    3.92079    5.06931    2.61386 4000.50000  599.90100
  301.44720   99.60160   -0.09485    3.80198    5.06931    2.61386 4007.94000  596.42100
  301.59960   98.80480    2.30048    3.64356    5.06931    2.61386 3990.58000  582.50500
  301.75200   98.00800    2.78473    3.60396    5.06931    2.53465 3973.21000  575.05000
  301.90440   95.61750    2.96769    3.56436    5.06931    2.61386 3898.81000  567.59400
  302.05680   96.41430    3.25105    3.32673    5.06931    2.61386 3898.81000  568.58800
  302.20920   96.41430    4.03640    3.12871    5.06931    2.61386 4186.51000  566.60000
  302.36160   96.41430    3.71736    2.93069    5.06931    2.57426 4233.63000  564.61200
  302.51400   96.41430    2.09302    2.93069    5.06931    2.53465 4389.88000  562.62400
  302.66640   86.05580    1.87437    2.93069    5.06931    2.53465 4300.60000  562.62400
  302.81880   85.25900    1.65573    2.93069    5.06931    2.29703 4300.60000  562.62400
  302.97120   86.05580    2.34069    2.93069    5.06931    2.29703 4300.60000  564.61200
  303.12360   87.64940    2.47344    2.97030    5.06931    2.29703 4409.72000  566.60000
