~Version ---------------------------------------------------
VERS. 2.0 : CWLS log ASCII Standard -VERSION 2.0
WRAP.  NO : One line per depth step
~Well ------------------------------------------------------
STRT.M                   15.24 : START
STOP.M                  365.76 : STOP
STEP.M      0.1524000000000001 : STEP
NULL.                  -999.25 : NULL VALUE
COMP.              RAJAMANDALA : Company
WELL.              RAJAMANDALA : Well Name
FLD .              RAJAMANDALA : Field
CTRY.              RAJAMANDALA : Country
STAT.              RAJAMANDALA : State
PROV.                          : Province
LOC .                          : Field Location
LATI. 001 01' 01.000" S    DMS : Latitude
LONG. 001 01' 01.000" E    DMS : Longitude
PD  .                      MSL : Permanent Datum
EPD .M                   -1.52 : Elevation of PD
UWI .              RAJAMANDALA : Unique Well ID
EKB .M                    4.57 : Elevation of KB
EGL .M                   -1.52 : Elevation Ground lv
ELZ .M                    3.05 : Elevation Log Zero
APD .M                    3.05 : Above Perm. Datum
LMF .                       KB : Log measured from
MP  .                       KB : Drill measured from
OS  .            COMPOSITE LOG : Services
OS1 .        MULTIPLE ELECTRIK : Other Services Ln 1
OS2 .                   GR-DSN : Other Services Ln 2
OS3 .                     GR-N : Other Services Ln 3
SRVC.                          : Service company
DATE.              11 MAY 2050 : Date
~Curve Information -----------------------------------------
DEPT.M     : 1  Depth
GR  .API   : 2  Gamma-Ray Log
SP  .MV    : 3  Spontaneous Potential Log
SN  .OHMM  : 4  Short Normal Resistivity
LN  .OHMM  : 5  Long Normal Resistivity
LAT .OHMM  : 6  Lateral
DENS.CPS   : 7  Density Log
NEUT.API   : 8  Neutron Log Porosity
~Params ----------------------------------------------------
RUN .               1 : Run number
DD  .M         354.79 : Depth-Driller
DL  .M         356.01 : Depth-Logger
BLI .M         353.26 : Bottom log interval
TLI .M          40.23 : Top log interval
CS  .IN         9.625 : Casing Diameter
DFT . FRESH WATER GEL : Hole Fluid type
DFD .G/C3      1.1983 : Fluid Density
RMS .OHMM         1.8 : RM  @ Surface
RMT .DEGC       29.44 : Mud temp Surface
RMFS.OHMM         1.5 : RMF @ Surface
RMTF.DEGC       29.44 : MF temp Surface
MFSS.        FILTRATE : Source of RMF/RMC
TCS .            1430 : Time circ. stopped
TLAB.            1536 : Time logger at btm
~Other -----------------------------------------------------
~ASCII -----------------------------------------------------
# ...
   70.10400   38.17100    3.92593    6.36183   11.45130    8.17460 6138.17000  581.51100
   70.25640   35.78530    4.01968    6.28231   11.45130    8.17460 6053.68000  585.48700
   70.40880   35.58650    4.36243    5.96421   11.45130    8.17460 5516.90000  616.30200
   70.56120   35.38770    4.60556    5.88469   11.45130    8.25397 5258.45000  619.61600
   70.71360   34.99010    4.84871    5.80517   11.45130    8.17460 5144.14000  622.92900
   70.86600   35.78530    5.58988    5.64612   11.45130    8.17460 5099.40000  626.24300
   71.01840   36.58050    5.83303    5.56660   11.45130    8.17460 5079.52000  628.23100
   71.17080   36.97810    6.07618    5.48708   11.45130    8.09524 5079.52000  612.32600
   71.32320   36.97810    6.61815    5.32803   11.45130    8.09524 5099.40000  604.37400
   71.47560   36.97810    6.71190    5.32803   11.45130    8.09524 5114.31000  596.42100
   71.62800   36.58050    6.80565    5.32803   11.45130    8.09524 5407.55000  572.56500
   71.78040   36.58050    7.04880    5.24851   11.21270    8.09524 5422.47000  569.08600
   71.93280   36.58050    7.09275    5.24851   11.21270    8.09524 5859.84000  565.60600
   72.08520   38.96620    7.13670    5.24851   11.21270    8.09524 6267.40000  530.81500
   72.23760   38.76740    7.18065    5.16899   11.13320    8.09524 6247.52000  533.05200
   72.39000   38.56860    7.22460    5.20875   11.13320    8.09524 6212.72000  535.28800
   72.54240   38.96620    7.26856    5.24851   11.13320    8.09524 6143.14000  557.65400
   72.69480   38.76740    7.31251    5.24851   11.13320    8.21428 6143.14000  557.65400
   72.84720   38.56860    7.35646    5.20875   11.13320    8.33333 6172.96000  557.65400
   72.99960   37.37570    7.40041    5.16899   11.13320    8.41270 6361.83000  536.77900
   73.15200   37.17690    7.24516    5.16899   11.13320    8.41270 6371.77000  536.77900
   73.30440   36.97810    7.28911    5.16899   11.13320    8.41270 6371.77000  536.77900
   73.45680   38.56860    7.33306    5.16899   11.13320    8.49206 6346.92000  524.85100
   73.60920   39.56260    7.37701    5.00994   11.13320    8.49206 6312.13000  520.87500
   73.76160   40.55670    7.42096    4.97018   11.13320    8.49206 6277.34000  516.89900
   73.91400   40.55670    7.46492    4.93042   11.13320    8.49206 6212.72000  512.92200
   74.06640   40.75550    7.90728    4.85089   11.13320    8.57143 6212.72000  507.95200
   74.21880   40.95430    8.05083    4.85089   11.13320    8.65079 6232.60000  502.98200
   74.37120   45.72560    8.19438    4.85089   11.13320    8.65079 6391.65000  500.00000
   74.52360   46.91850    8.63674    4.85089   11.05370    8.76984 6391.65000  499.50300
   74.67600   48.11130    8.68069    4.81113   10.97420    8.88889 6381.71000  499.00600
   74.82840   52.48510    8.72464    4.77137   10.89460    9.92064 6053.68000  499.00600
   74.98080   53.67790    8.76859    4.69185   10.81510   10.39680 6093.44000  497.51500
   75.13320   54.87080    8.86235    4.65209   10.53680   10.63490 6207.75000  496.02400
   75.28560   56.85880    8.95610    4.61233   10.25840   10.87300 6257.46000  508.94600
   75.43800   57.85290    9.29885    4.45328   10.01990   11.03170 6277.34000  514.41400
   75.59040   58.84690    9.64161    4.57256    9.82107   11.19050 5919.48000  519.88100
   75.74280   60.03980    9.98436    4.69185    9.62227   11.50790 5328.03000  533.79700
   75.89520   66.79920   10.32712    5.00994    9.62227   12.22220 5298.21000  568.58800
   76.04760   67.99210    9.22565    4.97018    9.42346   12.38100 4642.15000  571.57100
   76.20000   69.98010    8.12419    4.93042    9.22465   14.28570 4562.62000  573.06200
   76.35240   71.96820    5.99603    5.08946    8.82704   14.49870 4572.56000  574.55300
   76.50480   72.56460    3.73998    5.32803    8.82704   14.71170 4607.36000  571.57100
   76.65720   73.16100    3.58393    5.52684    8.82704   13.91650 4667.00000  568.58800
   76.80960   72.36580    3.42788    5.72565    8.82704   13.91650 4607.36000  560.63600
   76.96200   73.35980    2.87183    6.04374    8.50895   13.91650 4612.33000  559.14500
   77.11440   74.35390    2.61578    6.12326    8.34990   13.35980 4632.21000  557.65400
   77.26680   76.34190    2.35973    6.20278    8.27038   13.20080 4701.79000  547.71400
   77.41920   76.14310    2.10369    6.20278    8.19086   13.04170 4612.33000  543.73800
   77.57160   75.94430    2.04764    6.28231    8.19086   12.64410 4423.46000  539.76100
   77.72400   74.35390    1.99159    6.36183    8.11133   12.52490 4338.97000  536.77900
   77.87640   74.15510    1.23554    6.36183    8.11133   12.40560 4314.12000  535.28800
   78.02880   73.95630    1.22949    6.24254    8.11133   12.08750 4319.09000  533.79700
   78.18120   78.33000    1.22344    6.12326    8.03181   11.96820 4316.60000  533.79700
   78.33360   79.32410    0.96739    6.12326    8.03181   11.84890 4314.12000  533.30000
   78.48600   80.31810    0.81134    6.12326    8.03181   11.53080 4363.82000  532.80300
   78.63840   81.51090    0.65529    6.12326    8.03181   11.33200 4386.18000  537.77300
   78.79080   82.90260    0.59925    6.04374    8.03181   11.13320 4408.55000  539.76100
   78.94320   84.29420    0.69320    6.00398    8.03181   10.65610 4448.31000  541.75000
   79.09560   84.29420    0.78715    5.96421    8.03181   10.37770 4502.98000  547.71400
   79.24800   81.11330    0.83110    5.96421    8.03181   10.09940 4483.10000  549.70200
   79.40040   81.51090    0.87505    5.92445    8.03181    9.54274 4468.19000  551.69000
   79.55280   82.30620    0.91900    5.88469    8.03181    9.34394 4398.61000  554.67200
   79.70520   82.30620    0.82484    5.80517    7.95229    9.14513 4408.55000  554.67200
   79.85760   83.49900    0.83068    5.76541    7.95229    8.58847 4423.46000  554.67200
   80.01000   82.30620    0.83652    5.72565    7.95229    8.42942 4443.34000  550.69600
   80.16240   82.30620    0.64236    5.64612    7.95229    8.27038 4468.19000  547.71400
   80.31480   82.30620    0.54820    5.64612    7.95229    7.71372 4478.13000  544.73200
   80.46720   82.30620    0.45404    5.64612    7.95229    7.55467 4572.56000  537.77300
   80.61960   82.30620    0.45988    5.48708    7.95229    7.39563 4587.48000  539.26400
   80.77200   82.30620    0.41572    5.48708    7.95229    6.99801 4597.42000  540.75500
   80.92440   79.52290    0.37156    5.48708    7.95229    6.67992 4612.33000  544.73200
   81.07680   78.33000    0.17740    5.56660    7.95229    6.56064 4657.06000  546.72000
   81.22920   77.13720    0.18324    5.60636    7.95229    6.44135 4667.00000  548.70800
   81.38160   74.35390    0.18908    5.64612    7.95229    6.20278 4716.70000  548.70800
   81.53400   74.35390    0.19492    5.56660    7.95229    6.08350 4845.92000  550.19900
   81.68640   74.35390    0.20076    5.56660    7.95229    5.96421 4900.60000  551.69000
   81.83880   73.95630    0.20660    5.56660    7.95229    5.96421 4900.60000  547.71400
   81.99120   73.55860    0.21244    5.64612    7.95229    5.92445 4900.60000  546.22300
   82.14360   73.16100    0.16828    5.60636    7.95229    5.88469 4925.45000  544.73200
   82.29600   71.96820    0.12412    5.56660    7.95229    5.88469 5228.63000  536.77900
   82.44840   70.97420    0.12996    5.48708    7.95229    5.80517 5248.51000  532.80300
   82.60080   69.98010    0.08579    5.40755    7.95229    5.72565 5193.84000  527.50200
   82.75320   69.18490    0.04163    5.32803    7.95229    5.64612 5183.90000  520.87500
   82.90560   68.19090    0.14747    5.32803    7.95229    5.64612 5149.11000  520.87500
   83.05800   67.19680    0.15331    5.32803    7.95229    5.64612 5134.19000  520.87500
   83.21040   64.81110    0.15915    5.32803    7.95229    5.56660 5079.52000  526.83900
   83.36280   64.41350   -0.03501    5.24851    7.95229    5.48708 5054.67000  528.82700
   83.51520   64.01590   -0.07917    5.28827    7.95229    5.40755 4975.15000  530.81500
   83.66760   61.63020   -0.12333    5.32803    7.95229    5.32803 4950.30000  534.79100
