~Version ---------------------------------------------------
VERS. 2.0 : CWLS log ASCII Standard -VERSION 2.0
WRAP.  NO : One line per depth step
~Well ------------------------------------------------------
STRT.M                   15.24 : START
STOP.M                  365.76 : STOP
STEP.M      0.1524000000000001 : STEP
NULL.                  -999.25 : NULL VALUE
COMP.              RAJAMANDALA : Company
WELL.              RAJAMANDALA : Well Name
FLD .              RAJAMANDALA : Field
CTRY.              RAJAMANDALA : Country
STAT.              RAJAMANDALA : State
PROV.                          : Province
LOC .                          : Field Location
LATI. 001 01' 01.000" S    DMS : Latitude
LONG. 001 01' 01.000" E    DMS : Longitude
PD  .                      MSL : Permanent Datum
EPD .M                   -1.52 : Elevation of PD
UWI .              RAJAMANDALA : Unique Well ID
EKB .M                    4.57 : Elevation of KB
EGL .M                   -1.52 : Elevation Ground lv
ELZ .M                    3.05 : Elevation Log Zero
APD .M                    3.05 : Above Perm. Datum
LMF .                       KB : Log measured from
MP  .                       KB : Drill measured from
OS  .            COMPOSITE LOG : Services
OS1 .        MULTIPLE ELECTRIK : Other Services Ln 1
OS2 .                   GR-DSN : Other Services Ln 2
OS3 .                     GR-N : Other Services Ln 3
SRVC.                          : Service company
DATE.              11 MAY 2050 : Date
~Curve Information -----------------------------------------
DEPT.M     : 1  Depth
GR  .API   : 2  Gamma-Ray Log
SP  .MV    : 3  Spontaneous Potential Log
SN  .OHMM  : 4  Short Normal Resistivity
LN  .OHMM  : 5  Long Normal Resistivity
LAT .OHMM  : 6  Lateral
DENS.CPS   : 7  Density Log
NEUT.API   : 8  Neutron Log Porosity
~Params ----------------------------------------------------
RUN .               1 : Run number
DD  .M         354.79 : Depth-Driller
DL  .M         356.01 : Depth-Logger
BLI .M         353.26 : Bottom log interval
TLI .M          40.23 : Top log interval
CS  .IN         9.625 : Casing Diameter
DFT . FRESH WATER GEL : Hole Fluid type
DFD .G/C3      1.1983 : Fluid Density
RMS .OHMM         1.8 : RM  @ Surface
RMT .DEGC       29.44 : Mud temp Surface
RMFS.OHMM         1.5 : RMF @ Surface
RMTF.DEGC       29.44 : MF temp Surface
MFSS.        FILTRATE : Source of RMF/RMC
TCS .            1430 : Time circ. stopped
TLAB.            1536 : Time logger at btm
~Other -----------------------------------------------------
~ASCII -----------------------------------------------------
# ...
  248.41200   51.89620    5.83573    3.80198    5.38614    2.61386 4096.33000  623.26000
  248.56440   53.89220    6.11004    3.80198    5.38614    2.61386 4113.70000  627.23700
  248.71680   54.49100    6.28434    3.80198    5.38614    2.61386 4131.08000  627.23700
  248.86920   55.08980    6.45865    3.80198    5.38614    2.53465 4126.12000  627.23700
  249.02160   59.48100    6.73296    3.80198    5.38614    2.53465 4111.22000  634.19500
  249.17400   60.47900    6.80726    3.80198    5.38614    2.53465 4096.33000  636.18300
  249.32640   61.47700    6.88157    3.64356    5.38614    2.53465 4046.67000  638.17100
  249.47880   61.87620    7.25587    3.72277    5.38614    2.57426 4021.85000  644.13500
  249.63120   62.27550    4.53018    3.72277    5.38614    2.61386 3997.02000  649.10500
  249.78360   62.67470    4.20448    3.72277    5.38614    2.61386 3947.37000  654.07600
  249.93600   64.27150    4.17879    3.72277    5.38614    2.45545 3915.09000  664.01600
  250.08840   63.67270    3.95309    3.72277    5.38614    2.29703 3882.82000  668.48900
  250.24080   63.07390    3.72740    3.72277    5.38614    2.53465 3828.20000  672.96200
  250.39320   62.27540    3.40171    3.72277    5.38614    2.53465 3810.82000  692.84300
  250.54560   62.07580    3.02601    3.72277    5.38614    2.53465 3793.45000  699.80100
  250.69800   61.87620    2.65031    3.76238    5.38614    2.53465 3763.65000  706.75900
  250.85040   63.47310    1.92462    3.96040    5.38614    2.57426 3753.72000  717.69400
  251.00280   64.67070    1.44893    4.00000    5.38614    2.61386 3743.79000  719.18500
  251.15520   65.86830    0.97323    4.03960    5.38614    2.61386 3758.69000  720.67600
  251.30760   69.06190    0.64754    4.03960    5.38614    2.57426 3786.00000  696.81900
  251.46000   71.85630    0.97184    4.11881    5.38614    2.53465 3813.31000  677.93200
  251.61240   72.65470    1.29615    4.11881    5.38614    2.61386 3927.51000  666.50100
  251.76480   73.45310    2.07045    4.11881    5.46535    2.57426 4081.43000  655.07000
  251.91720   76.24750    2.39476    4.11881    5.46535    2.53465 4148.46000  634.19500
  252.06960   75.84830    2.71907    4.11881    5.46535    2.53465 4215.49000  627.23700
  252.22200   75.44910    2.79337    4.11881    5.38614    2.57426 4429.00000  620.27800
  252.37440   76.24750    2.91768    4.11881    5.38614    2.61386 4652.43000  610.33800
  252.52680   76.44710    3.04198    4.10561    5.38614    2.61386 4667.33000  605.36800
  252.67920   76.64670    3.31629    4.09241    5.38614    2.57426 4652.43000  600.39800
  252.83160   76.24750    3.29059    4.07921    5.38614    2.53465 4632.57000  609.34400
  252.98400   75.04990    3.26490    4.06601    5.38614    2.61386 4577.95000  606.36200
  253.13640   73.85230    2.93920    4.05281    5.38614    2.61386 4235.35000  605.36800
  253.28880   73.45310    2.91351    3.96040    5.38614    2.61386 4185.70000  604.37400
  253.44120   73.45310    2.88781    3.96040    5.38614    2.61386 4160.87000  603.38000
  253.59360   73.45310    3.06212    3.96040    5.38614    2.61386 4081.43000  602.38600
  253.74600   75.04990    3.03642    3.96040    5.38614    2.61386 4081.43000  600.89500
  253.89840   76.04790    3.01073    3.96040    5.38614    2.53465 4081.43000  599.40400
  254.05080   77.04590    2.68504    3.96040    5.38614    2.53465 4096.33000  599.40400
  254.20320   78.24350    2.45934    3.84158    5.38614    2.53465 4111.22000  603.38000
  254.35560   79.24150    2.23365    3.72277    5.38614    2.53465 4126.12000  608.35000
  254.50800   80.23950    2.20795    3.72277    5.38614    2.53465 4096.33000  613.32000
  254.66040   79.44110    2.43226    3.64356    5.38614    2.53465 4078.95000  620.27800
  254.81280   79.44110    2.65656    3.64356    5.38614    2.61386 4061.57000  621.76900
  254.96520   79.44110    2.83087    3.64356    5.38614    2.57426 4011.92000  623.26000
  255.11760   80.63870    3.45517    3.64356    5.38614    2.53465 4021.85000  630.21900
  255.27000   80.23950    4.07948    3.64356    5.38614    2.53465 4061.57000  641.15300
  255.42240   73.85230    4.65378    3.64356    5.38614    2.53465 4061.57000  644.63200
  255.57480   74.65070    5.12809    3.64356    5.38614    2.53465 3992.06000  648.11100
  255.72720   75.84830    5.60239    3.64356    5.38614    2.53465 3977.16000  651.09300
  255.87960   77.84430    5.67670    3.64356    5.38614    2.53465 3977.16000  653.08200
  256.03200   77.44510    5.95101    3.56436    5.38614    2.53465 3997.02000  655.07000
  256.18440   75.04990    6.22531    3.56436    5.38614    2.53465 4046.67000  659.04600
  256.33680   73.85230    6.89962    3.64356    5.38614    2.57426 4046.67000  658.54900
  256.48920   72.65470    7.17392    3.64356    5.38614    2.61386 4031.78000  658.05200
  256.64160   72.65470    7.44823    3.64356    5.38614    2.61386 4031.78000  655.07000
  256.79400   83.03390    7.02253    3.64356    5.38614    2.61386 4061.57000  649.60200
  256.94640   84.63070    7.04684    3.64356    5.38614    2.61386 4111.22000  644.13500
  257.09880   76.64670    7.07114    3.64356    5.38614    2.53465 4195.63000  637.17700
  257.25120   76.64670    6.84545    3.64356    5.38614    2.53465 4225.42000  632.20700
  257.40360   76.64670    6.71976    3.64356    5.38614    2.53465 4230.39000  627.23700
  257.55600   79.44110    6.59406    3.64356    5.38614    2.53465 4215.49000  623.26000
  257.70840   80.23950    6.16837    3.64356    5.38614    2.53465 4061.57000  621.76900
  257.86080   81.03790    6.04267    3.64356    5.38614    2.53465 4111.22000  620.27800
  258.01320   80.23950    5.91698    3.64356    5.38614    2.61386 4145.98000  623.26000
  258.16560   76.64670    5.19128    3.64356    5.38614    2.57426 4145.98000  623.26000
  258.31800   75.44910    5.11559    3.64356    5.38614    2.53465 4309.83000  623.26000
  258.47040   73.45310    5.03989    3.64356    5.38614    2.61386 4329.69000  623.26000
  258.62280   80.63870    4.91420    3.64356    5.38614    2.57426 4334.66000  621.76900
  258.77520   84.63070    5.98850    3.64356    5.38614    2.53465 4329.69000  620.27800
  258.92760   85.42910    6.06281    3.64356    5.38614    2.61386 4195.63000  619.28400
  259.08000   85.02990    6.06781    3.64356    5.38614    2.53465 4180.73000  620.27800
  259.23240   83.03390    5.84172    3.64356    5.38614    2.53465 4126.12000  621.27200
  259.38480   79.44110    5.36513    3.64356    5.38614    2.53465 4128.60000  624.25400
  259.53720   78.24350    4.88853    3.64356    5.38614    2.53465 4131.08000  625.74500
  259.68960   77.84430    3.96104    3.64356    5.38614    2.57426 4101.29000  627.23700
  259.84200   70.25950    3.53444    3.64356    5.38614    2.61386 4083.91000  641.15300
  259.99440   70.65870    3.10795    3.64356    5.38614    2.61386 4066.53000  644.13500
  260.14680   71.05790    1.37885    3.64356    5.38614    2.57426 4061.57000  646.45500
  260.29920   71.45710    1.00246    3.64356    5.42574    2.53465 4081.43000  648.77400
  260.45160   71.05790    0.62606    3.64356    5.46535    2.53465 4101.29000  651.09300
  260.60400   70.65870   -0.00083    3.64356    5.38614    2.57426 4165.84000  634.19500
  260.75640   69.86030   -0.10103    3.64356    5.38614    2.61386 4200.60000  619.28400
  260.90880   69.46110    3.00517    3.64356    5.38614    2.61386 4235.35000  617.79300
  261.06120   69.06190    2.00317    3.64356    5.38614    2.61386 4265.14000  616.30200
  261.21360   71.05790    1.60237    3.64356    5.38614    2.61386 4297.42000  620.27800
  261.36600   71.65670    1.40197    3.64356    5.38614    2.61386 4329.69000  625.24900
  261.51840   72.25550    1.40197    3.64356    5.38614    2.57426 4260.18000  630.21900
  261.67080   74.65070    1.40197    3.64356    5.38614    2.53465 4205.56000  637.17700
  261.82320   81.03790    1.40197    3.64356    5.38614    2.61386 4150.94000  640.15900
  261.97560   80.23950    1.40197    3.64356    5.38614    2.61386 3982.13000  643.14100
