~Version ---------------------------------------------------
VERS. 2.0 : CWLS log ASCII Standard -VERSION 2.0
WRAP.  NO : One line per depth step
~Well ------------------------------------------------------
STRT.M                   15.24 : START
STOP.M                  365.76 : STOP
STEP.M      0.1524000000000001 : STEP
NULL.                  -999.25 : NULL VALUE
COMP.              RAJAMANDALA : Company
WELL.              RAJAMANDALA : Well Name
FLD .              RAJAMANDALA : Field
CTRY.              RAJAMANDALA : Country
STAT.              RAJAMANDALA : State
PROV.                          : Province
LOC .                          : Field Location
LATI. 001 01' 01.000" S    DMS : Latitude
LONG. 001 01' 01.000" E    DMS : Longitude
PD  .                      MSL : Permanent Datum
EPD .M                   -1.52 : Elevation of PD
UWI .              RAJAMANDALA : Unique Well ID
EKB .M                    4.57 : Elevation of KB
EGL .M                   -1.52 : Elevation Ground lv
ELZ .M                    3.05 : Elevation Log Zero
APD .M                    3.05 : Above Perm. Datum
LMF .                       KB : Log measured from
MP  .                       KB : Drill measured from
OS  .            COMPOSITE LOG : Services
OS1 .        MULTIPLE ELECTRIK : Other Services Ln 1
OS2 .                   GR-DSN : Other Services Ln 2
OS3 .                     GR-N : Other Services Ln 3
SRVC.                          : Service company
DATE.              11 MAY 2050 : Date
~Curve Information -----------------------------------------
DEPT.M     : 1  Depth
GR  .API   : 2  Gamma-Ray Log
SP  .MV    : 3  Spontaneous Potential Log
SN  .OHMM  : 4  Short Normal Resistivity
LN  .OHMM  : 5  Long Normal Resistivity
LAT .OHMM  : 6  Lateral
DENS.CPS   : 7  Density Log
NEUT.API   : 8  Neutron Log Porosity
~Params ----------------------------------------------------
RUN .               1 : Run number
DD  .M         354.79 : Depth-Driller
DL  .M         356.01 : Depth-Logger
BLI .M         353.26 : Bottom log interval
TLI .M          40.23 : Top log interval
CS  .IN         9.625 : Casing Diameter
DFT . FRESH WATER GEL : Hole Fluid type
DFD .G/C3      1.1983 : Fluid Density
RMS .OHMM         1.8 : RM  @ Surface
RMT .DEGC       29.44 : Mud temp Surface
RMFS.OHMM         1.5 : RMF @ Surface
RMTF.DEGC       29.44 : MF temp Surface
MFSS.        FILTRATE : Source of RMF/RMC
TCS .            1430 : Time circ. stopped
TLAB.            1536 : Time logger at btm
~Other -----------------------------------------------------
~ASCII -----------------------------------------------------
# ...
  330.70800   44.22310    1.36708    5.54455    7.20792    3.28713 4017.86000  717.69400
  330.86040   43.82470    1.34924    5.62376    7.20792    3.32673 4007.94000  699.80100
  331.01280   43.42630    1.43159    5.70297    7.20792    3.32673 4007.94000  689.86100
  331.16520   43.02790    1.21335    5.54455    7.28713    3.36634 4141.87000  679.92000
  331.31760   42.62950    1.09531    5.54455    7.28713    3.40594 4122.02000  670.97400
  331.47000   41.83270    0.87706    5.54455    7.28713    3.56436 4102.18000  670.97400
  331.62240   42.23110    0.55862    5.78218    7.28713    3.64356 4042.66000  671.96800
  331.77480   42.62950   -0.26082    5.78218    7.36634    3.72277 3968.25000  685.88500
  331.92720   43.02790   -0.47907    5.78218    7.44554    3.80198 3963.29000  685.88500
  332.07960   44.02390   -0.79751    5.86139    7.44554    3.88119 4022.82000  685.88500
  332.23200   45.01990    2.29084    5.86139    7.44554    3.96040 4047.62000  688.86700
  332.38440   45.41830    1.27100    5.86139    7.44554    4.03960 4052.58000  690.85500
  332.53680   44.82070    0.95256    6.09901    7.44554    4.03960 4012.90000  692.84300
  332.68920   44.22310    0.13312    6.09901    7.44554    4.03960 3988.10000  694.83100
  332.84160   43.82470   -1.28753    6.09901    7.44554    4.11881 3953.37000  703.77700
  332.99400   43.02790   -2.10697    6.17822    7.28713    4.23762 4166.67000  712.72400
  333.14640   42.23110   -2.02461    6.33663    7.24753    4.35644 4176.59000  723.65800
  333.29880   39.84060    2.46654    6.49505    7.20792    4.67327 4181.55000  736.08300
  333.45120   40.03980    2.44870    6.97030    7.20792    4.87129 4082.34000  748.50900
  333.60360   40.23900    0.22645    7.28713    7.16832    5.06931 3958.33000  762.42500
  333.75600   41.43430    1.41101    7.60396    7.12871    5.14851 3943.45000  782.30600
  333.90840   42.23110    1.89417    8.23762    6.97030    5.14851 3948.41000  781.31200
  334.06080   43.02790    2.47752    8.83168    6.93069    5.14851 3955.85000  755.46700
  334.21320   45.81670    3.06088    9.42574    6.89109    5.14851 3963.29000  748.50900
  334.36560   46.61350    3.44384   10.05940    6.89109    5.14851 3965.77000  741.55100
  334.51800   47.41040    3.02519   10.09900    6.89109    5.14851 3968.25000  733.59800
  334.67040   49.00400    2.60655   10.13860    6.97030    5.06931 3963.29000  728.62800
  334.82280   52.78880    2.08771    9.66337    7.20792    4.95049 3849.21000  723.65800
  334.97520   56.57370    1.41856    9.50495    7.20792    4.83168 3923.61000  713.71800
  335.12760   63.74500    0.74942    9.34653    7.20792    4.51485 4027.78000  708.74800
  335.28000   71.71320    0.63138    6.73267    7.20792    4.35644 4062.50000  666.00400
  335.43240   75.69720    1.11453    6.01980    7.20792    3.64356 4052.58000  616.30200
  335.58480   79.68130    1.14679    5.70297    7.20792    3.56436 3998.02000  618.62200
  335.73720   86.85260    1.17905    5.14851    6.89109    3.44554 3998.02000  620.94100
  335.88960   88.44620    0.76040    4.99010    6.73267    3.32673 3983.14000  627.23700
  336.04200   90.03980    0.59226    4.87129    6.57426    3.30033 3968.25000  630.21900
  336.19440   92.43030    0.42412    4.75248    6.57426    3.27393 3938.49000  633.69800
  336.34680   94.82070    0.40627    4.67327    6.57426    3.24752 3779.76000  637.17700
  336.49920   97.21120    1.49063    4.51485    6.57426    3.24752 3752.48000  641.15300
  336.65160  102.39000    1.47278    4.35644    6.57426    3.24752 3725.20000  639.16500
  336.80400  105.37800    1.25454    4.35644    6.49505    3.24752 3690.48000  637.17700
  336.95640  108.36700    0.93610    4.31683    6.49505    3.24752 3678.08000  624.25400
  337.10880  113.54600    0.71786    4.27723    6.49505    3.24752 3665.67000  617.29600
  337.26120  116.53400    0.59981    4.27723    6.49505    3.24752 3705.36000  610.33800
  337.41360  124.30300    0.70001    4.27723    6.49505    3.24752 3725.20000  602.38600
  337.56600  120.71700    1.40141    4.27723    6.49505    3.24752 3745.04000  606.36200
  337.71840  111.55400    1.50161    4.27723    6.41584    3.24752 3759.92000  610.33800
  337.87080  112.74900    1.70201    4.31683    6.41584    3.24752 3762.40000  614.31400
  338.02320  113.54600    1.80221    4.35644    6.41584    3.24752 3764.88000  617.79300
  338.17560  114.74100    1.80221    4.35644    6.09901    3.24752 3740.08000  621.27200
  338.32800  115.13900    0.29921    4.35644    6.05941    3.24752 3740.08000  620.27800
  338.48040  115.93600    0.90041    4.35644    6.01980    3.40594 3740.08000  621.76900
  338.63280  113.14700    1.20101    4.35644    6.01980    3.52475 3745.04000  623.26000
  338.78520  108.36700    1.00061    4.35644    6.01980    3.64356 3750.00000  623.26000
  338.93760  121.51400    0.90041    4.35644    6.01980    3.72277 3754.96000  622.26600
  339.09000  122.31100    0.59981    4.35644    5.78218    3.84158 3750.00000  621.27200
  339.24240  119.92000    0.39941    4.35644    5.82178    3.96040 3747.52000  620.27800
  339.39480  117.92800    0.39941    4.23762    5.86139    4.11881 3745.04000  620.27800
  339.54720  117.53000    1.70201    4.03960    5.78218    4.23762 3750.00000  620.27800
  339.69960  123.90400    2.40341    3.96040    5.78218    4.35644 3752.48000  623.26000
  339.85200  123.90400    2.40341    3.80198    5.78218    4.35644 3754.96000  630.21900
  340.00440  123.90400    1.80221    3.80198    5.78218    4.35644 3764.88000  637.17700
  340.15680  122.70900    1.50161    3.80198    5.78218    4.35644 3767.36000  641.15300
  340.30920  118.32700    1.80221    3.80198    5.78218    4.35644 3769.84000  654.57300
  340.46160  117.53000    2.10281    3.96040    5.78218    4.35644 3779.76000  667.99200
  340.61400  108.36700    2.10281    4.11881    5.82178    4.35644 3762.40000  674.95000
  340.76640  110.35900    2.10281    4.35644    5.86139    4.35644 3745.04000  674.95000
  340.91880  106.77300    2.30321    4.40924    6.01980    4.35644 3710.32000  674.95000
  341.07120  106.77300    1.60181    4.46205    6.05941    4.35644 3707.84000  675.94400
  341.22360  109.96000   -1.10359    4.51485    6.09901    3.80198 3705.36000  678.92600
  341.37600  116.73300   -1.10359    4.99010    6.41584    3.76238 3700.40000  681.90900
  341.52840  116.33500   -0.00139    4.99010    6.45545    3.72277 3700.40000  677.93200
  341.68080  116.33500    0.29921    4.91089    6.49505    3.64356 3700.40000  674.45300
  341.83320  116.33500   -0.50239    4.83168    6.49505    3.64356 3690.48000  670.97400
  341.98560  121.11600   -1.40419    4.67327    6.49505    3.64356 3668.15000  662.02800
  342.13800  125.89600   -3.10759    4.59406    6.49505    3.64356 3645.83000  663.51900
  342.29040  123.90400   -1.70479    4.51485    6.49505    3.60396 3596.23000  665.01000
  342.44280  121.11600   -1.70479    4.75248    6.49505    3.56436 3521.83000  665.01000
  342.59520  118.32700   -1.90519    4.83168    6.49505    3.56436 3521.83000  665.01000
  342.74760  117.92800   -2.20579    4.95049    6.49505    3.56436 3581.35000  665.01000
  342.90000  118.32700   -1.40419    5.06931    6.49505    3.56436 3581.35000  665.01000
  343.05240  124.30300   -1.30399    5.14851    6.49505    3.64356 3581.35000  664.51300
  343.20480  123.10800   -0.00139    5.14851    6.49505    3.64356 3596.23000  664.01600
  343.35720  122.31100    0.09881    5.10891    6.49505    3.64356 3628.47000  662.02800
  343.50960  120.71700   -2.20579    5.06931    6.49505    3.64356 3660.71000  658.54900
  343.66200  118.32700   -2.00539    5.06931    6.49505    3.64356 3750.00000  655.07000
  343.81440  117.92800   -0.50239    4.95049    6.33663    3.64356 3767.36000  644.13500
  343.96680  116.73300   -0.20179    4.83168    6.17822    3.64356 3784.72000  638.66800
  344.11920  116.33500   -1.40419    4.75248    5.86139    4.03960 3819.44000  633.20100
  344.27160  122.70900   -1.40419    4.62046    5.78218    4.11881 3973.21000  623.26000
