~Version ---------------------------------------------------
VERS. 2.0 : CWLS log ASCII Standard -VERSION 2.0
WRAP.  NO : One line per depth step
~Well ------------------------------------------------------
STRT.M                   15.24 : START
STOP.M                  365.76 : STOP
STEP.M      0.1524000000000001 : STEP
NULL.                  -999.25 : NULL VALUE
COMP.              RAJAMANDALA : Company
WELL.              RAJAMANDALA : Well Name
FLD .              RAJAMANDALA : Field
CTRY.              RAJAMANDALA : Country
STAT.              RAJAMANDALA : State
PROV.                          : Province
LOC .                          : Field Location
LATI. 001 01' 01.000" S    DMS : Latitude
LONG. 001 01' 01.000" E    DMS : Longitude
PD  .                      MSL : Permanent Datum
EPD .M                   -1.52 : Elevation of PD
UWI .              RAJAMANDALA : Unique Well ID
EKB .M                    4.57 : Elevation of KB
EGL .M                   -1.52 : Elevation Ground lv
ELZ .M                    3.05 : Elevation Log Zero
APD .M                    3.05 : Above Perm. Datum
LMF .                       KB : Log measured from
MP  .                       KB : Drill measured from
OS  .            COMPOSITE LOG : Services
OS1 .        MULTIPLE ELECTRIK : Other Services Ln 1
OS2 .                   GR-DSN : Other Services Ln 2
OS3 .                     GR-N : Other Services Ln 3
SRVC.                          : Service company
DATE.              11 MAY 2050 : Date
~Curve Information -----------------------------------------
DEPT.M     : 1  Depth
GR  .API   : 2  Gamma-Ray Log
SP  .MV    : 3  Spontaneous Potential Log
SN  .OHMM  : 4  Short Normal Resistivity
LN  .OHMM  : 5  Long Normal Resistivity
LAT .OHMM  : 6  Lateral
DENS.CPS   : 7  Density Log
NEUT.API   : 8  Neutron Log Porosity
~Params ----------------------------------------------------
RUN .               1 : Run number
DD  .M         354.79 : Depth-Driller
DL  .M         356.01 : Depth-Logger
BLI .M         353.26 : Bottom log interval
TLI .M          40.23 : Top log interval
CS  .IN         9.625 : Casing Diameter
DFT . FRESH WATER GEL : Hole Fluid type
DFD .G/C3      1.1983 : Fluid Density
RMS .OHMM         1.8 : RM  @ Surface
RMT .DEGC       29.44 : Mud temp Surface
RMFS.OHMM         1.5 : RMF @ Surface
RMTF.DEGC       29.44 : MF temp Surface
MFSS.        FILTRATE : Source of RMF/RMC
TCS .            1430 : Time circ. stopped
TLAB.            1536 : Time logger at btm
~Other -----------------------------------------------------
~ASCII -----------------------------------------------------
# ...
  111.25200   44.80000    1.63954    7.87276   11.05370    7.39563 3862.96000  658.05200
  111.40440   42.80000    1.66102    8.03181   10.89460    7.71372 3848.06000  670.97400
  111.55680   42.20000    1.78290    8.19086   10.73560    7.95229 3833.17000  676.93800
  111.70920   41.60000    1.90478    8.50895   10.73560    8.19086 3728.90000  682.90300
  111.86160   41.60000    1.92626    8.82704   10.73560    8.82704 3644.49000  702.78300
  112.01400   40.80000    1.84734    9.14513   10.73560    9.86084 3644.49000  744.53300
  112.16640   40.00000    1.76842    9.86084   10.73560   10.41750 3659.38000  744.53300
  112.31880   41.60000    1.48871    9.98012   10.73560   10.97420 3709.04000  685.88500
  112.47120   42.60000    1.51019   11.29220   10.73560   12.00800 3778.55000  685.88500
  112.62360   43.60000    1.53167   11.53080   10.73560   12.04770 3957.30000  685.88500
  112.77600   50.80000    1.35225   11.76940   10.73560   12.08750 3967.23000  661.03400
  112.92840   54.00000    1.22313   12.08750   10.97420   12.32600 3967.23000  647.61400
  113.08080   57.20000    1.09401   12.08750   11.05370   12.20680 3937.44000  634.19500
  113.23320   58.40000    0.81429   12.00800   11.13320   12.08750 3882.82000  630.21900
  113.38560   60.40000    0.83577   11.84890   11.21270   11.53080 3728.90000  626.74000
  113.53800   62.40000    0.85725   10.65610   11.29220   11.25250 3733.86000  623.26000
  113.69040   74.80000    0.87873   10.37770   11.29220   10.97420 3768.62000  620.27800
  113.84280   74.80000    0.90022   10.09940   11.29220   10.17890 3872.89000  618.78700
  113.99520   70.00000    0.92170    9.70179   11.45130    9.74155 4185.70000  582.50500
  114.14760   67.20000    0.74238    9.70179   11.53080    9.30418 4257.70000  575.54700
  114.30000   65.20000    1.06506    9.70179   11.45130    8.42942 4329.69000  565.60600
  114.45240   66.20000    1.18694    9.54274   11.29220    8.07157 4448.86000  565.10900
  114.60480   67.20000    1.30882    9.14513   11.29220    7.71372 4513.41000  564.61200
  114.75720   69.60000    1.53110    9.06561   11.21270    7.15706 4540.71000  555.66600
  114.90960   69.40000    1.45218    8.98608   11.05370    6.75944 4568.02000  555.16900
  115.06200   69.20000    1.37326    8.58847   10.73560    6.52087 4563.06000  554.67200
  115.21440   67.20000    1.39474    8.42942   10.73560    6.28231 4563.06000  547.71400
  115.36680   67.20000    1.51662    8.27038   10.73560    5.80517 4563.06000  548.21100
  115.51920   67.20000    1.63851    7.95229   10.73560    5.64612 4568.02000  548.70800
  115.67160   68.00000    1.76039    7.91253   10.73560    5.48708 4568.02000  571.57100
  115.82400   69.40000    1.73167    7.87276   10.73560    5.40755 4568.02000  571.57100
  115.97640   70.80000    1.70295    7.63419   10.73560    5.44732 4582.92000  567.26300
  116.12880   73.60000    1.72443    7.39563   10.73560    5.48708 4572.99000  562.95600
  116.28120   74.40000    1.64551    7.15706   10.73560    5.48708 4563.06000  558.64800
  116.43360   75.20000    1.56659    7.15706   10.73560    5.44732 4553.13000  555.66600
  116.58600   72.80000    1.58807    7.11730   10.73560    5.40755 4533.27000  568.58800
  116.73840   70.80000    1.45895    7.07753   10.73560    5.40755 4513.41000  568.58800
  116.89080   68.80000    1.32983    6.83897   10.73560    5.44732 4389.27000  568.58800
  117.04320   66.80000    1.35132    6.83897   10.73560    5.48708 4389.27000  569.58300
  117.19560   65.20000    1.37280    6.83897   10.73560    5.72565 4394.24000  569.08500
  117.34800   63.60000    1.39428    6.60040   10.73560    5.76541 4473.68000  568.58800
  117.50040   63.60000    1.41576    6.60040   10.73560    5.80517 4503.48000  564.61200
  117.65280   64.60000    1.43724    6.60040   10.73560    6.28231 4533.27000  566.10300
  117.80520   65.60000    1.45872    6.60040   10.81510    6.52087 4761.67000  567.59400
  117.95760   66.00000    1.48020    6.60040   10.89460    6.75944 4771.60000  575.54700
  118.11000   66.00000    1.65228    6.60040   10.97420    7.15706 4776.56000  577.53500
  118.26240   66.00000    1.82436    6.60040   10.97420    7.31610 4756.70000  579.52300
  118.41480   66.00000    1.54464    6.71968   11.01390    7.47515 4518.37000  585.48700
  118.56720   66.00000    1.46572    6.83897   11.05370    7.95229 4419.07000  589.46300
  118.71960   66.00000    1.38681    6.83897   10.97420    8.07157 4319.76000  593.43900
  118.87200   68.80000    0.80589    6.99801   10.97420    8.19086 4255.21000  605.36800
  119.02440   68.80000    0.82737    7.15706   10.97420    8.42942 4225.42000  604.37400
  119.17680   68.80000    0.94925    7.31610   10.97420    8.50895 4131.08000  603.38000
  119.32920   68.00000    0.87033    7.35586   10.97420    8.58847 4118.67000  598.41000
  119.48160   66.60000    1.19301    7.39563   10.97420    8.74751 4106.26000  597.41600
  119.63400   65.20000    1.21449    7.63419   11.61030    8.78728 4036.74000  596.42100
  119.78640   62.40000    1.23597    7.67396   11.88870    8.82704 4024.33000  596.42100
  119.93880   61.20000    1.25745    7.71372   12.16700    8.82704 4011.92000  601.88900
  120.09120   60.00000    1.27893    7.95229   12.16700    8.90656 3947.37000  607.35600
  120.24360   60.00000    1.30042    8.11133   12.36580    8.98608 3932.47000  617.29600
  120.39600   58.80000    1.25500    8.27038   12.56460    9.06561 3917.58000  622.26600
  120.54840   57.60000    1.20958    8.50895   12.88270    9.18489 3947.37000  627.23700
  120.70080   54.40000    1.16406    8.66799   12.92250    9.30418 3959.78000  630.21900
  120.85320   53.20000    1.18554    8.82704   12.96220    9.62227 3972.19000  625.24900
  121.00560   52.00000    1.20702    9.06561   12.96220    9.86084 3997.02000  620.27800
  121.15800   47.60000    1.22850    9.30417   13.04170   10.09940 4036.74000  612.32600
  121.31040   46.60000    1.24998    9.54274   13.12130   10.73560 4076.46000  611.33200
  121.46280   45.60000    1.27146    9.86084   12.40560   11.29220 4155.91000  610.33800
  121.61520   45.60000    1.49374    9.90060   12.16700   11.84890 4198.11000  619.28400
  121.76760   45.60000    1.51522    9.94036   12.12720   13.43940 4240.32000  626.74000
  121.92000   45.60000    2.33991   11.76940   11.84890   15.15870 4533.27000  652.08700
  122.07240   47.20000    2.36139   13.28030   11.21270   15.99210 4553.13000  650.09900
  122.22480   52.40000    2.68407   13.63820   11.21270   17.93650 4702.09000  607.35600
  122.37720   55.00000    2.90645   13.99600   11.39830   18.96830 4369.41000  607.35600
  122.52960   57.60000    1.12063   15.02980   11.58380   18.96830 4299.90000  607.35600
  122.68200   60.80000    1.04171   14.47320   11.76940   18.96830 4250.25000  579.52300
  122.83440   60.40000    0.96279   13.91650   12.00800   14.92060 4195.63000  570.57700
  122.98680   60.00000    0.88387   12.88270   14.39360   13.21430 4215.49000  561.63000
  123.13920   59.20000    1.20655   12.00800   14.47320   11.50790 4448.86000  557.65400
  123.29160   59.40000    1.22803   11.13320   14.55270    9.04762 4538.23000  556.16300
  123.44400   59.60000    1.24952    9.70179   14.47320    8.21429 4553.13000  554.67200
  123.59640   57.20000    0.76900    9.42346   14.47320    7.38095 4503.48000  551.69000
  123.74880   56.60000    0.74028    9.14513   14.47320    6.82540 4453.82000  549.20500
  123.90120   56.00000    0.71156    8.98608   14.15510    6.86508 4379.34000  546.72000
  124.05360   54.80000    1.03424    9.02584   14.03580    6.90476 4364.45000  548.70800
  124.20600   53.40000    0.90512    9.06561   13.91650    7.14286 4349.55000  550.19900
  124.35840   52.00000    0.77600    9.14513   13.83700    7.18254 4294.94000  551.69000
  124.51080   51.20000    0.39588    9.34394   13.87670    7.22222 4277.56000  551.69000
  124.66320   50.20000    0.26676    9.54274   13.91650    7.22222 4260.18000  551.69000
  124.81560   49.20000    0.13765    9.78131   13.91650    7.42064 4225.42000  551.69000
