~Version ---------------------------------------------------
VERS. 2.0 : CWLS log ASCII Standard -VERSION 2.0
WRAP.  NO : One line per depth step
~Well ------------------------------------------------------
STRT.M                   15.24 : START
STOP.M                  365.76 : STOP
STEP.M      0.1524000000000001 : STEP
NULL.                  -999.25 : NULL VALUE
COMP.              RAJAMANDALA : Company
WELL.              RAJAMANDALA : Well Name
FLD .              RAJAMANDALA : Field
CTRY.              RAJAMANDALA : Country
STAT.              RAJAMANDALA : State
PROV.                          : Province
LOC .                          : Field Location
LATI. 001 01' 01.000" S    DMS : Latitude
LONG. 001 01' 01.000" E    DMS : Longitude
PD  .                      MSL : Permanent Datum
EPD .M                   -1.52 : Elevation of PD
UWI .              RAJAMANDALA : Unique Well ID
EKB .M                    4.57 : Elevation of KB
EGL .M                   -1.52 : Elevation Ground lv
ELZ .M                    3.05 : Elevation Log Zero
APD .M                    3.05 : Above Perm. Datum
LMF .                       KB : Log measured from
MP  .                       KB : Drill measured from
OS  .            COMPOSITE LOG : Services
OS1 .        MULTIPLE ELECTRIK : Other Services Ln 1
OS2 .                   GR-DSN : Other Services Ln 2
OS3 .                     GR-N : Other Services Ln 3
SRVC.                          : Service company
DATE.              11 MAY 2050 : Date
~Curve Information -----------------------------------------
DEPT.M     : 1  Depth
GR  .API   : 2  Gamma-Ray Log
SP  .MV    : 3  Spontaneous Potential Log
SN  .OHMM  : 4  Short Normal Resistivity
LN  .OHMM  : 5  Long Normal Resistivity
LAT .OHMM  : 6  Lateral
DENS.CPS   : 7  Density Log
NEUT.API   : 8  Neutron Log Porosity
~Params ----------------------------------------------------
RUN .               1 : Run number
DD  .M         354.79 : Depth-Driller
DL  .M         356.01 : Depth-Logger
BLI .M         353.26 : Bottom log interval
TLI .M          40.23 : Top log interval
CS  .IN         9.625 : Casing Diameter
DFT . FRESH WATER GEL : Hole Fluid type
DFD .G/C3      1.1983 : Fluid Density
RMS .OHMM         1.8 : RM  @ Surface
RMT .DEGC       29.44 : Mud temp Surface
RMFS.OHMM         1.5 : RMF @ Surface
RMTF.DEGC       29.44 : MF temp Surface
MFSS.        FILTRATE : Source of RMF/RMC
TCS .            1430 : Time circ. stopped
TLAB.            1536 : Time logger at btm
~Other -----------------------------------------------------
~ASCII -----------------------------------------------------
# ...
  275.84400   84.46220    1.40197    3.72277    5.46535    2.61386 3748.76000  674.95000
  275.99640   82.07170    1.50217    3.72277    5.46535    2.61386 3654.42000  677.93200
  276.14880   77.29080    1.60237    3.72277    5.46535    2.61386 3639.52000  678.92600
  276.30120   76.89240    1.90297    3.64356    5.46535    2.61386 3639.52000  679.92000
  276.45360   76.89240    1.95307    3.64356    5.46535    2.61386 3644.49000  682.90300
  276.60600   77.29080    2.00317    3.64356    5.46535    2.61386 3738.83000  680.91500
  276.75840   76.09560    1.70257    3.72277    5.46535    2.61386 3743.79000  678.92600
  276.91080   76.89240    1.70257    3.96040    5.46535    2.61386 3679.25000  677.93200
  277.06320   77.68920    1.70257    3.96040    5.46535    2.53465 3679.25000  678.92600
  277.21560   78.48610    2.00317    3.96040    5.46535    2.57426 3709.04000  679.92000
  277.36800   80.07970    3.35597    3.96040    5.46535    2.61386 3758.69000  682.90300
  277.52040   80.07970    3.30587    3.96040    5.46535    2.61386 3783.52000  684.39400
  277.67280   80.07970    3.00517    3.96040    5.46535    2.61386 3778.55000  702.78300
  277.82520   77.68920    3.00517    3.96040    5.46535    2.61386 3766.96000  709.74200
  277.97760   76.29480    2.00317    3.96040    5.46535    2.61386 3755.38000  709.74200
  278.13000   74.90040    2.40397    3.96040    5.46535    2.61386 3728.90000  709.74200
  278.28240   73.30680    3.20567    3.96040    5.46535    2.61386 3720.21000  706.75900
  278.43480   74.50200    3.00517    3.96040    5.46535    2.61386 3709.04000  703.28000
  278.58720   75.69720    2.00317    3.96040    5.46535    2.61386 3709.04000  699.80100
  278.73960   76.49400    1.60237    3.96040    5.46535    2.61386 3709.04000  694.83100
  278.89200   77.09160    1.70257    3.96040    5.46535    2.61386 3701.59000  692.34600
  279.04440   77.68920    2.00317    4.03960    5.46535    2.61386 3694.14000  689.86100
  279.19680   78.88450    6.11147    4.03960    5.46535    2.61386 3694.14000  684.89100
  279.34920   79.08370    4.20767    4.03960    5.46535    2.61386 3674.28000  681.41200
  279.50160   79.28290    3.60647    4.03960    5.46535    2.61386 3654.42000  677.93200
  279.65400   80.47810    3.30587    4.03960    5.46535    2.61386 3604.77000  668.98600
  279.80640   79.48210    3.30587    4.03960    5.46535    2.61386 3604.77000  667.49500
  279.95880   78.48610    3.20567    3.96040    5.46535    2.61386 3609.73000  666.00400
  280.11120   77.68920    3.30587    3.80198    5.46535    2.61386 3689.18000  662.02800
  280.26360   78.48610    3.90707    3.64356    5.46535    2.61386 3684.21000  660.53700
  280.41600   79.28290    3.50627    3.64356    5.46535    2.61386 3679.25000  659.04600
  280.56840   80.87650    3.00517    3.64356    5.46535    2.61386 3694.14000  659.04600
  280.72080   81.67330    2.70457    3.56436    5.46535    2.61386 3686.69000  659.04600
  280.87320   82.47010    2.00317    3.56436    5.46535    2.61386 3679.25000  659.04600
  281.02560   82.07170    1.30177    3.56436    5.46535    2.61386 3639.52000  659.04600
  281.17800   84.06370    1.10137    3.56436    5.46535    2.61386 3639.52000  662.02800
  281.33040   84.06370    2.10337    3.56436    5.46535    2.61386 3659.38000  665.01000
  281.48280   83.66530    2.00317    3.56436    5.46535    2.61386 3674.28000  666.00400
  281.63520   82.86850    1.49103    3.64356    5.46535    2.61386 3694.14000  664.01600
  281.78760   82.07170    1.07908    3.64356    5.46535    2.61386 3709.04000  662.02800
  281.94000   77.68920    0.96774    3.64356    5.46535    2.61386 3723.93000  655.07000
  282.09240   77.29080    1.15700    3.64356    5.46535    2.61386 3738.83000  655.07000
  282.24480   76.89240    1.14586    3.64356    5.46535    2.61386 3738.83000  655.07000
  282.39720   77.68920    1.33511    3.64356    5.46535    2.61386 3659.38000  662.02800
  282.54960   77.88840    1.22377    3.64356    5.46535    2.61386 3654.42000  663.51900
  282.70200   78.08760    1.11243    3.64356    5.46535    2.61386 3743.79000  665.01000
  282.85440   78.88450    0.90088    3.64356    5.46535    2.61386 3751.24000  667.99200
  283.00680   79.88050    0.68934    3.64356    5.46535    2.61386 3763.65000  666.50100
  283.15920   80.87650    0.47780    3.64356    5.46535    2.61386 3793.45000  665.01000
  283.31160   84.86060    0.66705    3.64356    5.46535    2.61386 3793.45000  652.08700
  283.46400   84.46220    0.60581    3.64356    5.46535    2.61386 3808.34000  655.07000
  283.61640   82.86850    0.54457    3.64356    5.46535    2.61386 3798.41000  658.05200
  283.76880   80.87650    0.73382    3.64356    5.46535    2.61386 3738.83000  666.00400
  283.92120   79.88050    0.71955    3.64356    5.46535    2.61386 3740.48000  667.99200
  284.07360   78.88450    0.70527    3.64356    5.46535    2.61386 3742.14000  637.17700
  284.22600   77.29080    0.69100    3.64356    5.46535    2.61386 3778.55000  638.17100
  284.37840   76.69320    0.67673    3.64356    5.46535    2.61386 3788.48000  641.15300
  284.53080   76.09560    0.66245    3.64356    5.54455    2.61386 3798.41000  657.05800
  284.68320   75.29880    0.64817    3.64356    5.50495    2.61386 3808.34000  661.53100
  284.83560   76.09560    0.43350    3.72277    5.46535    2.61386 3820.75000  671.96800
  284.98800   76.89240    0.21883    3.72277    5.46535    2.61386 3833.17000  674.95000
  285.14040   76.09560    1.50725    3.72277    5.46535    2.61386 3778.55000  665.01000
  285.29280   75.49800    1.49298    3.72277    5.46535    2.61386 3763.65000  663.02200
  285.44520   74.90040    1.47870    3.96040    5.46535    2.61386 3748.76000  661.03400
  285.59760   72.11160    1.16373    3.96040    5.46535    2.61386 3763.65000  662.02800
  285.75000   71.91240    1.04935    4.03960    5.46535    2.61386 3778.55000  663.51900
  285.90240   71.71320    1.03508    4.03960    5.46535    2.61386 3793.45000  665.01000
  286.05480   73.70520    1.32140    4.03960    5.46535    2.61386 3808.34000  666.00400
  286.20720   74.30280    1.90833    4.03960    5.46535    2.61386 3810.82000  666.99800
  286.35960   74.90040    2.19465    3.96040    5.46535    2.61386 3813.31000  667.99200
  286.51200   72.90840    1.87978    3.96040    5.46535    2.61386 3828.20000  667.99200
  286.66440   71.71320    0.46260    3.96040    5.46535    2.61386 3843.10000  668.48900
  286.81680   70.51790    0.34813    3.96040    5.46535    2.61386 3877.85000  668.98600
  286.96920   70.51790    0.63445    3.96040    5.46535    2.61386 3867.92000  671.96800
  287.12160   70.51790    0.62018    3.96040    5.46535    2.61386 3857.99000  670.47700
  287.27400   70.51790    0.60591    3.96040    5.46535    2.61386 3828.20000  668.98600
  287.42640   72.11160    0.69183    3.96040    5.46535    2.61386 3793.45000  671.96800
  287.57880   73.50600    0.67756    3.96040    5.46535    2.61386 3783.52000  673.45900
  287.73120   74.90040    1.26458    3.96040    5.46535    2.61386 3773.58000  674.95000
  287.88360   75.29880    1.25031    3.96040    5.46535    2.61386 3763.65000  672.96200
  288.03600   74.90040    0.93533    3.96040    5.46535    2.61386 3763.65000  672.46500
  288.18840   74.50200    0.82096    3.96040    5.46535    2.61386 3763.65000  671.96800
  288.34080   75.69720    0.60618    3.96040    5.46535    2.61386 3763.65000  671.96800
  288.49320   76.09560    0.59191    3.96040    5.46535    2.61386 3761.17000  673.95600
  288.64560   76.49400    0.87823    3.96040    5.46535    2.61386 3758.69000  675.94400
  288.79800   78.08760    1.06446    3.96040    5.50495    2.61386 3763.65000  674.95000
  288.95040   76.89240    1.35078    3.96040    5.54455    2.61386 3778.55000  662.02800
  289.10280   75.69720    1.43671    3.96040    5.46535    2.61386 3793.45000  662.02800
  289.25520   73.70520    1.72303    3.96040    5.46535    2.61386 3803.38000  662.02800
  289.40760   72.70920    0.10546    3.96040    5.46535    2.61386 3813.31000  662.02800
