~Version ---------------------------------------------------
VERS. 2.0 : CWLS log ASCII Standard -VERSION 2.0
WRAP.  NO : One line per depth step
~Well ------------------------------------------------------
STRT.FT                  430.0 : START
STOP.FT                 3030.0 : STOP
STEP.FT                    0.5 : STEP
NULL.                  -999.25 : NULL VALUE
COMP.              RAJAMANDALA : Company
WELL.              RAJAMANDALA : Well Name
FLD .              RAJAMANDALA : Field
CTRY.              RAJAMANDALA : Country
STAT.              RAJAMANDALA : State
PROV.                          : Province
LOC .                          : Field Location
LATI. 001 10' 00.000" S    DMS : Latitude
LONG. 107 10' 00.000" E    DMS : Longitude
PD  .                      MSL : Permanent Datum
UWI .              RAJAMANDALA : Unique Well ID
EKB .FT                   99.0 : Elevation of KB
EDF .FT                   98.0 : Elevation of DF
EGL .FT                   81.0 : Elevation Ground lv
ELZ .FT                   99.0 : Elevation Log Zero
APD .FT                   18.0 : Above Perm. Datum
LMF .                       KB : Log measured from
MP  .                       KB : Drill measured from
OS  .                   IES-GR : Services
OS1 .                   BHC-GR : Other Services Ln 1
OS2 .                   FDC-GR : Other Services Ln 2
OS3 .                   SNP-GR : Other Services Ln 3
OS4 .                      HDT : Other Services Ln 4
SRVC.              RAJAMANDALA : Service company
RUNS.                        2 : Number of runs
DATE.                          : Date
~Curve Information -----------------------------------------
DEPT.FT    : 1  Depth
GR  .API   : 2  Gamma Ray
CALI.INCH  : 3  Caliper Log
SN  .OHMM  : 4  Short Normal
IND .OHMM  : 5  Induction Deep Resistivity
DT  .US/F  : 6  Delta-T
RHOB.G/CC  : 7  Bulk Density
PHID.%     : 8  Density Log Porosity for given zone matrix density
DRHO.G/CC  : 9  Density Log Correction
SNP .%     : 10  Sidewall Neutron Porosity
~Params ----------------------------------------------------
RUN .           1 : Run number
DATE.  2 AUG 2817 : Log date
DAY .           2 : Day
MONT.           8 : Month
YEAR.        2817 : Year
DD  .FT    2400.0 : Depth-Driller
DL  .FT    2406.0 : Depth-Logger
BLI .FT    2405.0 : Bottom log interval
TLI .FT     505.0 : Top log interval
CBD1.FT     505.0 : Casing-Driller
CBL1.FT     505.0 : Casing-Logger
CS  .IN    13.375 : Casing Diameter
CDF .FT     505.0 : Casing Depth From
CADT.FT    2400.0 : Casing Depth To
BS  .IN     9.625 : Bit Size
DFT .   GEL WATER : Hole Fluid type
TCS .     4 HOURS : Time circ. stopped
BHT .DEGC   65.56 : Bottom hole temp
MRT .DEGC   65.56 : Max recorded temp
LUN .        5110 : Logging unit No
LUL .         PWI : Logging unit Loc
ENGI. RAJAMANDALA : Recorded by
WITN. RAJAMANDALA : Witness
DPRE.         DNI : Data Prepared
DIG . RAJAMANDALA : Digitize
RUN .           2 : Run number
DATE.  2 AUG 2812 : Log date
DAY .           6 : Day
MONT.           8 : Month
YEAR.        2817 : Year
DD  .FT    3023.0 : Depth-Driller
DL  .FT    3023.0 : Depth-Logger
BLI .FT    3022.0 : Bottom log interval
TLI .FT    2405.0 : Top log interval
DFT .   GEL WATER : Hole Fluid type
MSS . CIRCULATION : Mud Sample Source
RMS .OHMM    4.28 : RM  @ Surface
RMT .DEGC   23.33 : Mud temp Surface
TCS .     6 HOURS : Time circ. stopped
BHT .DEGC   69.44 : Bottom hole temp
MRT .DEGC   69.44 : Max recorded temp
LUN .        5110 : Logging unit No
LUL .         PWI : Logging unit Loc
ENGI. RAJAMANDALA : Recorded by
WITN. RAJAMANDALA : Witness
DPRE.         DNI : Data Prepared
DIG . RAJAMANDALA : Digitize
~Other -----------------------------------------------------
BIT SIZE CHANGE : 9.6250 T 8.50 AT 2774
CALIPER CURVE RECORDED 7' TOO SHALLOW
SCALECHANGE AT 1582
~ASCII -----------------------------------------------------
# ...
  831.50000   69.02600   11.43090    1.68200    1.73500  148.38300    -999.25    -999.25    -999.25    -999.25
  832.00000   69.91100   10.57450    1.67500    1.72600  149.58100    -999.25    -999.25    -999.25    -999.25
  832.50000   67.71900   10.08320    1.66700    1.71700  149.58100    -999.25    -999.25    -999.25    -999.25
  833.00000   65.17500    9.85070    1.66000    1.70200  145.72200    -999.25    -999.25    -999.25    -999.25
  833.50000   63.84800    9.49260    1.65200    1.68300  143.32700    -999.25    -999.25    -999.25    -999.25
  834.00000   64.30000    9.17630    1.64400    1.67200  146.17400    -999.25    -999.25    -999.25    -999.25
  834.50000   64.66700    8.71060    1.64000    1.66100  146.78600    -999.25    -999.25    -999.25    -999.25
  835.00000   64.52600    8.47240    1.67100    1.65100  146.38700    -999.25    -999.25    -999.25    -999.25
  835.50000   64.80300    8.11760    1.66200    1.63600  147.58500    -999.25    -999.25    -999.25    -999.25
  836.00000   63.68300    7.82480    1.63200    1.61300  147.24000    -999.25    -999.25    -999.25    -999.25
  836.50000   60.99500    7.80820    1.60100    1.59000  147.05300    -999.25    -999.25    -999.25    -999.25
  837.00000   62.23900    7.80880    1.57100    1.56700  148.18400    -999.25    -999.25    -999.25    -999.25
  837.50000   63.73100    7.82970    1.56200    1.54400  148.78200    -999.25    -999.25    -999.25    -999.25
  838.00000   65.82600    7.95660    1.53300    1.52100  148.79200    -999.25    -999.25    -999.25    -999.25
  838.50000   67.78400    8.63700    1.53300    1.49600  150.37900    -999.25    -999.25    -999.25    -999.25
  839.00000   65.74600    9.06130    1.53300    1.49600  152.37500    -999.25    -999.25    -999.25    -999.25
  839.50000   64.29000    9.36490    1.52400    1.48700  153.57300    -999.25    -999.25    -999.25    -999.25
  840.00000   64.95400    9.66380    1.51500    1.48700  154.23800    -999.25    -999.25    -999.25    -999.25
  840.50000   65.45900    9.83150    1.51500    1.48700  154.63700    -999.25    -999.25    -999.25    -999.25
  841.00000   64.54800   10.03400    1.52000    1.49600  154.37100    -999.25    -999.25    -999.25    -999.25
  841.50000   65.96600   10.27580    1.53400    1.52400  154.50400    -999.25    -999.25    -999.25    -999.25
  842.00000   66.75100   10.64000    1.54700    1.56100  155.50200    -999.25    -999.25    -999.25    -999.25
  842.50000   66.17000   10.96020    1.56200    1.60000  156.76600    -999.25    -999.25    -999.25    -999.25
  843.00000   65.82700   11.15520    1.61500    1.62900  156.50000    -999.25    -999.25    -999.25    -999.25
  843.50000   64.05900   11.27810    1.65200    1.66500  157.83100    -999.25    -999.25    -999.25    -999.25
  844.00000   62.81900   11.10660    1.68900    1.70200  158.76200    -999.25    -999.25    -999.25    -999.25
  844.50000   63.19900   10.96720    1.72600    1.73800  153.04100    -999.25    -999.25    -999.25    -999.25
  845.00000   63.53300   11.03230    1.76300    1.77700  150.37900    -999.25    -999.25    -999.25    -999.25
  845.50000   64.25000   11.22600    1.81000    1.78800  147.31900    -999.25    -999.25    -999.25    -999.25
  846.00000   63.47100   11.14590    1.82100    1.79000  142.01000    -999.25    -999.25    -999.25    -999.25
  846.50000   62.14300   11.03740    1.81300    1.79400  140.79800    -999.25    -999.25    -999.25    -999.25
  847.00000   63.24600   11.32880    1.81600    1.79700  140.13300    -999.25    -999.25    -999.25    -999.25
  847.50000   64.81600   11.68910    1.81900    1.80000  140.93100    -999.25    -999.25    -999.25    -999.25
  848.00000   65.43900   11.29990    1.82200    1.80400  142.79400    -999.25    -999.25    -999.25    -999.25
  848.50000   64.95200   10.78760    1.82500    1.80700  144.79000    -999.25    -999.25    -999.25    -999.25
  849.00000   64.79300   10.93490    1.82800    1.81000  146.52000    -999.25    -999.25    -999.25    -999.25
  849.50000   63.61500   11.00060    1.83300    1.81000  148.64900    -999.25    -999.25    -999.25    -999.25
  850.00000   63.84100   11.01310    1.83200    1.81000  148.51600    -999.25    -999.25    -999.25    -999.25
  850.50000   64.77500   11.12800    1.87800    1.81000  145.19000    -999.25    -999.25    -999.25    -999.25
  851.00000   66.52800   11.15220    1.87800    1.78800  144.12500    -999.25    -999.25    -999.25    -999.25
  851.50000   68.09600   11.09440    1.83200    1.77100  141.46400    -999.25    -999.25    -999.25    -999.25
  852.00000   68.31800   11.07770    1.80400    1.75500  142.19600    -999.25    -999.25    -999.25    -999.25
  852.50000   66.27500   11.06720    1.75100    1.71300  145.72200    -999.25    -999.25    -999.25    -999.25
  853.00000   66.85500   11.00910    1.68700    1.64000  147.25200    -999.25    -999.25    -999.25    -999.25
  853.50000   66.50500   10.96010    1.62400    1.57600  149.98000    -999.25    -999.25    -999.25    -999.25
  854.00000   66.96400   10.90610    1.55200    1.51600  150.79900    -999.25    -999.25    -999.25    -999.25
  854.50000   68.10800   10.88570    1.51900    1.46000  150.51200    -999.25    -999.25    -999.25    -999.25
  855.00000   67.28900   10.95360    1.48700    1.45300  152.24200    -999.25    -999.25    -999.25    -999.25
  855.50000   65.49800   10.85950    1.46000    1.44000  155.56900    -999.25    -999.25    -999.25    -999.25
  856.00000   65.10800   10.96050    1.46000    1.42700  159.14300    -999.25    -999.25    -999.25    -999.25
  856.50000   67.66100   11.03160    1.46900    1.41400  161.95600    -999.25    -999.25    -999.25    -999.25
  857.00000   68.92400   11.04540    1.48700    1.40100  163.42000    -999.25    -999.25    -999.25    -999.25
  857.50000   68.03100   10.96230    1.49600    1.39000  163.95200    -999.25    -999.25    -999.25    -999.25
  858.00000   67.44100   10.95520    1.48700    1.38300  160.89200    -999.25    -999.25    -999.25    -999.25
  858.50000   67.04400   10.95220    1.46000    1.37500  167.14600    -999.25    -999.25    -999.25    -999.25
  859.00000   67.05500   10.95240    1.41600    1.36600  171.53700    -999.25    -999.25    -999.25    -999.25
  859.50000   67.64500   10.95160    1.39000    1.35700  171.93600    -999.25    -999.25    -999.25    -999.25
  860.00000   68.60000   11.01050    1.39000    1.34800  171.86100    -999.25    -999.25    -999.25    -999.25
  860.50000   67.68400   11.02050    1.40700    1.33900  170.47200    -999.25    -999.25    -999.25    -999.25
  861.00000   65.97300   11.03300    1.40700    1.33000  169.54100    -999.25    -999.25    -999.25    -999.25
  861.50000   66.49400   11.05710    1.38100    1.32100  164.88400    -999.25    -999.25    -999.25    -999.25
  862.00000   67.22300   11.09620    1.34800    1.31500  163.95200    -999.25    -999.25    -999.25    -999.25
  862.50000   67.74500   11.14490    1.32300    1.30700  124.96300    -999.25    -999.25    -999.25    -999.25
  863.00000   67.19300   11.10240    1.31500    1.29900  166.34700    -999.25    -999.25    -999.25    -999.25
  863.50000   67.85900   11.05730    1.31500    1.31900  165.54900    -999.25    -999.25    -999.25    -999.25
  864.00000   67.57900   11.07150    1.35600    1.33400  165.81500    -999.25    -999.25    -999.25    -999.25
  864.50000   66.91300   11.06560    1.39800    1.34900  166.21400    -999.25    -999.25    -999.25    -999.25
  865.00000   66.11200   11.04470    1.42000    1.36400  170.20600    -999.25    -999.25    -999.25    -999.25
  865.50000   65.07100   11.05110    1.44100    1.37900  167.94400    -999.25    -999.25    -999.25    -999.25
  866.00000   63.68500   11.03370    1.46100    1.39400  168.10400    -999.25    -999.25    -999.25    -999.25
  866.50000   63.46200   10.97870    1.48100    1.40500  165.21600    -999.25    -999.25    -999.25    -999.25
  867.00000   63.73500   10.96650    1.49600    1.41600  162.48800    -999.25    -999.25    -999.25    -999.25
  867.50000   64.63100   10.94420    1.49600    1.42700  160.42600    -999.25    -999.25    -999.25    -999.25
