~Version ---------------------------------------------------
VERS. 2.0 : CWLS log ASCII Standard -VERSION 2.0
WRAP.  NO : One line per depth step
~Well ------------------------------------------------------
STRT.FT                  430.0 : START
STOP.FT                 3030.0 : STOP
STEP.FT                    0.5 : STEP
NULL.                  -999.25 : NULL VALUE
COMP.              RAJAMANDALA : Company
WELL.              RAJAMANDALA : Well Name
FLD .              RAJAMANDALA : Field
CTRY.              RAJAMANDALA : Country
STAT.              RAJAMANDALA : State
PROV.                          : Province
LOC .                          : Field Location
LATI. 001 10' 00.000" S    DMS : Latitude
LONG. 107 10' 00.000" E    DMS : Longitude
PD  .                      MSL : Permanent Datum
UWI .              RAJAMANDALA : Unique Well ID
EKB .FT                   99.0 : Elevation of KB
EDF .FT                   98.0 : Elevation of DF
EGL .FT                   81.0 : Elevation Ground lv
ELZ .FT                   99.0 : Elevation Log Zero
APD .FT                   18.0 : Above Perm. Datum
LMF .                       KB : Log measured from
MP  .                       KB : Drill measured from
OS  .                   IES-GR : Services
OS1 .                   BHC-GR : Other Services Ln 1
OS2 .                   FDC-GR : Other Services Ln 2
OS3 .                   SNP-GR : Other Services Ln 3
OS4 .                      HDT : Other Services Ln 4
SRVC.              RAJAMANDALA : Service company
RUNS.                        2 : Number of runs
DATE.                          : Date
~Curve Information -----------------------------------------
DEPT.FT    : 1  Depth
GR  .API   : 2  Gamma Ray
CALI.INCH  : 3  Caliper Log
SN  .OHMM  : 4  Short Normal
IND .OHMM  : 5  Induction Deep Resistivity
DT  .US/F  : 6  Delta-T
RHOB.G/CC  : 7  Bulk Density
PHID.%     : 8  Density Log Porosity for given zone matrix density
DRHO.G/CC  : 9  Density Log Correction
SNP .%     : 10  Sidewall Neutron Porosity
~Params ----------------------------------------------------
RUN .           1 : Run number
DATE.  2 AUG 2817 : Log date
DAY .           2 : Day
MONT.           8 : Month
YEAR.        2817 : Year
DD  .FT    2400.0 : Depth-Driller
DL  .FT    2406.0 : Depth-Logger
BLI .FT    2405.0 : Bottom log interval
TLI .FT     505.0 : Top log interval
CBD1.FT     505.0 : Casing-Driller
CBL1.FT     505.0 : Casing-Logger
CS  .IN    13.375 : Casing Diameter
CDF .FT     505.0 : Casing Depth From
CADT.FT    2400.0 : Casing Depth To
BS  .IN     9.625 : Bit Size
DFT .   GEL WATER : Hole Fluid type
TCS .     4 HOURS : Time circ. stopped
BHT .DEGC   65.56 : Bottom hole temp
MRT .DEGC   65.56 : Max recorded temp
LUN .        5110 : Logging unit No
LUL .         PWI : Logging unit Loc
ENGI. RAJAMANDALA : Recorded by
WITN. RAJAMANDALA : Witness
DPRE.         DNI : Data Prepared
DIG . RAJAMANDALA : Digitize
RUN .           2 : Run number
DATE.  2 AUG 2812 : Log date
DAY .           6 : Day
MONT.           8 : Month
YEAR.        2817 : Year
DD  .FT    3023.0 : Depth-Driller
DL  .FT    3023.0 : Depth-Logger
BLI .FT    3022.0 : Bottom log interval
TLI .FT    2405.0 : Top log interval
DFT .   GEL WATER : Hole Fluid type
MSS . CIRCULATION : Mud Sample Source
RMS .OHMM    4.28 : RM  @ Surface
RMT .DEGC   23.33 : Mud temp Surface
TCS .     6 HOURS : Time circ. stopped
BHT .DEGC   69.44 : Bottom hole temp
MRT .DEGC   69.44 : Max recorded temp
LUN .        5110 : Logging unit No
LUL .         PWI : Logging unit Loc
ENGI. RAJAMANDALA : Recorded by
WITN. RAJAMANDALA : Witness
DPRE.         DNI : Data Prepared
DIG . RAJAMANDALA : Digitize
~Other -----------------------------------------------------
BIT SIZE CHANGE : 9.6250 T 8.50 AT 2774
CALIPER CURVE RECORDED 7' TOO SHALLOW
SCALECHANGE AT 1582
~ASCII -----------------------------------------------------
# ...
 2985.00000   23.37700    8.62450  259.28200  197.86100   48.21700    2.73300   -1.86900    0.02300    6.88500
 2985.50000   23.10200    8.61050  260.88000  196.64900   47.88400    2.72100   -1.18900    0.02600    7.60500
 2986.00000   23.34100    8.59650  257.21100  193.05700   47.21900    2.71900   -1.02900   -0.00300    7.48500
 2986.50000   22.74800    8.58790  254.54600  222.36200   46.82000    2.71900   -1.08900    0.01100    6.08600
 2987.00000   21.69000    8.58770  252.98700  222.36200   46.75300    2.74000   -2.56400    0.01300    6.04100
 2987.50000   21.16000    8.57370  248.36600  222.36200   46.32100    2.75900   -3.34800    0.02200    5.96600
 2988.00000   21.11800    8.57460  243.83000  227.89500   46.48700    2.74000   -2.26800    0.01500    5.28600
 2988.50000   20.48000    8.57460  239.37700  230.71300   46.42000    2.76000   -3.50800    0.02900    5.24700
 2989.00000   20.69400    8.56130  233.56500  229.29900   47.01900    2.73900   -2.22900    0.00700    5.61500
 2989.50000   21.17900    8.53420  226.49900  227.89500   46.22100    2.73800   -2.18900    0.00000    6.36600
 2990.00000   21.09900    8.53490  216.96400  240.85200   46.07300    2.72000   -1.22900   -0.01100    6.56600
 2990.50000   22.76800    8.53500  206.55700  265.73300   46.22100    2.73900   -2.30800   -0.00700    6.36600
 2991.00000   23.13800    8.53500  197.86100  294.99100   46.95300    2.74700   -2.74800   -0.00100    5.92600
 2991.50000   24.29400    8.53500  183.79700  269.01900   46.82000    2.76700   -3.92700    0.02000    5.44600
 2992.00000   24.71100    8.53500  172.37100  279.12100   47.72800    2.77700   -4.62700    0.02400    5.32600
 2992.50000   25.17700    8.53530  157.62600  197.86100   48.15000    2.77200   -4.10700    0.01900    5.64600
 2993.00000   25.51300    8.57100  142.00300  170.78500   48.94900    2.75700   -3.90700    0.01700    5.72600
 2993.50000   26.95000    8.58780  123.27900  158.59700   47.44500    2.75600   -3.54800    0.02000    5.68600
 2994.00000   30.40600    8.57580  105.28500  150.99000   47.41800    2.77000   -4.02700    0.06400    5.88600
 2994.50000   33.54300    8.56160   94.07600  152.85700   47.68500    2.77400   -4.42700    0.06800    6.08600
 2995.00000   36.40600    8.53480   85.26700  134.35300   49.61400    2.69700    0.20500    0.02300    6.92500
 2995.50000   36.04600    8.53450   81.17700  126.90800   54.60400    2.68300    1.16900    0.00600    7.88500
 2996.00000   33.32100    8.40460   81.17700  109.36000   56.81500    2.69900   -0.11000    0.00700    8.54400
 2996.50000   33.39100    8.29790   85.79500  111.05200   57.46500    2.70200   -0.03000    0.00900    9.14400
 2997.00000   33.85000    8.37140   92.92700  115.22200   56.00100    2.69000    0.57000    0.03600    9.76300
 2997.50000   33.39600    8.34910  103.16000  120.28600   52.07600    2.63600    3.96700    0.03500    9.96300
 2998.00000   33.45000    8.26790  109.69600  123.27900   48.28300    2.63100    4.20700    0.06600    9.74200
 2998.50000   32.23700    8.29850  111.73600  124.80400   47.01900    2.65400    2.84800    0.06900    9.48100
 2999.00000   32.16600    8.25020  110.71200  124.42100   46.95300    2.65700    2.68800    0.05200    8.52400
 2999.50000   31.66700    8.17820  105.72500  121.02800   46.88600    2.64300    3.52800    0.03100    6.88500
 3000.00000   32.20600    8.17470   99.49400  115.93300   46.95300    2.63100    4.12700    0.02600    6.56600
 3000.50000   32.85800    8.25970   91.79200  111.05200   49.18200    2.64400    3.40800    0.05200    6.48600
 3001.00000   33.16800    8.30220   83.71000  105.07800   50.81200    2.64700    3.26400    0.04500    6.55600
 3001.50000   32.03000    8.40860   79.69500  103.79400   52.74100    2.64900    3.18800    0.03700    7.28500
 3002.00000   29.48300    8.41660   77.76000  106.70500   53.47300    2.64100    3.60100    0.03100    8.16500
 3002.50000   19.97100    8.40290   81.17700  111.05200   53.93900    2.64100    3.62800    0.03600    8.38400
 3003.00000    2.28400    8.36450   86.32200  115.93300   53.73900    2.64300    3.50300    0.06100    8.11000
 3003.50000    1.41300    8.33350   98.21000  123.27900   52.90800    2.62100    4.80700    0.05400    7.36500
 3004.00000    1.36600    8.31350  108.45000  136.01400   51.59300    2.60100    5.98600    0.04600    6.98500
 3004.50000    1.34300    8.36320  120.28600  126.34700   49.84700    2.60600    5.72600    0.05400    6.86500
 3005.00000    1.32000    8.35050  127.90900  127.12500   48.61600    2.62500    4.58000    0.08600    6.86100
 3005.50000    1.29700    8.35060  134.35600  118.08900   47.55200    2.61000    5.36600    0.08600    6.80500
 3006.00000    1.27400    8.37550  140.47900  121.02800   48.49400    2.59100    6.64600    0.05200    6.88500
 3006.50000    1.25100    8.41760  148.23200  132.71200   48.55000    2.57300    8.68400    0.04600    7.12500
 3007.00000    1.22800    8.41630  154.27300  137.69600   49.14800    2.55700    8.76400    0.02700    8.64400
 3007.50000    1.20600    8.39590  160.55800  122.52400   50.14600    2.60900    4.88700    0.04700    9.36400
 3008.00000    1.18300    8.25840  166.30900  114.87000   49.54800    2.66700    2.00900    0.08200    9.32400
 3008.50000    1.16000    8.21710  171.78900  115.22200   49.54800    2.67200    1.80900    0.05500    9.82300
 3009.00000    1.13700    8.26710  178.23600  110.95500   50.27900    2.64600    3.56800    0.04600   10.68700
 3009.50000    1.11400    8.36240  185.50000  104.43400   49.88000    2.61300    5.48600    0.03300   11.16300
 3010.00000    1.09100    8.31500  190.14700  110.37200   48.78200    2.58700    6.88500    0.03000   10.92300
 3010.50000    1.06800    8.21620  194.24700  104.10200   48.55000    2.55600    8.86000    0.06200   10.92300
 3011.00000    1.04500    8.38510  195.44400   92.92700   47.78400    2.52700   10.48300    0.03400   10.36300
 3011.50000    1.02200    8.52010  194.24700   99.42500   48.21700    2.59200    6.59800    0.01300    8.96400
 3012.00000    0.99900    8.46320  190.99600  101.27400   49.14800    2.66900    1.91400    0.07200    8.28400
 3012.50000    0.97700    8.48560  185.21800   92.92700   49.61400    2.70600   -0.27000    0.08800    8.56400
 3013.00000    0.95400    8.26220  180.44000   99.42500   48.68300    2.74400   -1.10900    0.09400    9.28400
 3013.50000    0.93100    8.13290  173.90900   98.21000   48.41700    2.73500   -2.03600    0.10100   10.14300
 3014.00000    0.90800    8.09940  164.44500   95.38100   48.15000    2.70400    1.28900    0.10400   10.60300
 3014.50000    0.88500    8.14020  153.79900   93.50100   48.25000    2.66200    1.12900    0.08400   10.80300
 3015.00000    0.86300    8.12320  142.43500   92.92700   48.15000    2.62600    4.52700    0.05500   10.22300
 3015.50000    0.88000    8.08590  132.71200  100.03700   48.21700    2.59800    6.96500    0.03800    9.72400
 3016.00000    0.89700    8.11250  124.19600  101.89900   48.15000    2.55100    9.04400    0.03800   10.16300
 3016.50000    0.91500    8.12560  110.37200  106.70500   48.21700    2.50300   11.98200    0.03100   10.40300
 3017.00000    0.93300    8.09690  105.72500  107.03200   48.15000    2.52100   10.82300    0.05300    9.31100
 3017.50000    0.95000    8.08400  102.52700  104.43400   48.21700    2.55000    9.10400    0.09000    6.96500
 3018.00000    0.96800    8.07740   99.42500  102.52700   48.35000    2.56900    7.92500    0.10400   29.99000
 3018.50000    0.98600    8.07280  103.79400   99.42500   48.21700    2.58500    6.88500    0.08900   29.99000
 3019.00000    1.00300    8.04660  111.05200   98.81600   48.21700    2.61300    5.32600    0.09600   29.99000
 3019.50000    1.02100    8.03310  118.81700  101.89900   48.28300    2.61200    5.42600    0.12100   29.99000
 3020.00000    1.03800    7.99160  127.31400  106.05100   47.88400    2.55200    9.02400    0.13600   29.99000
 3020.50000    1.05600    7.99320  141.12200  108.35600   45.48900    2.55100    9.18400    0.14500   29.99000
 3021.00000    1.07400    8.01920  163.54500  109.69600   79.68700    2.61000    5.51600    0.11900   29.99000
