~Version ---------------------------------------------------
VERS. 2.0 : CWLS log ASCII Standard -VERSION 2.0
WRAP.  NO : One line per depth step
~Well ------------------------------------------------------
STRT.FT                  430.0 : START
STOP.FT                 3030.0 : STOP
STEP.FT                    0.5 : STEP
NULL.                  -999.25 : NULL VALUE
COMP.              RAJAMANDALA : Company
WELL.              RAJAMANDALA : Well Name
FLD .              RAJAMANDALA : Field
CTRY.              RAJAMANDALA : Country
STAT.              RAJAMANDALA : State
PROV.                          : Province
LOC .                          : Field Location
LATI. 001 10' 00.000" S    DMS : Latitude
LONG. 107 10' 00.000" E    DMS : Longitude
PD  .                      MSL : Permanent Datum
UWI .              RAJAMANDALA : Unique Well ID
EKB .FT                   99.0 : Elevation of KB
EDF .FT                   98.0 : Elevation of DF
EGL .FT                   81.0 : Elevation Ground lv
ELZ .FT                   99.0 : Elevation Log Zero
APD .FT                   18.0 : Above Perm. Datum
LMF .                       KB : Log measured from
MP  .                       KB : Drill measured from
OS  .                   IES-GR : Services
OS1 .                   BHC-GR : Other Services Ln 1
OS2 .                   FDC-GR : Other Services Ln 2
OS3 .                   SNP-GR : Other Services Ln 3
OS4 .                      HDT : Other Services Ln 4
SRVC.              RAJAMANDALA : Service company
RUNS.                        2 : Number of runs
DATE.                          : Date
~Curve Information -----------------------------------------
DEPT.FT    : 1  Depth
GR  .API   : 2  Gamma Ray
CALI.INCH  : 3  Caliper Log
SN  .OHMM  : 4  Short Normal
IND .OHMM  : 5  Induction Deep Resistivity
DT  .US/F  : 6  Delta-T
RHOB.G/CC  : 7  Bulk Density
PHID.%     : 8  Density Log Porosity for given zone matrix density
DRHO.G/CC  : 9  Density Log Correction
SNP .%     : 10  Sidewall Neutron Porosity
~Params ----------------------------------------------------
RUN .           1 : Run number
DATE.  2 AUG 2817 : Log date
DAY .           2 : Day
MONT.           8 : Month
YEAR.        2817 : Year
DD  .FT    2400.0 : Depth-Driller
DL  .FT    2406.0 : Depth-Logger
BLI .FT    2405.0 : Bottom log interval
TLI .FT     505.0 : Top log interval
CBD1.FT     505.0 : Casing-Driller
CBL1.FT     505.0 : Casing-Logger
CS  .IN    13.375 : Casing Diameter
CDF .FT     505.0 : Casing Depth From
CADT.FT    2400.0 : Casing Depth To
BS  .IN     9.625 : Bit Size
DFT .   GEL WATER : Hole Fluid type
TCS .     4 HOURS : Time circ. stopped
BHT .DEGC   65.56 : Bottom hole temp
MRT .DEGC   65.56 : Max recorded temp
LUN .        5110 : Logging unit No
LUL .         PWI : Logging unit Loc
ENGI. RAJAMANDALA : Recorded by
WITN. RAJAMANDALA : Witness
DPRE.         DNI : Data Prepared
DIG . RAJAMANDALA : Digitize
RUN .           2 : Run number
DATE.  2 AUG 2812 : Log date
DAY .           6 : Day
MONT.           8 : Month
YEAR.        2817 : Year
DD  .FT    3023.0 : Depth-Driller
DL  .FT    3023.0 : Depth-Logger
BLI .FT    3022.0 : Bottom log interval
TLI .FT    2405.0 : Top log interval
DFT .   GEL WATER : Hole Fluid type
MSS . CIRCULATION : Mud Sample Source
RMS .OHMM    4.28 : RM  @ Surface
RMT .DEGC   23.33 : Mud temp Surface
TCS .     6 HOURS : Time circ. stopped
BHT .DEGC   69.44 : Bottom hole temp
MRT .DEGC   69.44 : Max recorded temp
LUN .        5110 : Logging unit No
LUL .         PWI : Logging unit Loc
ENGI. RAJAMANDALA : Recorded by
WITN. RAJAMANDALA : Witness
DPRE.         DNI : Data Prepared
DIG . RAJAMANDALA : Digitize
~Other -----------------------------------------------------
BIT SIZE CHANGE : 9.6250 T 8.50 AT 2774
CALIPER CURVE RECORDED 7' TOO SHALLOW
SCALECHANGE AT 1582
~ASCII -----------------------------------------------------
# ...
 1999.50000   66.11200   11.83550    1.61100    1.33100  121.20400    2.35300   21.03600    0.05400   31.86900
 2000.00000   65.35600   11.90490    1.64000    1.37700  120.87200    2.35200   21.19600    0.05000   31.78900
 2000.50000   65.97300   11.92370    1.60600    1.35600  121.10400    2.35600   20.86000    0.05300   35.78600
 2001.00000   64.06200   11.61000    1.60100    1.37300  121.80300    2.35300   21.03600    0.05400   35.30600
 2001.50000   62.00100   11.19960    1.66100    1.39000  123.46600    2.35100   21.11600    0.04500   35.38600
 2002.00000   61.95300   11.04360    1.73100    1.41100  121.30400    2.34400   21.59600    0.02900   34.42700
 2002.50000   59.57000   10.99990    1.77700    1.46900  116.34700    2.34800   21.38800    0.02500   35.50600
 2003.00000   56.00700   11.05320    1.84400    1.54300  115.41600    2.34300   21.71600    0.02600   34.86700
 2003.50000   53.96100   11.16320    1.90100    1.57100  110.82500    2.33400   22.15500    0.02100   35.34600
 2004.00000   55.15400   10.97660    1.95500    1.62800  112.74800    2.36000   20.51600    0.04200   34.78700
 2004.50000   57.34700   11.00580    1.99700    1.74400  115.15000    2.34800   20.59600    0.04800   34.48200
 2005.00000   55.87000   10.84550    1.96000    1.77700  112.02300    2.34700   21.49600    0.03800   34.36700
 2005.50000   52.69900   10.59330    2.08500    1.84400  108.62900    2.36500   20.25600    0.03800   34.14700
 2006.00000   52.80800   10.36120    2.20300    1.88900  108.09700    2.37500   19.67700    0.02800   33.66800
 2006.50000   56.71300   10.21610    2.28600    1.87200  110.95800    2.39300   18.57400    0.02300   31.32900
 2007.00000   57.74300   10.21620    2.25800    1.89200  110.82500    2.40000   18.07800    0.02800   29.65000
 2007.50000   57.72500   10.07530    2.24400    1.90100  111.89000    2.39600   18.43800    0.03400   29.43000
 2008.00000   55.52500   10.12130    2.25800    1.88900  110.52100    2.39800   18.19800    0.05000   27.51200
 2008.50000   52.82600   10.12830    2.27200    1.86600  108.69600    2.39300   18.59800    0.04300   26.31800
 2009.00000   54.51900   10.10530    2.28600    1.85500  108.16400    2.41300   17.35800    0.07600   25.75300
 2009.50000   56.23700   10.17790    2.30000    1.87800  106.82700    2.37800   19.99700    0.12900   29.83000
 2010.00000   54.04400   10.12250    2.32600    1.88900  106.24700    2.35000   21.15600    0.10900   32.14900
 2010.50000   53.43900   10.11850    2.32800    1.90100  106.70000    2.37600   19.59700    0.06500   33.75400
 2011.00000   54.99600   10.09540    2.34300    2.03400  107.23200    2.39300   18.63800    0.03600   34.14700
 2011.50000   56.18100   10.09170    2.40100    2.03400  107.43200    2.40000   18.15800    0.01900   31.62900
 2012.00000   55.16700   10.15860    2.47600    2.08500  107.06200    2.40900   17.63800    0.01200   30.35000
 2012.50000   53.15700   10.14380    2.63300    2.28600  107.76400    2.42400   16.71900    0.01100   29.27000
 2013.00000   50.81500   10.12320    2.78300    2.37900  103.93900    2.42400   16.71900    0.01700   27.09200
 2013.50000   48.78300   10.15920    2.94100    2.49100   99.41500    2.43900   15.83900    0.01500   26.47200
 2014.00000   47.15100   10.20780    3.10800    2.56000   95.85500    2.46800   14.08100    0.04100   26.95200
 2014.50000   45.34100   10.21300    3.24500    2.74900   92.22900    2.46200   14.46100    0.03400   26.42400
 2015.00000   43.75300   10.14360    3.32500    2.73200   91.03100    2.46300   14.32000    0.02400   26.01300
 2015.50000   42.67500   10.23760    3.36700    2.88700   90.73200    2.48100   13.32100    0.03100   26.03300
 2016.00000   43.47900   10.15820    3.36700    2.92300   90.97300    2.47900   13.40100    0.02900   25.61300
 2016.50000   43.57800   10.21290    3.34600    2.95900   91.06500    2.47600   13.61900    0.02100   24.23400
 2017.00000   43.77100   10.14600    3.36700    2.95900   91.86300    2.48000   13.36100    0.00300   22.11500
 2017.50000   44.23800   10.22530    3.36700    2.94100   92.29500    2.50000   12.20200    0.00500   19.31700
 2018.00000   43.25500   10.18950    3.32500    2.92300   91.19800    2.50700   11.72200    0.01000   18.35800
 2018.50000   42.90000   10.15020    3.32500    2.92300   90.79800    2.50700   11.71800    0.03200   18.87700
 2019.00000   42.80100   10.08470    3.34600    2.88700   90.86500    2.50200   12.08200    0.02100   18.39800
 2019.50000   42.49300   10.02790    3.32500    2.91400   90.99800    2.52200   10.76300    0.03800   18.59800
 2020.00000   42.96600   10.09510    3.30500    2.88700   91.08800    2.52200   10.84300    0.02400   19.35700
 2020.50000   45.74900   10.17990    3.28500    2.86900   91.33100    2.51600   11.21300    0.01300   20.47600
 2021.00000   44.90100   10.05560    3.26500    2.81700   91.59700    2.51400   11.28200    0.00300   19.47700
 2021.50000   42.88100   10.08660    3.24500    2.81700   92.86100    2.51800   11.08300    0.00400   18.23800
 2022.00000   42.35100   10.15000    3.26500    2.80000   93.07700    2.53400   10.08300    0.00600   17.95800
 2022.50000   40.96300   10.13350    3.30500    2.81300   92.32900    2.55600    8.78900    0.01600   18.51800
 2023.00000   40.01100   10.02920    3.32500    2.82300   91.53000    2.57300    7.76500    0.02700   18.07800
 2023.50000   40.16400   10.02640    3.36700    2.83300   90.53200    2.56700    8.12500    0.02200   18.15800
 2024.00000   41.49100   10.03910    3.38700    2.84300   90.24200    2.56100    8.48400    0.01300   17.79800
 2024.50000   43.31600   10.08600    3.36700    2.85300   90.59900    2.55200    9.08400    0.01200   17.37800
 2025.00000   43.70300   10.04010    3.34600    2.86300   91.86300    2.57300    7.72500    0.02000   17.27800
 2025.50000   43.97600   10.03310    3.38700    2.87300   92.32900    2.57500    7.60500    0.02600   18.21800
 2026.00000   42.97000   10.04200    3.38700    2.88300   91.19800    2.54200    9.72400    0.00300   18.87700
 2026.50000   42.27200   10.02860    3.42900    2.88700   90.99800    2.54400    9.52400    0.00300   18.79700
 2027.00000   42.33700   10.02900    3.48200    2.93900   90.93100    2.54900    9.20400    0.00500   19.47700
 2027.50000   41.88800   10.01180    3.51400    2.97100   90.20000    2.55100    9.08400    0.00500   19.03700
 2028.00000   42.49600   10.01570    3.64600    3.00400   90.26600    2.52000   11.08300   -0.00100   18.19800
 2028.50000   40.57700   10.02910    3.60200    3.08900   90.59900    2.50400   11.90800   -0.01300   17.87800
 2029.00000   38.08600   10.04030    3.85400    3.20500   89.46800    2.50400   11.92200   -0.01200   18.43800
 2029.50000   36.07200   10.05040    4.04800    3.32000   87.97100    2.51700   11.14300    0.00900   18.99700
 2030.00000   35.25100   10.02990    4.17400    3.43600   86.50700    2.53400   10.14300    0.02300   18.97700
 2030.50000   34.68800   10.04160    4.38500    3.55800   84.67700    2.53900    9.84700    0.01700   19.05700
 2031.00000   34.79600   10.05700    4.48000    3.70300   83.11400    2.52800   10.48300    0.00300   19.23700
 2031.50000   34.95700   10.09720    4.54900    3.88900   83.41300    2.52600   10.60300   -0.00900   19.27700
 2032.00000   34.89500   10.05200    4.60500    3.92500   83.77900    2.53500   10.08300   -0.01100   18.67800
 2032.50000   34.00000   10.03970    4.72000    4.04800   83.28000    2.54300    9.58400    0.01200   17.51000
 2033.00000   33.07800   10.02520    4.77800    3.99900   83.01400    2.57000    8.08500    0.02200   16.83900
 2033.50000   32.22100    9.99880    4.80800    3.99900   82.08300    2.57200    7.84500    0.01800   15.99900
 2034.00000   31.83900   10.10200    4.80800    3.99900   81.41700    2.56400    8.32400    0.00000   14.68000
 2034.50000   32.58900   10.08500    4.77800    3.99900   81.88300    2.56600    8.16500   -0.00500   14.00500
 2035.00000   36.19200   10.06910    4.77800    3.99900   82.41500    2.55200    9.04400   -0.01000   13.94100
 2035.50000   39.53200   10.04070    4.73500    3.99900   82.81400    2.55000    9.16400   -0.01000   13.48100
