~Version ---------------------------------------------------
VERS. 2.0 : CWLS log ASCII Standard -VERSION 2.0
WRAP.  NO : One line per depth step
~Well ------------------------------------------------------
STRT.FT                  430.0 : START
STOP.FT                 3030.0 : STOP
STEP.FT                    0.5 : STEP
NULL.                  -999.25 : NULL VALUE
COMP.              RAJAMANDALA : Company
WELL.              RAJAMANDALA : Well Name
FLD .              RAJAMANDALA : Field
CTRY.              RAJAMANDALA : Country
STAT.              RAJAMANDALA : State
PROV.                          : Province
LOC .                          : Field Location
LATI. 001 10' 00.000" S    DMS : Latitude
LONG. 107 10' 00.000" E    DMS : Longitude
PD  .                      MSL : Permanent Datum
UWI .              RAJAMANDALA : Unique Well ID
EKB .FT                   99.0 : Elevation of KB
EDF .FT                   98.0 : Elevation of DF
EGL .FT                   81.0 : Elevation Ground lv
ELZ .FT                   99.0 : Elevation Log Zero
APD .FT                   18.0 : Above Perm. Datum
LMF .                       KB : Log measured from
MP  .                       KB : Drill measured from
OS  .                   IES-GR : Services
OS1 .                   BHC-GR : Other Services Ln 1
OS2 .                   FDC-GR : Other Services Ln 2
OS3 .                   SNP-GR : Other Services Ln 3
OS4 .                      HDT : Other Services Ln 4
SRVC.              RAJAMANDALA : Service company
RUNS.                        2 : Number of runs
DATE.                          : Date
~Curve Information -----------------------------------------
DEPT.FT    : 1  Depth
GR  .API   : 2  Gamma Ray
CALI.INCH  : 3  Caliper Log
SN  .OHMM  : 4  Short Normal
IND .OHMM  : 5  Induction Deep Resistivity
DT  .US/F  : 6  Delta-T
RHOB.G/CC  : 7  Bulk Density
PHID.%     : 8  Density Log Porosity for given zone matrix density
DRHO.G/CC  : 9  Density Log Correction
SNP .%     : 10  Sidewall Neutron Porosity
~Params ----------------------------------------------------
RUN .           1 : Run number
DATE.  2 AUG 2817 : Log date
DAY .           2 : Day
MONT.           8 : Month
YEAR.        2817 : Year
DD  .FT    2400.0 : Depth-Driller
DL  .FT    2406.0 : Depth-Logger
BLI .FT    2405.0 : Bottom log interval
TLI .FT     505.0 : Top log interval
CBD1.FT     505.0 : Casing-Driller
CBL1.FT     505.0 : Casing-Logger
CS  .IN    13.375 : Casing Diameter
CDF .FT     505.0 : Casing Depth From
CADT.FT    2400.0 : Casing Depth To
BS  .IN     9.625 : Bit Size
DFT .   GEL WATER : Hole Fluid type
TCS .     4 HOURS : Time circ. stopped
BHT .DEGC   65.56 : Bottom hole temp
MRT .DEGC   65.56 : Max recorded temp
LUN .        5110 : Logging unit No
LUL .         PWI : Logging unit Loc
ENGI. RAJAMANDALA : Recorded by
WITN. RAJAMANDALA : Witness
DPRE.         DNI : Data Prepared
DIG . RAJAMANDALA : Digitize
RUN .           2 : Run number
DATE.  2 AUG 2812 : Log date
DAY .           6 : Day
MONT.           8 : Month
YEAR.        2817 : Year
DD  .FT    3023.0 : Depth-Driller
DL  .FT    3023.0 : Depth-Logger
BLI .FT    3022.0 : Bottom log interval
TLI .FT    2405.0 : Top log interval
DFT .   GEL WATER : Hole Fluid type
MSS . CIRCULATION : Mud Sample Source
RMS .OHMM    4.28 : RM  @ Surface
RMT .DEGC   23.33 : Mud temp Surface
TCS .     6 HOURS : Time circ. stopped
BHT .DEGC   69.44 : Bottom hole temp
MRT .DEGC   69.44 : Max recorded temp
LUN .        5110 : Logging unit No
LUL .         PWI : Logging unit Loc
ENGI. RAJAMANDALA : Recorded by
WITN. RAJAMANDALA : Witness
DPRE.         DNI : Data Prepared
DIG . RAJAMANDALA : Digitize
~Other -----------------------------------------------------
BIT SIZE CHANGE : 9.6250 T 8.50 AT 2774
CALIPER CURVE RECORDED 7' TOO SHALLOW
SCALECHANGE AT 1582
~ASCII -----------------------------------------------------
# ...
 1817.00000   77.35800    9.52430    1.49600    1.29100  124.03200    2.33100   22.19500    0.03100   34.42700
 1817.50000   75.94500    9.54510    1.48700    1.29100  123.73300    2.35300   20.93600    0.05100   31.90900
 1818.00000   74.72400    9.57730    1.49600    1.30700  123.50100    2.39500   18.27800    0.06700   31.26900
 1818.50000   74.87600    9.58700    1.48700    1.29900  124.26500    2.39600   18.23800    0.05500   32.38600
 1819.00000   76.27000    9.65120    1.48000    1.29100  124.73100    2.37100   19.83700    0.04000   33.34800
 1819.50000   76.82600    9.65810    1.48700    1.29900  124.99700    2.34800   21.21600    0.02600   34.18700
 1820.00000   75.85400    9.64430    1.47800    1.29900  125.10300    2.34500   21.43600    0.02300   33.22800
 1820.50000   74.97400    9.63470    1.48100    1.26700  125.19600    2.34000   21.69600    0.01900   33.48800
 1821.00000   76.45400    9.63120    1.46900    1.28300  126.06100    2.33400   22.03500    0.01900   31.76900
 1821.50000   79.24200    9.64560    1.48700    1.27500  126.39400    2.33900   21.79500    0.01400   31.34900
 1822.00000   80.94800    9.61200    1.48500    1.26700  126.58000    2.35500   20.83600    0.03600   31.56900
 1822.50000   82.36300    9.53620    1.46000    1.26000  126.19400    2.34400   21.47200    0.03300   33.93400
 1823.00000   81.69900    9.49690    1.45100    1.26000  125.72900    2.34200   21.59600    0.03400   34.94700
 1823.50000   79.32800    9.56080    1.44200    1.25200  125.62900    2.34000   21.69600    0.02800   32.66800
 1824.00000   78.73400    9.59320    1.43300    1.22100  126.20900    2.34400   21.47600    0.02600   32.88800
 1824.50000   80.17600    9.62630    1.43300    1.22900  126.59300    2.35100   21.03600    0.04400   33.78700
 1825.00000   79.42600    9.65940    1.44200    1.22100  126.79300    2.35400   20.87600    0.04200   34.14700
 1825.50000   77.60700    9.69310    1.43300    1.23700  126.99300    2.36600   20.21700    0.04700   32.35700
 1826.00000   76.66700    9.69730    1.41600    1.22100  126.66000    2.37000   19.91700    0.06100   30.67000
 1826.50000   73.85400    9.71170    1.40700    1.24400  127.72500    2.36900   19.91700    0.05900   31.29200
 1827.00000   71.44400    9.73440    1.42400    1.28300  126.29400    2.34900   21.11600    0.04000   32.86800
 1827.50000   70.96700    9.75000    1.47800    1.30700  126.59300    2.33700   21.89500    0.02900   32.60800
 1828.00000   72.60600    9.81590    1.57100    1.33500  126.61900    2.33700   21.87500    0.02800   31.98900
 1828.50000   71.74000    9.85590    1.64000    1.33900  126.12800    2.34100   21.67600    0.03000   31.38900
 1829.00000   70.73600    9.82980    1.66100    1.33400  124.79700    2.33500   21.99500    0.03700   33.30800
 1829.50000   70.74900    9.78920    1.60100    1.32300  129.85400    2.32500   22.59500    0.03700   33.10800
 1830.00000   71.88200    9.79000    1.54300    1.33900  130.38600    2.31300   23.31400    0.02800   33.82700
 1830.50000   74.43000    9.78930    1.47800    1.30700  125.99500    2.31700   23.27400    0.02700   34.08700
 1831.00000   75.42700    9.80520    1.43300    1.30700  130.45200    2.33000   22.31500    0.06800   36.38600
 1831.50000   74.44400    9.70540    1.43300    1.29900  131.91600    2.33500   21.99500    0.10100   36.62600
 1832.00000   73.07500    9.61880    1.44400    1.29100  124.26500    2.28900   24.79300    0.07100   36.34600
 1832.50000   70.48900    9.64950    1.46900    1.29100  127.39200    2.26500   26.24500    0.04600   35.70600
 1833.00000   68.96100    9.64370    1.50500    1.29900  127.52500    2.25300   26.95200    0.02000   36.54600
 1833.50000   70.45000    9.55590    1.55200    1.31500  127.12600    2.27100   25.87300    0.01600   36.90500
 1834.00000   73.57100    9.53690    1.57100    1.32000  137.70500    2.28400   25.09300    0.02100   36.18600
 1834.50000   75.65600    9.51280    1.56200    1.33900  128.85600    2.29300   24.49900    0.02700   38.54400
 1835.00000   77.06600    9.51280    1.56200    1.34800  126.06100    2.30000   24.15400    0.03100   37.86500
 1835.50000   78.31000    9.54080    1.54300    1.37300  125.66200    2.29700   24.27400    0.03400   37.74500
 1836.00000   78.00200    9.53890    1.55200    1.36000  124.57100    2.27900   25.39300    0.02400   37.64500
 1836.50000   77.55700    9.54190    1.56200    1.38100  123.59900    2.27400   25.71300    0.02100   37.14500
 1837.00000   77.10900    9.61350    1.55200    1.39800  124.19800    2.28400   24.79300    0.03700   36.50600
 1837.50000   73.94200    9.61880    1.55200    1.40700  124.59700    2.28600   25.31300    0.03700   36.66600
 1838.00000   71.17300    9.66060    1.60100    1.42900  124.79700    2.27800   25.59300    0.02200   35.74600
 1838.50000   68.94400    9.65530    1.67100    1.46000  125.32900    2.28700   24.86500    0.01700   35.58600
 1839.00000   65.88900    9.56390    1.69200    1.46000  122.46800    2.30100   23.99400    0.02400   34.94700
 1839.50000   65.37000    9.55190    1.67100    1.43300  121.13800    2.30700   23.71400    0.03000   34.34700
 1840.00000   68.08400    9.58840    1.63300    1.40700  118.94200    2.29900   24.19400    0.03200   33.74800
 1840.50000   71.82500    9.65900    1.56200    1.34800  121.13800    2.30000   24.12600    0.01800   34.76200
 1841.00000   75.32900    9.69420    1.50500    1.33100  125.06300    2.30100   24.07400    0.02900   36.54600
 1841.50000   79.38800    9.71190    1.44200    1.28300  126.59300    2.29800   24.21400    0.03200   36.38600
 1842.00000   81.56200    9.74940    1.41600    1.25200  126.99300    2.29700   24.27400    0.03200   37.14500
 1842.50000   82.84600    9.86990    1.41600    1.22100  124.39800    2.32100   22.90100    0.04100   38.94400
 1843.00000   82.00600    9.92490    1.40700    1.22900  121.87000    2.32800   22.51500    0.04100   36.98500
 1843.50000   79.57500    9.81520    1.40700    1.22900  123.79900    2.32500   22.55500    0.03000   34.54700
 1844.00000   77.35200    9.65880    1.41600    1.21800  124.26300    2.32800   22.43500    0.04300   34.46700
 1844.50000   77.27300    9.58590    1.41600    1.21400  125.13000    2.32700   22.49900    0.04200   34.34700
 1845.00000   79.45200    9.55270    1.40700    1.22900  125.59500    2.32600   22.53500    0.03700   35.10700
 1845.50000   79.56000    9.56600    1.41600    1.21400  124.73100    2.32800   22.43500    0.03500   33.22800
 1846.00000   78.90800    9.60220    1.43300    1.22900  125.31300    2.32800   22.43500    0.01400   32.22900
 1846.50000   79.98900    9.67200    1.40700    1.23700  125.99500    2.33400   22.08200    0.01300   31.98900
 1847.00000   80.56700    9.72710    1.40700    1.22100  126.52700    2.33900   21.75500    0.02000   32.50800
 1847.50000   79.44300    9.77730    1.42400    1.24400  127.19200    2.34300   21.51600    0.02100   32.86800
 1848.00000   77.91300    9.77720    1.44200    1.25200  127.60300    2.33600   21.99500    0.01700   32.65300
 1848.50000   77.14900    9.79020    1.45100    1.22100  128.05700    2.33700   21.99500    0.02500   32.74800
 1849.00000   76.08200    9.79000    1.44200    1.24400  127.52500    2.33300   21.91500    0.03200   34.26700
 1849.50000   74.74200    9.79000    1.45100    1.26000  126.29400    2.33500   22.35500    0.02600   33.82700
 1850.00000   75.31400    9.79000    1.44200    1.26000  125.60700    2.34700   21.35600    0.05600   34.54700
 1850.50000   76.60800    9.78990    1.41600    1.24400  124.66400    2.35200   20.99600    0.05900   34.68700
 1851.00000   77.19300    9.79090    1.42400    1.26700  125.23000    2.33100   22.27500    0.03700   33.34800
 1851.50000   76.71600    9.94910    1.43300    1.27500  126.12800    2.33100   22.27500    0.03500   32.90800
 1852.00000   75.61100    9.93990    1.48700    1.27500  126.54900    2.32300   22.75500    0.03100   34.38700
 1852.50000   74.77000    9.78920    1.46900    1.27500  127.59100    2.33200   22.17900    0.03800   34.58700
 1853.00000   75.30500    9.67350    1.48700    1.28300  127.99100    2.33600   21.93500    0.03500   33.86700
