~Version ---------------------------------------------------
VERS. 2.0 : CWLS log ASCII Standard -VERSION 2.0
WRAP.  NO : One line per depth step
~Well ------------------------------------------------------
STRT.FT                  430.0 : START
STOP.FT                 3030.0 : STOP
STEP.FT                    0.5 : STEP
NULL.                  -999.25 : NULL VALUE
COMP.              RAJAMANDALA : Company
WELL.              RAJAMANDALA : Well Name
FLD .              RAJAMANDALA : Field
CTRY.              RAJAMANDALA : Country
STAT.              RAJAMANDALA : State
PROV.                          : Province
LOC .                          : Field Location
LATI. 001 10' 00.000" S    DMS : Latitude
LONG. 107 10' 00.000" E    DMS : Longitude
PD  .                      MSL : Permanent Datum
UWI .              RAJAMANDALA : Unique Well ID
EKB .FT                   99.0 : Elevation of KB
EDF .FT                   98.0 : Elevation of DF
EGL .FT                   81.0 : Elevation Ground lv
ELZ .FT                   99.0 : Elevation Log Zero
APD .FT                   18.0 : Above Perm. Datum
LMF .                       KB : Log measured from
MP  .                       KB : Drill measured from
OS  .                   IES-GR : Services
OS1 .                   BHC-GR : Other Services Ln 1
OS2 .                   FDC-GR : Other Services Ln 2
OS3 .                   SNP-GR : Other Services Ln 3
OS4 .                      HDT : Other Services Ln 4
SRVC.              RAJAMANDALA : Service company
RUNS.                        2 : Number of runs
DATE.                          : Date
~Curve Information -----------------------------------------
DEPT.FT    : 1  Depth
GR  .API   : 2  Gamma Ray
CALI.INCH  : 3  Caliper Log
SN  .OHMM  : 4  Short Normal
IND .OHMM  : 5  Induction Deep Resistivity
DT  .US/F  : 6  Delta-T
RHOB.G/CC  : 7  Bulk Density
PHID.%     : 8  Density Log Porosity for given zone matrix density
DRHO.G/CC  : 9  Density Log Correction
SNP .%     : 10  Sidewall Neutron Porosity
~Params ----------------------------------------------------
RUN .           1 : Run number
DATE.  2 AUG 2817 : Log date
DAY .           2 : Day
MONT.           8 : Month
YEAR.        2817 : Year
DD  .FT    2400.0 : Depth-Driller
DL  .FT    2406.0 : Depth-Logger
BLI .FT    2405.0 : Bottom log interval
TLI .FT     505.0 : Top log interval
CBD1.FT     505.0 : Casing-Driller
CBL1.FT     505.0 : Casing-Logger
CS  .IN    13.375 : Casing Diameter
CDF .FT     505.0 : Casing Depth From
CADT.FT    2400.0 : Casing Depth To
BS  .IN     9.625 : Bit Size
DFT .   GEL WATER : Hole Fluid type
TCS .     4 HOURS : Time circ. stopped
BHT .DEGC   65.56 : Bottom hole temp
MRT .DEGC   65.56 : Max recorded temp
LUN .        5110 : Logging unit No
LUL .         PWI : Logging unit Loc
ENGI. RAJAMANDALA : Recorded by
WITN. RAJAMANDALA : Witness
DPRE.         DNI : Data Prepared
DIG . RAJAMANDALA : Digitize
RUN .           2 : Run number
DATE.  2 AUG 2812 : Log date
DAY .           6 : Day
MONT.           8 : Month
YEAR.        2817 : Year
DD  .FT    3023.0 : Depth-Driller
DL  .FT    3023.0 : Depth-Logger
BLI .FT    3022.0 : Bottom log interval
TLI .FT    2405.0 : Top log interval
DFT .   GEL WATER : Hole Fluid type
MSS . CIRCULATION : Mud Sample Source
RMS .OHMM    4.28 : RM  @ Surface
RMT .DEGC   23.33 : Mud temp Surface
TCS .     6 HOURS : Time circ. stopped
BHT .DEGC   69.44 : Bottom hole temp
MRT .DEGC   69.44 : Max recorded temp
LUN .        5110 : Logging unit No
LUL .         PWI : Logging unit Loc
ENGI. RAJAMANDALA : Recorded by
WITN. RAJAMANDALA : Witness
DPRE.         DNI : Data Prepared
DIG . RAJAMANDALA : Digitize
~Other -----------------------------------------------------
BIT SIZE CHANGE : 9.6250 T 8.50 AT 2774
CALIPER CURVE RECORDED 7' TOO SHALLOW
SCALECHANGE AT 1582
~ASCII -----------------------------------------------------
# ...
  503.00000   24.04900   13.64730    0.20200 1981.63200   68.01100    -999.25    -999.25    -999.25    -999.25
  503.50000   23.47100   13.64730    0.20200 1981.65200   69.34100    -999.25    -999.25    -999.25    -999.25
  504.00000   23.24200   13.64730    0.20200 1981.65200   70.24000    -999.25    -999.25    -999.25    -999.25
  504.50000   26.29300   13.64730    0.20200  833.00200   72.13600    -999.25    -999.25    -999.25    -999.25
  505.00000   32.41400   13.64630    0.20200    9.39300   71.33700    -999.25    -999.25    -999.25    -999.25
  505.50000   39.17600   13.64700    0.20200    7.16800   97.88400    -999.25    -999.25    -999.25    -999.25
  506.00000   44.28700   13.65970    1.64000   24.64700   85.04300    -999.25    -999.25    -999.25    -999.25
  506.50000   45.82100   13.64660    1.96000    1.42400   97.28500    -999.25    -999.25    -999.25    -999.25
  507.00000   47.89200   13.64790    2.03400    1.00300  107.93100    -999.25    -999.25    -999.25    -999.25
  507.50000   52.46800   13.64790    2.05900    2.35700  115.11600    -999.25    -999.25    -999.25    -999.25
  508.00000   57.00700   13.64850    2.06600    7.34600  123.18200    -999.25    -999.25    -999.25    -999.25
  508.50000   60.39400   13.64690    2.08500   10.91900  132.94700    -999.25    -999.25    -999.25    -999.25
  509.00000   60.96000   13.64310    2.08500    4.07700  151.77600    -999.25    -999.25    -999.25    -999.25
  509.50000   62.20400   13.66020    2.02200    1.71300  180.51900    -999.25    -999.25    -999.25    -999.25
  510.00000   62.96300   13.66070    2.00900    1.57100  174.86400    -999.25    -999.25    -999.25    -999.25
  510.50000   63.25300   13.64640    1.98500    1.55200  174.59700    -999.25    -999.25    -999.25    -999.25
  511.00000   64.12500   13.65060    1.96000    1.56700  170.33900    -999.25    -999.25    -999.25    -999.25
  511.50000   64.88000   13.66090    1.99700    1.58100  168.47600    -999.25    -999.25    -999.25    -999.25
  512.00000   64.30600   13.67550    1.98500    1.64000  167.94400    -999.25    -999.25    -999.25    -999.25
  512.50000   61.09400   13.67370    2.04700    1.72300  160.35900    -999.25    -999.25    -999.25    -999.25
  513.00000   58.64700   13.67370    2.05900    1.79900  160.62500    -999.25    -999.25    -999.25    -999.25
  513.50000   59.31600   13.67360    2.12300    1.79900  168.14400    -999.25    -999.25    -999.25    -999.25
  514.00000   59.72400   13.66380    2.17600    1.76600  159.29500    -999.25    -999.25    -999.25    -999.25
  514.50000   59.09000   13.66040    2.27200    1.82100  159.02900    -999.25    -999.25    -999.25    -999.25
  515.00000   59.40100   13.66050    2.32800    1.81000  158.49600    -999.25    -999.25    -999.25    -999.25
  515.50000   59.12000   13.66130    2.35700    1.85500  156.63300    -999.25    -999.25    -999.25    -999.25
  516.00000   58.69100   13.64720    2.33600    1.95900  155.03700    -999.25    -999.25    -999.25    -999.25
  516.50000   58.71200   13.65830    2.30000    1.98500  151.97600    -999.25    -999.25    -999.25    -999.25
  517.00000   57.96400   13.66250    2.26500    1.96600  150.97800    -999.25    -999.25    -999.25    -999.25
  517.50000   57.20400   13.64790    2.24400    1.90700  150.51200    -999.25    -999.25    -999.25    -999.25
  518.00000   58.59000   13.65260    2.27200    1.87800  152.45600    -999.25    -999.25    -999.25    -999.25
  518.50000   61.65200   13.66060    2.11000    1.84400  158.23000    -999.25    -999.25    -999.25    -999.25
  519.00000   62.17600   13.66080    2.00900    1.83200  160.22600    -999.25    -999.25    -999.25    -999.25
  519.50000   60.42500   13.64760    1.97300    1.79900  161.95600    -999.25    -999.25    -999.25    -999.25
  520.00000   59.76900   13.65060    1.92500    1.78500  156.42700    -999.25    -999.25    -999.25    -999.25
  520.50000   59.02700   13.66040    1.88900    1.76400  155.03700    -999.25    -999.25    -999.25    -999.25
  521.00000   57.26300   13.66050    1.90100    1.74400  155.90200    -999.25    -999.25    -999.25    -999.25
  521.50000   58.30100   13.66050    1.86600    1.72400  156.36700    -999.25    -999.25    -999.25    -999.25
  522.00000   58.99500   13.66050    1.83900    1.70400  157.41400    -999.25    -999.25    -999.25    -999.25
  522.50000   58.29600   13.66050    1.83200    1.68300  161.42400    -999.25    -999.25    -999.25    -999.25
  523.00000   59.55700   13.66050    1.83200    1.67100  164.61700    -999.25    -999.25    -999.25    -999.25
  523.50000   59.75000   13.66050    1.84400    1.67100  165.15000    -999.25    -999.25    -999.25    -999.25
  524.00000   59.96200   13.66050    1.83200    1.67100  165.73900    -999.25    -999.25    -999.25    -999.25
  524.50000   59.97600   13.66050    1.83200    1.67800  166.34700    -999.25    -999.25    -999.25    -999.25
  525.00000   59.93400   13.66050    1.84400    1.68400  166.88000    -999.25    -999.25    -999.25    -999.25
  525.50000   61.64900   13.66050    1.83200    1.68900  167.01300    -999.25    -999.25    -999.25    -999.25
  526.00000   63.34600   13.66010    1.85500    1.69400  166.75000    -999.25    -999.25    -999.25    -999.25
  526.50000   62.81100   13.64700    1.83200    1.70000  165.94800    -999.25    -999.25    -999.25    -999.25
  527.00000   62.47200   13.64660    1.84400    1.70200  159.82700    -999.25    -999.25    -999.25    -999.25
  527.50000   62.72300   13.64580    1.85500    1.70200  159.16200    -999.25    -999.25    -999.25    -999.25
  528.00000   61.65500   13.64490    1.86600    1.75300  165.15000    -999.25    -999.25    -999.25    -999.25
  528.50000   60.70100   13.64410    1.86600    1.80200  165.68200    -999.25    -999.25    -999.25    -999.25
  529.00000   60.65600   13.64320    1.86600    1.83900  162.88800    -999.25    -999.25    -999.25    -999.25
  529.50000   61.10300   13.64230    1.88400    1.87800  161.55700    -999.25    -999.25    -999.25    -999.25
  530.00000   59.75600   13.64150    1.93700    1.91700  160.33700    -999.25    -999.25    -999.25    -999.25
  530.50000   55.88900   13.64060    2.02800    1.95700  154.50400    -999.25    -999.25    -999.25    -999.25
  531.00000   55.44900   13.63980    2.11000    1.99600  153.44000    -999.25    -999.25    -999.25    -999.25
  531.50000   54.08200   13.63890    2.26500    2.03500  153.30700    -999.25    -999.25    -999.25    -999.25
  532.00000   51.16400   13.63810    2.35700    2.07500  160.35900    -999.25    -999.25    -999.25    -999.25
  532.50000   49.92700   13.63720    2.35700    2.11400  147.05300    -999.25    -999.25    -999.25    -999.25
  533.00000   51.26900   13.63630    2.34300    2.17600  158.49600    -999.25    -999.25    -999.25    -999.25
  533.50000   54.65900   13.63550    2.37200    2.17600  158.76200    -999.25    -999.25    -999.25    -999.25
  534.00000   55.84300   13.63460    2.35700    2.17600  152.77400    -999.25    -999.25    -999.25    -999.25
  534.50000   51.92900   13.63410    2.38600    2.17600  151.44400    -999.25    -999.25    -999.25    -999.25
  535.00000   47.82000   13.63410    2.43100    2.17600  145.72200    -999.25    -999.25    -999.25    -999.25
  535.50000   46.61800   13.63410    2.47600    2.17600  142.12900    -999.25    -999.25    -999.25    -999.25
  536.00000   46.69900   13.63410    2.48200    2.17600  139.26800    -999.25    -999.25    -999.25    -999.25
  536.50000   49.73500   13.63410    2.49100    2.17600  137.07300    -999.25    -999.25    -999.25    -999.25
  537.00000   50.13800   13.63410    2.49100    2.17600  135.21000    -999.25    -999.25    -999.25    -999.25
  537.50000   48.90500   13.63410    2.49100    2.17600  132.28200    -999.25    -999.25    -999.25    -999.25
  538.00000   49.07300   13.63410    2.49200    2.17600  131.08400    -999.25    -999.25    -999.25    -999.25
  538.50000   48.01200   13.63410    2.47600    2.17600  132.28200    -999.25    -999.25    -999.25    -999.25
  539.00000   47.46600   13.63410    2.46100    2.17600  131.88300    -999.25    -999.25    -999.25    -999.25
