~Version ---------------------------------------------------
VERS. 2.0 : CWLS log ASCII Standard -VERSION 2.0
WRAP.  NO : One line per depth step
~Well ------------------------------------------------------
STRT.FT                  430.0 : START
STOP.FT                 3030.0 : STOP
STEP.FT                    0.5 : STEP
NULL.                  -999.25 : NULL VALUE
COMP.              RAJAMANDALA : Company
WELL.              RAJAMANDALA : Well Name
FLD .              RAJAMANDALA : Field
CTRY.              RAJAMANDALA : Country
STAT.              RAJAMANDALA : State
PROV.                          : Province
LOC .                          : Field Location
LATI. 001 10' 00.000" S    DMS : Latitude
LONG. 107 10' 00.000" E    DMS : Longitude
PD  .                      MSL : Permanent Datum
UWI .              RAJAMANDALA : Unique Well ID
EKB .FT                   99.0 : Elevation of KB
EDF .FT                   98.0 : Elevation of DF
EGL .FT                   81.0 : Elevation Ground lv
ELZ .FT                   99.0 : Elevation Log Zero
APD .FT                   18.0 : Above Perm. Datum
LMF .                       KB : Log measured from
MP  .                       KB : Drill measured from
OS  .                   IES-GR : Services
OS1 .                   BHC-GR : Other Services Ln 1
OS2 .                   FDC-GR : Other Services Ln 2
OS3 .                   SNP-GR : Other Services Ln 3
OS4 .                      HDT : Other Services Ln 4
SRVC.              RAJAMANDALA : Service company
RUNS.                        2 : Number of runs
DATE.                          : Date
~Curve Information -----------------------------------------
DEPT.FT    : 1  Depth
GR  .API   : 2  Gamma Ray
CALI.INCH  : 3  Caliper Log
SN  .OHMM  : 4  Short Normal
IND .OHMM  : 5  Induction Deep Resistivity
DT  .US/F  : 6  Delta-T
RHOB.G/CC  : 7  Bulk Density
PHID.%     : 8  Density Log Porosity for given zone matrix density
DRHO.G/CC  : 9  Density Log Correction
SNP .%     : 10  Sidewall Neutron Porosity
~Params ----------------------------------------------------
RUN .           1 : Run number
DATE.  2 AUG 2817 : Log date
DAY .           2 : Day
MONT.           8 : Month
YEAR.        2817 : Year
DD  .FT    2400.0 : Depth-Driller
DL  .FT    2406.0 : Depth-Logger
BLI .FT    2405.0 : Bottom log interval
TLI .FT     505.0 : Top log interval
CBD1.FT     505.0 : Casing-Driller
CBL1.FT     505.0 : Casing-Logger
CS  .IN    13.375 : Casing Diameter
CDF .FT     505.0 : Casing Depth From
CADT.FT    2400.0 : Casing Depth To
BS  .IN     9.625 : Bit Size
DFT .   GEL WATER : Hole Fluid type
TCS .     4 HOURS : Time circ. stopped
BHT .DEGC   65.56 : Bottom hole temp
MRT .DEGC   65.56 : Max recorded temp
LUN .        5110 : Logging unit No
LUL .         PWI : Logging unit Loc
ENGI. RAJAMANDALA : Recorded by
WITN. RAJAMANDALA : Witness
DPRE.         DNI : Data Prepared
DIG . RAJAMANDALA : Digitize
RUN .           2 : Run number
DATE.  2 AUG 2812 : Log date
DAY .           6 : Day
MONT.           8 : Month
YEAR.        2817 : Year
DD  .FT    3023.0 : Depth-Driller
DL  .FT    3023.0 : Depth-Logger
BLI .FT    3022.0 : Bottom log interval
TLI .FT    2405.0 : Top log interval
DFT .   GEL WATER : Hole Fluid type
MSS . CIRCULATION : Mud Sample Source
RMS .OHMM    4.28 : RM  @ Surface
RMT .DEGC   23.33 : Mud temp Surface
TCS .     6 HOURS : Time circ. stopped
BHT .DEGC   69.44 : Bottom hole temp
MRT .DEGC   69.44 : Max recorded temp
LUN .        5110 : Logging unit No
LUL .         PWI : Logging unit Loc
ENGI. RAJAMANDALA : Recorded by
WITN. RAJAMANDALA : Witness
DPRE.         DNI : Data Prepared
DIG . RAJAMANDALA : Digitize
~Other -----------------------------------------------------
BIT SIZE CHANGE : 9.6250 T 8.50 AT 2774
CALIPER CURVE RECORDED 7' TOO SHALLOW
SCALECHANGE AT 1582
~ASCII -----------------------------------------------------
# ...
 1671.00000   66.73800   10.69850    1.72300    1.62200  119.80700    -999.25    -999.25    -999.25    -999.25
 1671.50000   69.67800   10.76790    1.70200    1.61300  121.40400    -999.25    -999.25    -999.25    -999.25
 1672.00000   70.50600   10.65540    1.71500    1.58700  121.87000    -999.25    -999.25    -999.25    -999.25
 1672.50000   70.49800   10.47650    1.73200    1.56000  123.13400    -999.25    -999.25    -999.25    -999.25
 1673.00000   70.76200   10.44370    1.74400    1.53400  122.26900    -999.25    -999.25    -999.25    -999.25
 1673.50000   70.89200   10.40050    1.68100    1.50700  125.87800    -999.25    -999.25    -999.25    -999.25
 1674.00000   71.64100   10.36070    1.66100    1.50500  128.09000    -999.25    -999.25    -999.25    -999.25
 1674.50000   72.25400   10.38270    1.64000    1.51500  127.12600    -999.25    -999.25    -999.25    -999.25
 1675.00000   70.92000   10.39210    1.64000    1.52200  129.78700    -999.25    -999.25    -999.25    -999.25
 1675.50000   68.72300   10.35430    1.67100    1.53000  130.71900    -999.25    -999.25    -999.25    -999.25
 1676.00000   64.67600   10.36210    1.71300    1.53700  124.53100    -999.25    -999.25    -999.25    -999.25
 1676.50000   66.23800   10.37350    1.75500    1.54400  121.80300    -999.25    -999.25    -999.25    -999.25
 1677.00000   68.82800   10.42200    1.81000    1.55200  122.26900    -999.25    -999.25    -999.25    -999.25
 1677.50000   71.31000   10.51150    1.83200    1.55200  113.81900    -999.25    -999.25    -999.25    -999.25
 1678.00000   73.30100   10.53510    1.75500    1.55200  119.47400    -999.25    -999.25    -999.25    -999.25
 1678.50000   74.87400   10.59020    1.68100    1.54000  119.47400    -999.25    -999.25    -999.25    -999.25
 1679.00000   74.06100   10.64750    1.65100    1.51700  118.21000    -999.25    -999.25    -999.25    -999.25
 1679.50000   72.42600   10.59610    1.65100    1.49500  122.76800    -999.25    -999.25    -999.25    -999.25
 1680.00000   71.77000   10.56370    1.64000    1.46900  127.29200    -999.25    -999.25    -999.25    -999.25
 1680.50000   72.83000   10.56680    1.63000    1.45100  129.45400    -999.25    -999.25    -999.25    -999.25
 1681.00000   73.22100   10.61620    1.63000    1.45100  123.73300    -999.25    -999.25    -999.25    -999.25
 1681.50000   71.47000   10.64940    1.64000    1.46000  125.26300    -999.25    -999.25    -999.25    -999.25
 1682.00000   69.96200   10.59500    1.63000    1.47800  125.72900    -999.25    -999.25    -999.25    -999.25
 1682.50000   68.74000   10.62020    1.65100    1.49200  125.52900    -999.25    -999.25    -999.25    -999.25
 1683.00000   70.58600   10.63480    1.66600    1.50700  125.26300    -999.25    -999.25    -999.25    -999.25
 1683.50000   72.23400   10.64780    1.69200    1.52200  125.56200    -999.25    -999.25    -999.25    -999.25
 1684.00000   70.94600   10.65870    1.68100    1.53700  126.93300    -999.25    -999.25    -999.25    -999.25
 1684.50000   67.78200   10.56840    1.72100    1.54600  127.12600    -999.25    -999.25    -999.25    -999.25
 1685.00000   65.24100   10.60220    1.73400    1.55200  123.76600    -999.25    -999.25    -999.25    -999.25
 1685.50000   66.41600   10.53400    1.71300    1.55700  122.93400    -999.25    -999.25    -999.25    -999.25
 1686.00000   69.00700   10.47870    1.72300    1.56300  122.14300    -999.25    -999.25    -999.25    -999.25
 1686.50000   70.34500   10.46020    1.73400    1.56800  123.13400    -999.25    -999.25    -999.25    -999.25
 1687.00000   70.10100   10.32830    1.70200    1.57100  123.73300    -999.25    -999.25    -999.25    -999.25
 1687.50000   69.16700   10.26200    1.69200    1.56000  123.99900    -999.25    -999.25    -999.25    -999.25
 1688.00000   66.39100   10.28050    1.71300    1.54900  121.53700    -999.25    -999.25    -999.25    -999.25
 1688.50000   64.74300   10.27880    1.71600    1.53800  121.20400    -999.25    -999.25    -999.25    -999.25
 1689.00000   66.55200   10.30560    1.71900    1.52700  122.46800    -999.25    -999.25    -999.25    -999.25
 1689.50000   67.47400   10.32530    1.72200    1.51600  122.00300    -999.25    -999.25    -999.25    -999.25
 1690.00000   67.74200   10.39070    1.72300    1.50400  122.49900    -999.25    -999.25    -999.25    -999.25
 1690.50000   67.83600   10.47820    1.68300    1.49300  122.33500    -999.25    -999.25    -999.25    -999.25
 1691.00000   68.30700   10.39060    1.66100    1.48200  121.13800    -999.25    -999.25    -999.25    -999.25
 1691.50000   70.09700   10.33280    1.64000    1.47100  120.40600    -999.25    -999.25    -999.25    -999.25
 1692.00000   73.42400   10.36660    1.64000    1.44800  122.55700    -999.25    -999.25    -999.25    -999.25
 1692.50000   75.15400   10.62330    1.59100    1.42500  124.09800    -999.25    -999.25    -999.25    -999.25
 1693.00000   76.36400   10.87240    1.56700    1.40100  124.39800    -999.25    -999.25    -999.25    -999.25
 1693.50000   75.15100   10.83780    1.55200    1.37700  126.19400    -999.25    -999.25    -999.25    -999.25
 1694.00000   74.54200   10.64480    1.54300    1.35400  126.29500    -999.25    -999.25    -999.25    -999.25
 1694.50000   75.29600   10.67940    1.52400    1.33100  126.46000    -999.25    -999.25    -999.25    -999.25
 1695.00000   75.76300   10.97270    1.52400    1.33100  127.25900    -999.25    -999.25    -999.25    -999.25
 1695.50000   75.30900   10.99550    1.53300    1.33100  127.25900    -999.25    -999.25    -999.25    -999.25
 1696.00000   74.04600   10.99150    1.50500    1.36200  126.46000    -999.25    -999.25    -999.25    -999.25
 1696.50000   74.05800   11.03660    1.51500    1.40300  128.12400    -999.25    -999.25    -999.25    -999.25
 1697.00000   74.28200   11.08930    1.57100    1.39000  129.22200    -999.25    -999.25    -999.25    -999.25
 1697.50000   73.29000   11.07910    1.66100    1.47800  128.98900    -999.25    -999.25    -999.25    -999.25
 1698.00000   70.48300   11.11030    1.72300    1.49600  129.88800    -999.25    -999.25    -999.25    -999.25
 1698.50000   66.81700   11.08400    1.77700    1.50300  132.51500    -999.25    -999.25    -999.25    -999.25
 1699.00000   63.43900   11.01580    1.88900    1.54500  130.05300    -999.25    -999.25    -999.25    -999.25
 1699.50000   63.67700   10.99330    1.85500    1.57700  118.53700    -999.25    -999.25    -999.25    -999.25
 1700.00000   64.53900   10.95860    1.79100    1.60900  111.29100    -999.25    -999.25    -999.25    -999.25
 1700.50000   64.66500   10.83250    1.74400    1.61100  106.43400    -999.25    -999.25    -999.25    -999.25
 1701.00000   63.64800   10.67360    1.74400    1.59000  110.47000    -999.25    -999.25    -999.25    -999.25
 1701.50000   63.71000   10.71420    1.77700    1.57100  119.30200    -999.25    -999.25    -999.25    -999.25
 1702.00000   64.41000   10.68010    1.76600    1.55300  124.33100    -999.25    -999.25    -999.25    -999.25
 1702.50000   63.84300   10.61310    1.75500    1.57400  123.00100    -999.25    -999.25    -999.25    -999.25
 1703.00000   64.06200   10.59980    1.78800    1.57900  118.47600    -999.25    -999.25    -999.25    -999.25
 1703.50000   65.69800   10.46020    1.77700    1.58100  118.54300    -999.25    -999.25    -999.25    -999.25
 1704.00000   66.46900   10.43110    1.76600    1.56200  121.93600    -999.25    -999.25    -999.25    -999.25
 1704.50000   64.80900   10.36710    1.77700    1.57700  121.37100    -999.25    -999.25    -999.25    -999.25
 1705.00000   63.74000   10.31890    1.77700    1.58100  122.40200    -999.25    -999.25    -999.25    -999.25
 1705.50000   63.00800   10.23410    1.73400    1.55800  122.40200    -999.25    -999.25    -999.25    -999.25
 1706.00000   64.90400   10.17060    1.74400    1.54900  121.96300    -999.25    -999.25    -999.25    -999.25
 1706.50000   67.16900   10.17350    1.77700    1.54300  120.00700    -999.25    -999.25    -999.25    -999.25
 1707.00000   66.59200   10.20010    1.77700    1.56000  119.80700    -999.25    -999.25    -999.25    -999.25
