~Version ---------------------------------------------------
VERS. 2.0 : CWLS log ASCII Standard -VERSION 2.0
WRAP.  NO : One line per depth step
~Well ------------------------------------------------------
STRT.FT                  430.0 : START
STOP.FT                 3030.0 : STOP
STEP.FT                    0.5 : STEP
NULL.                  -999.25 : NULL VALUE
COMP.              RAJAMANDALA : Company
WELL.              RAJAMANDALA : Well Name
FLD .              RAJAMANDALA : Field
CTRY.              RAJAMANDALA : Country
STAT.              RAJAMANDALA : State
PROV.                          : Province
LOC .                          : Field Location
LATI. 001 10' 00.000" S    DMS : Latitude
LONG. 107 10' 00.000" E    DMS : Longitude
PD  .                      MSL : Permanent Datum
UWI .              RAJAMANDALA : Unique Well ID
EKB .FT                   99.0 : Elevation of KB
EDF .FT                   98.0 : Elevation of DF
EGL .FT                   81.0 : Elevation Ground lv
ELZ .FT                   99.0 : Elevation Log Zero
APD .FT                   18.0 : Above Perm. Datum
LMF .                       KB : Log measured from
MP  .                       KB : Drill measured from
OS  .                   IES-GR : Services
OS1 .                   BHC-GR : Other Services Ln 1
OS2 .                   FDC-GR : Other Services Ln 2
OS3 .                   SNP-GR : Other Services Ln 3
OS4 .                      HDT : Other Services Ln 4
SRVC.              RAJAMANDALA : Service company
RUNS.                        2 : Number of runs
DATE.                          : Date
~Curve Information -----------------------------------------
DEPT.FT    : 1  Depth
GR  .API   : 2  Gamma Ray
CALI.INCH  : 3  Caliper Log
SN  .OHMM  : 4  Short Normal
IND .OHMM  : 5  Induction Deep Resistivity
DT  .US/F  : 6  Delta-T
RHOB.G/CC  : 7  Bulk Density
PHID.%     : 8  Density Log Porosity for given zone matrix density
DRHO.G/CC  : 9  Density Log Correction
SNP .%     : 10  Sidewall Neutron Porosity
~Params ----------------------------------------------------
RUN .           1 : Run number
DATE.  2 AUG 2817 : Log date
DAY .           2 : Day
MONT.           8 : Month
YEAR.        2817 : Year
DD  .FT    2400.0 : Depth-Driller
DL  .FT    2406.0 : Depth-Logger
BLI .FT    2405.0 : Bottom log interval
TLI .FT     505.0 : Top log interval
CBD1.FT     505.0 : Casing-Driller
CBL1.FT     505.0 : Casing-Logger
CS  .IN    13.375 : Casing Diameter
CDF .FT     505.0 : Casing Depth From
CADT.FT    2400.0 : Casing Depth To
BS  .IN     9.625 : Bit Size
DFT .   GEL WATER : Hole Fluid type
TCS .     4 HOURS : Time circ. stopped
BHT .DEGC   65.56 : Bottom hole temp
MRT .DEGC   65.56 : Max recorded temp
LUN .        5110 : Logging unit No
LUL .         PWI : Logging unit Loc
ENGI. RAJAMANDALA : Recorded by
WITN. RAJAMANDALA : Witness
DPRE.         DNI : Data Prepared
DIG . RAJAMANDALA : Digitize
RUN .           2 : Run number
DATE.  2 AUG 2812 : Log date
DAY .           6 : Day
MONT.           8 : Month
YEAR.        2817 : Year
DD  .FT    3023.0 : Depth-Driller
DL  .FT    3023.0 : Depth-Logger
BLI .FT    3022.0 : Bottom log interval
TLI .FT    2405.0 : Top log interval
DFT .   GEL WATER : Hole Fluid type
MSS . CIRCULATION : Mud Sample Source
RMS .OHMM    4.28 : RM  @ Surface
RMT .DEGC   23.33 : Mud temp Surface
TCS .     6 HOURS : Time circ. stopped
BHT .DEGC   69.44 : Bottom hole temp
MRT .DEGC   69.44 : Max recorded temp
LUN .        5110 : Logging unit No
LUL .         PWI : Logging unit Loc
ENGI. RAJAMANDALA : Recorded by
WITN. RAJAMANDALA : Witness
DPRE.         DNI : Data Prepared
DIG . RAJAMANDALA : Digitize
~Other -----------------------------------------------------
BIT SIZE CHANGE : 9.6250 T 8.50 AT 2774
CALIPER CURVE RECORDED 7' TOO SHALLOW
SCALECHANGE AT 1582
~ASCII -----------------------------------------------------
# ...
  685.50000   56.69200   12.22140    2.32800    2.32300  139.73400    -999.25    -999.25    -999.25    -999.25
  686.00000   56.76200   12.22850    2.31400    2.31400  141.35300    -999.25    -999.25    -999.25    -999.25
  686.50000   57.18400   12.30570    2.30000    2.31500  142.92700    -999.25    -999.25    -999.25    -999.25
  687.00000   58.05700   12.30670    2.34300    2.31800  144.12500    -999.25    -999.25    -999.25    -999.25
  687.50000   59.52200   12.24920    2.34300    2.32000  144.79000    -999.25    -999.25    -999.25    -999.25
  688.00000   62.23800   12.55970    2.32800    2.32200  145.86400    -999.25    -999.25    -999.25    -999.25
  688.50000   64.80300   13.19580    2.32800    2.32400  146.91900    -999.25    -999.25    -999.25    -999.25
  689.00000   66.32200   13.42210    2.34300    2.32600  146.18800    -999.25    -999.25    -999.25    -999.25
  689.50000   65.71500   13.36590    2.37200    2.32800  145.19000    -999.25    -999.25    -999.25    -999.25
  690.00000   63.04500   13.30660    2.34300    2.33100  144.75400    -999.25    -999.25    -999.25    -999.25
  690.50000   60.14000   13.29400    2.35700    2.33300  144.65700    -999.25    -999.25    -999.25    -999.25
  691.00000   60.00200   13.08360    2.32800    2.33500  145.05700    -999.25    -999.25    -999.25    -999.25
  691.50000   59.24700   12.67610    2.34300    2.33700  143.19400    -999.25    -999.25    -999.25    -999.25
  692.00000   57.23000   11.63270    2.34800    2.33900  142.66100    -999.25    -999.25    -999.25    -999.25
  692.50000   56.35500   11.15450    2.36100    2.34200  143.99200    -999.25    -999.25    -999.25    -999.25
  693.00000   57.23000   11.10320    2.37400    2.34300  143.85900    -999.25    -999.25    -999.25    -999.25
  693.50000   56.96900   11.06140    2.38700    2.34300  142.66100    -999.25    -999.25    -999.25    -999.25
  694.00000   56.11000   11.01690    2.40100    2.31100  141.85600    -999.25    -999.25    -999.25    -999.25
  694.50000   56.52300   11.01110    2.40100    2.25900  139.46800    -999.25    -999.25    -999.25    -999.25
  695.00000   57.81700   11.18490    2.31400    2.19900  137.20600    -999.25    -999.25    -999.25    -999.25
  695.50000   59.62300   11.31660    2.21400    2.13500  135.47600    -999.25    -999.25    -999.25    -999.25
  696.00000   61.75500   11.38960    2.11000    2.07000  135.21000    -999.25    -999.25    -999.25    -999.25
  696.50000   62.81500   11.37600    2.04900    2.00600  138.93500    -999.25    -999.25    -999.25    -999.25
  697.00000   63.34900   11.03240    1.98300    1.94200  143.85900    -999.25    -999.25    -999.25    -999.25
  697.50000   64.33200   10.51480    1.92500    1.88900  147.85100    -999.25    -999.25    -999.25    -999.25
  698.00000   65.56100   10.65920    1.90700    1.88900  150.69500    -999.25    -999.25    -999.25    -999.25
  698.50000   67.97400   10.83200    1.88900    1.89400  152.24200    -999.25    -999.25    -999.25    -999.25
  699.00000   69.69800   10.70850    1.87200    1.89800  151.17800    -999.25    -999.25    -999.25    -999.25
  699.50000   68.77500   10.59010    1.85500    1.90100  149.84700    -999.25    -999.25    -999.25    -999.25
  700.00000   67.28600   10.51460    1.85500    1.90400  149.71400    -999.25    -999.25    -999.25    -999.25
  700.50000   64.43000   10.43820    1.83200    1.90800  149.31500    -999.25    -999.25    -999.25    -999.25
  701.00000   62.00800   10.44060    1.83200    1.91100  148.64900    -999.25    -999.25    -999.25    -999.25
  701.50000   62.46200   10.43610    1.83200    1.91400  148.78200    -999.25    -999.25    -999.25    -999.25
  702.00000   63.87900   10.45590    1.85500    1.91700  149.27300    -999.25    -999.25    -999.25    -999.25
  702.50000   65.65100   10.44980    1.86900    1.92100  150.64500    -999.25    -999.25    -999.25    -999.25
  703.00000   65.60200   10.50570    1.88200    1.92400  153.17400    -999.25    -999.25    -999.25    -999.25
  703.50000   65.70100   10.44620    1.89600    1.93700  153.57300    -999.25    -999.25    -999.25    -999.25
  704.00000   66.27200   10.37540    1.90900    1.96000  150.32200    -999.25    -999.25    -999.25    -999.25
  704.50000   67.04200   10.38470    1.92500    1.96000  146.72000    -999.25    -999.25    -999.25    -999.25
  705.00000   67.17500   10.37130    1.94800    1.93400  143.06100    -999.25    -999.25    -999.25    -999.25
  705.50000   67.18800   10.33810    1.92500    1.91400  140.53200    -999.25    -999.25    -999.25    -999.25
  706.00000   66.97200   10.23630    1.90100    1.89300  142.07200    -999.25    -999.25    -999.25    -999.25
  706.50000   68.10800   10.15890    1.85500    1.86600  145.85500    -999.25    -999.25    -999.25    -999.25
  707.00000   69.02000   10.15900    1.85500    1.84500  148.51600    -999.25    -999.25    -999.25    -999.25
  707.50000   69.18900   10.06390    1.85500    1.82300  150.77800    -999.25    -999.25    -999.25    -999.25
  708.00000   67.01900    9.84130    1.83200    1.80100  152.10900    -999.25    -999.25    -999.25    -999.25
  708.50000   63.93300    9.78910    1.78800    1.77900  152.64100    -999.25    -999.25    -999.25    -999.25
  709.00000   63.07300    9.80340    1.79900    1.75700  152.50800    -999.25    -999.25    -999.25    -999.25
  709.50000   63.58000    9.81580    1.73900    1.73500  152.90800    -999.25    -999.25    -999.25    -999.25
  710.00000   64.57400    9.82200    1.71300    1.71200  153.87200    -999.25    -999.25    -999.25    -999.25
  710.50000   65.58000    9.90620    1.70200    1.69000  154.63700    -999.25    -999.25    -999.25    -999.25
  711.00000   65.72400   10.02110    1.71300    1.66800  154.63700    -999.25    -999.25    -999.25    -999.25
  711.50000   65.33000   10.13150    1.72500    1.65100  155.30300    -999.25    -999.25    -999.25    -999.25
  712.00000   64.89500   10.09100    1.73400    1.64000  155.73300    -999.25    -999.25    -999.25    -999.25
  712.50000   65.78500   10.08960    1.73400    1.64000  156.63300    -999.25    -999.25    -999.25    -999.25
  713.00000   66.11800   10.09920    1.70200    1.64600  156.90000    -999.25    -999.25    -999.25    -999.25
  713.50000   64.88800   10.14620    1.69200    1.65500  156.63300    -999.25    -999.25    -999.25    -999.25
  714.00000   62.90200   10.12620    1.68100    1.66500  156.14500    -999.25    -999.25    -999.25    -999.25
  714.50000   62.93100   10.03180    1.66100    1.67400  155.17000    -999.25    -999.25    -999.25    -999.25
  715.00000   63.32400   10.13220    1.70200    1.68100  154.10500    -999.25    -999.25    -999.25    -999.25
  715.50000   63.28700   10.26480    1.74400    1.70200  153.57300    -999.25    -999.25    -999.25    -999.25
  716.00000   62.41100   10.25840    1.77700    1.72800  153.63900    -999.25    -999.25    -999.25    -999.25
  716.50000   62.32900   10.22110    1.78800    1.76600  154.37100    -999.25    -999.25    -999.25    -999.25
  717.00000   63.40400   10.10180    1.79900    1.75300  153.04100    -999.25    -999.25    -999.25    -999.25
  717.50000   64.32700    9.93470    1.78800    1.74100  150.51200    -999.25    -999.25    -999.25    -999.25
  718.00000   65.67500   10.03260    1.75500    1.72800  149.18200    -999.25    -999.25    -999.25    -999.25
  718.50000   67.48700   10.16080    1.75500    1.71600  147.98400    -999.25    -999.25    -999.25    -999.25
  719.00000   67.04500   10.20350    1.73400    1.70400  149.44800    -999.25    -999.25    -999.25    -999.25
  719.50000   63.67900   10.19630    1.72800    1.69200  150.51200    -999.25    -999.25    -999.25    -999.25
  720.00000   62.63300   10.17160    1.72100    1.68100  150.41300    -999.25    -999.25    -999.25    -999.25
  720.50000   62.39800   10.18180    1.71400    1.66400  150.24600    -999.25    -999.25    -999.25    -999.25
  721.00000   62.40200   10.31500    1.70700    1.64400  149.18200    -999.25    -999.25    -999.25    -999.25
  721.50000   63.16600   10.44330    1.70000    1.62400  148.51600    -999.25    -999.25    -999.25    -999.25
