~Version ---------------------------------------------------
VERS. 2.0 : CWLS log ASCII Standard -VERSION 2.0
WRAP.  NO : One line per depth step
~Well ------------------------------------------------------
STRT.FT                  430.0 : START
STOP.FT                 3030.0 : STOP
STEP.FT                    0.5 : STEP
NULL.                  -999.25 : NULL VALUE
COMP.              RAJAMANDALA : Company
WELL.              RAJAMANDALA : Well Name
FLD .              RAJAMANDALA : Field
CTRY.              RAJAMANDALA : Country
STAT.              RAJAMANDALA : State
PROV.                          : Province
LOC .                          : Field Location
LATI. 001 10' 00.000" S    DMS : Latitude
LONG. 107 10' 00.000" E    DMS : Longitude
PD  .                      MSL : Permanent Datum
UWI .              RAJAMANDALA : Unique Well ID
EKB .FT                   99.0 : Elevation of KB
EDF .FT                   98.0 : Elevation of DF
EGL .FT                   81.0 : Elevation Ground lv
ELZ .FT                   99.0 : Elevation Log Zero
APD .FT                   18.0 : Above Perm. Datum
LMF .                       KB : Log measured from
MP  .                       KB : Drill measured from
OS  .                   IES-GR : Services
OS1 .                   BHC-GR : Other Services Ln 1
OS2 .                   FDC-GR : Other Services Ln 2
OS3 .                   SNP-GR : Other Services Ln 3
OS4 .                      HDT : Other Services Ln 4
SRVC.              RAJAMANDALA : Service company
RUNS.                        2 : Number of runs
DATE.                          : Date
~Curve Information -----------------------------------------
DEPT.FT    : 1  Depth
GR  .API   : 2  Gamma Ray
CALI.INCH  : 3  Caliper Log
SN  .OHMM  : 4  Short Normal
IND .OHMM  : 5  Induction Deep Resistivity
DT  .US/F  : 6  Delta-T
RHOB.G/CC  : 7  Bulk Density
PHID.%     : 8  Density Log Porosity for given zone matrix density
DRHO.G/CC  : 9  Density Log Correction
SNP .%     : 10  Sidewall Neutron Porosity
~Params ----------------------------------------------------
RUN .           1 : Run number
DATE.  2 AUG 2817 : Log date
DAY .           2 : Day
MONT.           8 : Month
YEAR.        2817 : Year
DD  .FT    2400.0 : Depth-Driller
DL  .FT    2406.0 : Depth-Logger
BLI .FT    2405.0 : Bottom log interval
TLI .FT     505.0 : Top log interval
CBD1.FT     505.0 : Casing-Driller
CBL1.FT     505.0 : Casing-Logger
CS  .IN    13.375 : Casing Diameter
CDF .FT     505.0 : Casing Depth From
CADT.FT    2400.0 : Casing Depth To
BS  .IN     9.625 : Bit Size
DFT .   GEL WATER : Hole Fluid type
TCS .     4 HOURS : Time circ. stopped
BHT .DEGC   65.56 : Bottom hole temp
MRT .DEGC   65.56 : Max recorded temp
LUN .        5110 : Logging unit No
LUL .         PWI : Logging unit Loc
ENGI. RAJAMANDALA : Recorded by
WITN. RAJAMANDALA : Witness
DPRE.         DNI : Data Prepared
DIG . RAJAMANDALA : Digitize
RUN .           2 : Run number
DATE.  2 AUG 2812 : Log date
DAY .           6 : Day
MONT.           8 : Month
YEAR.        2817 : Year
DD  .FT    3023.0 : Depth-Driller
DL  .FT    3023.0 : Depth-Logger
BLI .FT    3022.0 : Bottom log interval
TLI .FT    2405.0 : Top log interval
DFT .   GEL WATER : Hole Fluid type
MSS . CIRCULATION : Mud Sample Source
RMS .OHMM    4.28 : RM  @ Surface
RMT .DEGC   23.33 : Mud temp Surface
TCS .     6 HOURS : Time circ. stopped
BHT .DEGC   69.44 : Bottom hole temp
MRT .DEGC   69.44 : Max recorded temp
LUN .        5110 : Logging unit No
LUL .         PWI : Logging unit Loc
ENGI. RAJAMANDALA : Recorded by
WITN. RAJAMANDALA : Witness
DPRE.         DNI : Data Prepared
DIG . RAJAMANDALA : Digitize
~Other -----------------------------------------------------
BIT SIZE CHANGE : 9.6250 T 8.50 AT 2774
CALIPER CURVE RECORDED 7' TOO SHALLOW
SCALECHANGE AT 1582
~ASCII -----------------------------------------------------
# ...
 1488.50000   75.12300   10.30820    1.62400    1.47900  128.02400    -999.25    -999.25    -999.25    -999.25
 1489.00000   75.41600   10.33120    1.65100    1.48000  128.55600    -999.25    -999.25    -999.25    -999.25
 1489.50000   75.00700   10.41300    1.66100    1.48200  127.89100    -999.25    -999.25    -999.25    -999.25
 1490.00000   75.50500   10.43410    1.67100    1.48300  127.54500    -999.25    -999.25    -999.25    -999.25
 1490.50000   78.06000   10.43510    1.67100    1.48500  126.76000    -999.25    -999.25    -999.25    -999.25
 1491.00000   78.36200   10.49280    1.67100    1.48600  126.16100    -999.25    -999.25    -999.25    -999.25
 1491.50000   78.67600   10.49110    1.68100    1.48700  126.49400    -999.25    -999.25    -999.25    -999.25
 1492.00000   78.55700   10.42360    1.70200    1.48700  126.38700    -999.25    -999.25    -999.25    -999.25
 1492.50000   77.64800   10.42530    1.69200    1.51500  126.42700    -999.25    -999.25    -999.25    -999.25
 1493.00000   75.72200   10.41920    1.68100    1.55200  125.89500    -999.25    -999.25    -999.25    -999.25
 1493.50000   74.03100   10.46460    1.67100    1.54300  126.16100    -999.25    -999.25    -999.25    -999.25
 1494.00000   73.40500   10.45560    1.72500    1.60100  125.49600    -999.25    -999.25    -999.25    -999.25
 1494.50000   73.55400   10.47250    1.79300    1.63800  125.42900    -999.25    -999.25    -999.25    -999.25
 1495.00000   72.89000   10.51600    1.85500    1.67300  124.29800    -999.25    -999.25    -999.25    -999.25
 1495.50000   70.36600   10.51740    1.87800    1.70200  123.83200    -999.25    -999.25    -999.25    -999.25
 1496.00000   69.88600   10.49420    1.87800    1.71300  122.83400    -999.25    -999.25    -999.25    -999.25
 1496.50000   67.41800   10.45070    1.84400    1.71200  123.30000    -999.25    -999.25    -999.25    -999.25
 1497.00000   66.51600   10.45700    1.83200    1.71000  122.70100    -999.25    -999.25    -999.25    -999.25
 1497.50000   67.59500   10.58730    1.84400    1.70900  120.30600    -999.25    -999.25    -999.25    -999.25
 1498.00000   68.57300   10.68280    1.86600    1.70700  120.93500    -999.25    -999.25    -999.25    -999.25
 1498.50000   70.49400   10.72580    1.83200    1.70500  119.37500    -999.25    -999.25    -999.25    -999.25
 1499.00000   69.78000   10.73510    1.84400    1.70400  119.24200    -999.25    -999.25    -999.25    -999.25
 1499.50000   68.07300   10.44430    1.85500    1.70200  120.04000    -999.25    -999.25    -999.25    -999.25
 1500.00000   68.57200   10.31670    1.87800    1.70200  120.17300    -999.25    -999.25    -999.25    -999.25
 1500.50000   69.77700   10.27610    1.85500    1.70200  120.17300    -999.25    -999.25    -999.25    -999.25
 1501.00000   70.98100   10.22940    1.84400    1.70200  119.90700    -999.25    -999.25    -999.25    -999.25
 1501.50000   71.69100   10.22630    1.87800    1.70100  119.50800    -999.25    -999.25    -999.25    -999.25
 1502.00000   72.03800   10.17270    1.88900    1.71300  119.90700    -999.25    -999.25    -999.25    -999.25
 1502.50000   73.19000    9.98070    1.91300    1.75500  118.84200    -999.25    -999.25    -999.25    -999.25
 1503.00000   72.39700    9.94390    1.91900    1.81000  120.83800    -999.25    -999.25    -999.25    -999.25
 1503.50000   69.56800    9.96300    1.98500    1.87000  120.30600    -999.25    -999.25    -999.25    -999.25
 1504.00000   68.39800    9.98930    2.03400    1.91400  120.83800    -999.25    -999.25    -999.25    -999.25
 1504.50000   69.69000    9.95280    2.12300    1.93700  119.50800    -999.25    -999.25    -999.25    -999.25
 1505.00000   69.69500    9.93850    2.12300    1.93700  117.91100    -999.25    -999.25    -999.25    -999.25
 1505.50000   70.02500    9.93850    2.10400    1.92500  124.43100    -999.25    -999.25    -999.25    -999.25
 1506.00000   71.00500    9.93440    2.08500    1.92500  139.73400    -999.25    -999.25    -999.25    -999.25
 1506.50000   70.28400    9.93650    1.97300    1.90100  101.14400    -999.25    -999.25    -999.25    -999.25
 1507.00000   70.89900    9.93810    1.88900    1.87800   99.61400    -999.25    -999.25    -999.25    -999.25
 1507.50000   74.78800    9.95340    1.80900    1.84400  103.54000    -999.25    -999.25    -999.25    -999.25
 1508.00000   77.68400    9.95340    1.74400    1.62000  112.36600    -999.25    -999.25    -999.25    -999.25
 1508.50000   76.98300   10.01370    1.67100    1.57900  132.08300    -999.25    -999.25    -999.25    -999.25
 1509.00000   77.10500   10.02460    1.70200    1.53400  119.17500    -999.25    -999.25    -999.25    -999.25
 1509.50000   79.62000   10.04220    1.65100    1.49000  122.50200    -999.25    -999.25    -999.25    -999.25
 1510.00000   80.25500   10.02700    1.59600    1.44200  125.96100    -999.25    -999.25    -999.25    -999.25
 1510.50000   81.04500   10.02780    1.56200    1.42300  134.41100    -999.25    -999.25    -999.25    -999.25
 1511.00000   81.90600   10.02800    1.55200    1.40700  133.21400    -999.25    -999.25    -999.25    -999.25
 1511.50000   80.58700   10.02710    1.57100    1.39800  130.28600    -999.25    -999.25    -999.25    -999.25
 1512.00000   79.25600   10.02770    1.56200    1.39800  131.23500    -999.25    -999.25    -999.25    -999.25
 1512.50000   80.38400   10.02700    1.57100    1.39000  132.01600    -999.25    -999.25    -999.25    -999.25
 1513.00000   80.83300   10.04210    1.58100    1.39000  132.14900    -999.25    -999.25    -999.25    -999.25
 1513.50000   78.96700   10.02730    1.59100    1.39500  129.88700    -999.25    -999.25    -999.25    -999.25
 1514.00000   79.66400   10.05520    1.58100    1.40100  128.97800    -999.25    -999.25    -999.25    -999.25
 1514.50000   79.89400   10.05500    1.54300    1.40800  128.82200    -999.25    -999.25    -999.25    -999.25
 1515.00000   80.62600   10.04090    1.53300    1.41400  128.68900    -999.25    -999.25    -999.25    -999.25
 1515.50000   82.01700   10.01700    1.55200    1.42000  128.15700    -999.25    -999.25    -999.25    -999.25
 1516.00000   81.71000   10.01860    1.54300    1.42700  129.75400    -999.25    -999.25    -999.25    -999.25
 1516.50000   80.11400   10.01800    1.56200    1.43300  131.61700    -999.25    -999.25    -999.25    -999.25
 1517.00000   78.38400   10.02530    1.57000    1.43900  131.35100    -999.25    -999.25    -999.25    -999.25
 1517.50000   77.93400   10.01440    1.58100    1.44600  132.68100    -999.25    -999.25    -999.25    -999.25
 1518.00000   78.69700   10.02250    1.62000    1.45200  130.60000    -999.25    -999.25    -999.25    -999.25
 1518.50000   77.98700   10.02850    1.61100    1.45800  126.29400    -999.25    -999.25    -999.25    -999.25
 1519.00000   76.72500   10.04430    1.63000    1.46500  124.96300    -999.25    -999.25    -999.25    -999.25
 1519.50000   75.15100   10.19400    1.61100    1.46900  129.22200    -999.25    -999.25    -999.25    -999.25
 1520.00000   76.54300   10.26880    1.58400    1.46400  128.93200    -999.25    -999.25    -999.25    -999.25
 1520.50000   78.46700   10.35190    1.55200    1.44400  129.35500    -999.25    -999.25    -999.25    -999.25
 1521.00000   79.98800   10.38400    1.53300    1.41800  132.68100    -999.25    -999.25    -999.25    -999.25
 1521.50000   80.98000   10.38420    1.51500    1.39200  127.62500    -999.25    -999.25    -999.25    -999.25
 1522.00000   81.08900   10.40560    1.53300    1.37300  127.56200    -999.25    -999.25    -999.25    -999.25
 1522.50000   80.44800   10.46080    1.53300    1.37300  128.29000    -999.25    -999.25    -999.25    -999.25
 1523.00000   81.82200   10.50310    1.53300    1.37300  128.82200    -999.25    -999.25    -999.25    -999.25
 1523.50000   82.84100   10.57560    1.55200    1.38000  129.35500    -999.25    -999.25    -999.25    -999.25
 1524.00000   80.41700   10.59460    1.57400    1.39100  129.24400    -999.25    -999.25    -999.25    -999.25
 1524.50000   80.22600   10.62260    1.58600    1.40700  129.08800    -999.25    -999.25    -999.25    -999.25
