~Version ---------------------------------------------------
VERS. 2.0 : CWLS log ASCII Standard -VERSION 2.0
WRAP.  NO : One line per depth step
~Well ------------------------------------------------------
STRT.FT                  430.0 : START
STOP.FT                 3030.0 : STOP
STEP.FT                    0.5 : STEP
NULL.                  -999.25 : NULL VALUE
COMP.              RAJAMANDALA : Company
WELL.              RAJAMANDALA : Well Name
FLD .              RAJAMANDALA : Field
CTRY.              RAJAMANDALA : Country
STAT.              RAJAMANDALA : State
PROV.                          : Province
LOC .                          : Field Location
LATI. 001 10' 00.000" S    DMS : Latitude
LONG. 107 10' 00.000" E    DMS : Longitude
PD  .                      MSL : Permanent Datum
UWI .              RAJAMANDALA : Unique Well ID
EKB .FT                   99.0 : Elevation of KB
EDF .FT                   98.0 : Elevation of DF
EGL .FT                   81.0 : Elevation Ground lv
ELZ .FT                   99.0 : Elevation Log Zero
APD .FT                   18.0 : Above Perm. Datum
LMF .                       KB : Log measured from
MP  .                       KB : Drill measured from
OS  .                   IES-GR : Services
OS1 .                   BHC-GR : Other Services Ln 1
OS2 .                   FDC-GR : Other Services Ln 2
OS3 .                   SNP-GR : Other Services Ln 3
OS4 .                      HDT : Other Services Ln 4
SRVC.              RAJAMANDALA : Service company
RUNS.                        2 : Number of runs
DATE.                          : Date
~Curve Information -----------------------------------------
DEPT.FT    : 1  Depth
GR  .API   : 2  Gamma Ray
CALI.INCH  : 3  Caliper Log
SN  .OHMM  : 4  Short Normal
IND .OHMM  : 5  Induction Deep Resistivity
DT  .US/F  : 6  Delta-T
RHOB.G/CC  : 7  Bulk Density
PHID.%     : 8  Density Log Porosity for given zone matrix density
DRHO.G/CC  : 9  Density Log Correction
SNP .%     : 10  Sidewall Neutron Porosity
~Params ----------------------------------------------------
RUN .           1 : Run number
DATE.  2 AUG 2817 : Log date
DAY .           2 : Day
MONT.           8 : Month
YEAR.        2817 : Year
DD  .FT    2400.0 : Depth-Driller
DL  .FT    2406.0 : Depth-Logger
BLI .FT    2405.0 : Bottom log interval
TLI .FT     505.0 : Top log interval
CBD1.FT     505.0 : Casing-Driller
CBL1.FT     505.0 : Casing-Logger
CS  .IN    13.375 : Casing Diameter
CDF .FT     505.0 : Casing Depth From
CADT.FT    2400.0 : Casing Depth To
BS  .IN     9.625 : Bit Size
DFT .   GEL WATER : Hole Fluid type
TCS .     4 HOURS : Time circ. stopped
BHT .DEGC   65.56 : Bottom hole temp
MRT .DEGC   65.56 : Max recorded temp
LUN .        5110 : Logging unit No
LUL .         PWI : Logging unit Loc
ENGI. RAJAMANDALA : Recorded by
WITN. RAJAMANDALA : Witness
DPRE.         DNI : Data Prepared
DIG . RAJAMANDALA : Digitize
RUN .           2 : Run number
DATE.  2 AUG 2812 : Log date
DAY .           6 : Day
MONT.           8 : Month
YEAR.        2817 : Year
DD  .FT    3023.0 : Depth-Driller
DL  .FT    3023.0 : Depth-Logger
BLI .FT    3022.0 : Bottom log interval
TLI .FT    2405.0 : Top log interval
DFT .   GEL WATER : Hole Fluid type
MSS . CIRCULATION : Mud Sample Source
RMS .OHMM    4.28 : RM  @ Surface
RMT .DEGC   23.33 : Mud temp Surface
TCS .     6 HOURS : Time circ. stopped
BHT .DEGC   69.44 : Bottom hole temp
MRT .DEGC   69.44 : Max recorded temp
LUN .        5110 : Logging unit No
LUL .         PWI : Logging unit Loc
ENGI. RAJAMANDALA : Recorded by
WITN. RAJAMANDALA : Witness
DPRE.         DNI : Data Prepared
DIG . RAJAMANDALA : Digitize
~Other -----------------------------------------------------
BIT SIZE CHANGE : 9.6250 T 8.50 AT 2774
CALIPER CURVE RECORDED 7' TOO SHALLOW
SCALECHANGE AT 1582
~ASCII -----------------------------------------------------
# ...
 2328.00000   30.98600   10.70590    6.30000    5.20800   78.82200    2.55400    8.92400    0.01700   16.79200
 2328.50000   30.17600   10.70490    6.41800    5.24000   78.62300    2.54800    9.28400    0.01700   15.68000
 2329.00000   30.57900   10.72690    6.26200    5.20800   78.49000    2.53900    9.88300    0.00300   14.64000
 2329.50000   29.51100   10.74290    6.26200    5.14400   77.89100    2.54200    9.96300    0.00200   14.12100
 2330.00000   29.49500   10.85350    6.20400    4.92700   77.99100    2.55400    8.92000    0.00600   14.70800
 2330.50000   30.35300   10.86250    5.99800    4.69100   78.62300    2.56200    8.52400    0.00700   14.96000
 2331.00000   32.29700   10.90970    5.74600    4.66200   78.49000    2.56400    8.40400    0.00900   14.84000
 2331.50000   34.15200   10.90020    5.47000    4.60500   78.22400    2.56800    8.12500    0.00700   14.64000
 2332.00000   35.27100   10.92920    5.24000    4.43900   78.68900    2.57000    8.01200    0.00400   14.27500
 2332.50000   36.78300   10.89630    5.01900    4.20000   79.82000    2.56500    8.28400    0.00800   15.60000
 2333.00000   35.07800   10.95140    4.95800    4.07300   81.81600    2.55000    9.18400    0.01500   16.31900
 2333.50000   33.76400   10.94620    4.86700    4.02300   83.84600    2.53900    9.84300    0.01500   15.20800
 2334.00000   33.69900   10.93330    5.05000    3.92500   84.14500    2.56100    8.43300    0.03200   15.22300
 2334.50000   32.96200   10.89940    4.77800    3.97400   84.57800    2.57500    7.72500    0.05100   15.75900
 2335.00000   31.00700   11.03800    4.63400    3.95000   85.07700    2.55700    8.84400    0.04200   17.11900
 2335.50000   30.04800   11.06860    4.74900    4.02300   84.91000    2.56400    8.40400    0.05300   17.67800
 2336.00000   29.85200   11.00670    4.85500    3.97400   84.80400    2.55000    9.18200    0.05500   17.71800
 2336.50000   33.02400   11.00490    4.98800    3.95000   85.07700    2.55400    9.32400    0.08300   16.99900
 2337.00000   34.35600   11.00440    5.05000    3.95000   83.67900    2.55600    8.88400    0.08500   17.29800
 2337.50000   34.67200   11.03470    4.97300    3.97400   83.67900    2.51100   11.52200    0.01600   16.31900
 2338.00000   34.64900   11.07680    4.76300    3.92500   82.81400    2.52600   10.63000    0.01700   16.60000
 2338.50000   34.79500   11.09670    4.46600    3.90100   83.54600    2.54400    9.60400    0.02800   17.55800
 2339.00000   35.58100   11.08550    4.54900    3.85400   84.47800    2.54200    9.68400    0.03500   18.59800
 2339.50000   36.28600   11.13820    4.72000    3.78300   83.67900    2.54900    9.28400    0.07200   18.55800
 2340.00000   35.48900   11.14560    4.72000    3.78300   83.84000    2.51900   11.08300    0.04600   17.89200
 2340.50000   35.41400   11.19430    4.54900    3.76000   83.28000    2.50700   11.72200    0.04200   18.43800
 2341.00000   37.99400   11.18420    4.46600    3.71800   83.41300    2.54900    9.36400    0.08200   20.13700
 2341.50000   38.70000   11.25060    4.38500    3.64600   85.50900    2.47800   13.48100    0.05900   21.73600
 2342.00000   37.72800   11.22140    4.52100    3.69200   85.54200    2.48200   13.20100    0.08800   22.26400
 2342.50000   35.62300   11.44780    4.66200    3.68000   84.14500    2.46600   14.24100    0.08400   21.23600
 2343.00000   33.50900   11.36290    4.69100    3.63500   82.21600    2.50100   11.98200    0.08000   21.79500
 2343.50000   33.05500   11.34620    4.57700    3.62400   82.61500    2.54200    9.68400    0.09500   22.87500
 2344.00000   34.51000   11.36310    4.57700    3.53600   83.48000    2.54400    9.58000    0.12400   23.03500
 2344.50000   36.27500   11.52950    4.43900    3.58000   84.74400    2.55000    9.24400    0.15300   22.19500
 2345.00000   36.05600   11.59790    4.43900    3.55800   85.27600    2.49700   12.72200    0.09700   21.51600
 2345.50000   36.14600   11.57520    4.43900    3.53600   85.07700    2.49200   12.60200    0.07000   20.67600
 2346.00000   35.01300   11.60300    4.43900    3.54700   85.27600    2.52400   10.80300    0.08300   20.15700
 2346.50000   33.34000   11.61470    4.41200    3.51400   84.61100    2.48500   12.96100    0.03300   19.83700
 2347.00000   31.29800   11.62190    4.41200    3.51400   83.67900    2.50400   11.68200    0.02300   19.15700
 2347.50000   33.70200   11.65140    4.43900    3.62400   82.34900    2.54400    9.72400    0.07600   19.79700
 2348.00000   34.65700   11.70910    4.49400    3.71400   84.47800    2.53600   10.08300    0.07000   20.21800
 2348.50000   33.47000   11.70400    4.54900    3.60200   83.34700    2.50600   11.68200    0.08300   20.83600
 2349.00000   34.53500   11.74170    4.52100    3.66900   84.21200    2.46000   14.44000    0.01800   20.19700
 2349.50000   33.48100   11.73630    4.64800    3.73100   84.94300    2.48700   12.88100    0.03400   20.03700
 2350.00000   31.72000   11.70080    4.69100    3.79700   84.03100    2.51200   11.54200    0.07600   19.83700
 2350.50000   32.17800   11.73220    4.72000    3.86300   83.41300    2.48600   13.06100    0.04100   18.87700
 2351.00000   33.12600   11.86000    4.63400    3.95000   84.34500    2.48700   12.00200    0.02800   18.51800
 2351.50000   33.02600   11.93030    4.50700    3.92500   86.07500    2.53800    9.90200    0.02200   18.65800
 2352.00000   31.79600   11.90080    4.35800    3.74000   86.62300    2.57600    7.70500    0.07500   18.37000
 2352.50000   30.79800   11.70470    4.07300    3.69200   87.17200    2.53700   10.00300    0.04100   18.07800
 2353.00000   31.80600   11.64220    4.02300    3.56900   87.20600    2.49800   12.34200   -0.00200   16.85900
 2353.50000   35.21600   11.62550    4.02300    3.42900   85.94100    2.51200   11.41700   -0.00100   16.61900
 2354.00000   36.50400   11.64640    3.96900    3.35600   87.40500    2.54500    9.58400    0.02000   16.95900
 2354.50000   36.47700   11.70180    3.83000    3.24500   89.20200    2.51400   11.58200    0.00300   16.27900
 2355.00000   35.52300   11.72220    3.72600    3.12700   91.46400    2.50100   12.04200    0.00200   17.59800
 2355.50000   36.86900   11.72810    3.60200    3.01400   94.72400    2.53000   10.32300    0.02800   18.47800
 2356.00000   37.80900   11.74100    3.46500    2.95900   95.28900    2.52000   11.03300    0.03800   18.65800
 2356.50000   39.92500   11.61310    3.45000    2.88700   94.92300    2.50600   11.84200    0.02200   19.15700
 2357.00000   40.34600   11.62160    3.66900    2.94100   94.65700    2.51300   11.40200    0.06400   20.61600
 2357.50000   38.38400   11.61980    3.69200    2.94100   94.45800    2.48100   13.60100    0.01700   21.43600
 2358.00000   37.64400   11.57880    3.64600    2.94100   93.71400    2.46200   14.24500    0.01900   21.15600
 2358.50000   37.00800   11.60320    3.69200    2.96800   92.26200    2.47500   13.64100    0.06200   21.99500
 2359.00000   36.78900   11.60040    3.71400    2.99600   91.73000    2.49200   12.76100    0.07400   21.71600
 2359.50000   36.39800   11.63910    3.62400    2.94100   91.99600    2.47200   13.88100    0.07100   21.95500
 2360.00000   37.24700   11.57200    3.55800    2.85200   91.46400    2.46600   14.36800    0.06000   22.23500
 2360.50000   37.38400   11.54040    3.60200    2.81700   92.39500    2.45400   14.80000    0.04800   21.63600
 2361.00000   39.74600   11.53940    3.64600    2.88700   93.65900    2.47600   13.68100    0.04900   21.71600
 2361.50000   40.78400   11.57560    3.62400    2.86900   93.65900    2.48400   13.08100    0.09600   21.79500
 2362.00000   40.10500   11.57810    3.64600    2.85200   94.47400    2.47500   13.72100    0.06600   21.71200
 2362.50000   39.03300   11.74730    3.24500    2.85200   95.19000    2.48500   13.08100    0.06100   20.95600
 2363.00000   39.32300   11.70590    3.18500    2.88700   93.12700    2.50200   12.04200    0.08700   21.23600
 2363.50000   40.67300   11.56480    3.62400    2.94100   93.12700    2.47400   13.84100    0.09200   20.47600
 2364.00000   40.73400   11.52320    3.80000    2.96400   93.32700    2.46600   14.28000    0.01800   19.87700
