~Version ---------------------------------------------------
VERS. 2.0 : CWLS log ASCII Standard -VERSION 2.0
WRAP.  NO : One line per depth step
~Well ------------------------------------------------------
STRT.FT                  430.0 : START
STOP.FT                 3030.0 : STOP
STEP.FT                    0.5 : STEP
NULL.                  -999.25 : NULL VALUE
COMP.              RAJAMANDALA : Company
WELL.              RAJAMANDALA : Well Name
FLD .              RAJAMANDALA : Field
CTRY.              RAJAMANDALA : Country
STAT.              RAJAMANDALA : State
PROV.                          : Province
LOC .                          : Field Location
LATI. 001 10' 00.000" S    DMS : Latitude
LONG. 107 10' 00.000" E    DMS : Longitude
PD  .                      MSL : Permanent Datum
UWI .              RAJAMANDALA : Unique Well ID
EKB .FT                   99.0 : Elevation of KB
EDF .FT                   98.0 : Elevation of DF
EGL .FT                   81.0 : Elevation Ground lv
ELZ .FT                   99.0 : Elevation Log Zero
APD .FT                   18.0 : Above Perm. Datum
LMF .                       KB : Log measured from
MP  .                       KB : Drill measured from
OS  .                   IES-GR : Services
OS1 .                   BHC-GR : Other Services Ln 1
OS2 .                   FDC-GR : Other Services Ln 2
OS3 .                   SNP-GR : Other Services Ln 3
OS4 .                      HDT : Other Services Ln 4
SRVC.              RAJAMANDALA : Service company
RUNS.                        2 : Number of runs
DATE.                          : Date
~Curve Information -----------------------------------------
DEPT.FT    : 1  Depth
GR  .API   : 2  Gamma Ray
CALI.INCH  : 3  Caliper Log
SN  .OHMM  : 4  Short Normal
IND .OHMM  : 5  Induction Deep Resistivity
DT  .US/F  : 6  Delta-T
RHOB.G/CC  : 7  Bulk Density
PHID.%     : 8  Density Log Porosity for given zone matrix density
DRHO.G/CC  : 9  Density Log Correction
SNP .%     : 10  Sidewall Neutron Porosity
~Params ----------------------------------------------------
RUN .           1 : Run number
DATE.  2 AUG 2817 : Log date
DAY .           2 : Day
MONT.           8 : Month
YEAR.        2817 : Year
DD  .FT    2400.0 : Depth-Driller
DL  .FT    2406.0 : Depth-Logger
BLI .FT    2405.0 : Bottom log interval
TLI .FT     505.0 : Top log interval
CBD1.FT     505.0 : Casing-Driller
CBL1.FT     505.0 : Casing-Logger
CS  .IN    13.375 : Casing Diameter
CDF .FT     505.0 : Casing Depth From
CADT.FT    2400.0 : Casing Depth To
BS  .IN     9.625 : Bit Size
DFT .   GEL WATER : Hole Fluid type
TCS .     4 HOURS : Time circ. stopped
BHT .DEGC   65.56 : Bottom hole temp
MRT .DEGC   65.56 : Max recorded temp
LUN .        5110 : Logging unit No
LUL .         PWI : Logging unit Loc
ENGI. RAJAMANDALA : Recorded by
WITN. RAJAMANDALA : Witness
DPRE.         DNI : Data Prepared
DIG . RAJAMANDALA : Digitize
RUN .           2 : Run number
DATE.  2 AUG 2812 : Log date
DAY .           6 : Day
MONT.           8 : Month
YEAR.        2817 : Year
DD  .FT    3023.0 : Depth-Driller
DL  .FT    3023.0 : Depth-Logger
BLI .FT    3022.0 : Bottom log interval
TLI .FT    2405.0 : Top log interval
DFT .   GEL WATER : Hole Fluid type
MSS . CIRCULATION : Mud Sample Source
RMS .OHMM    4.28 : RM  @ Surface
RMT .DEGC   23.33 : Mud temp Surface
TCS .     6 HOURS : Time circ. stopped
BHT .DEGC   69.44 : Bottom hole temp
MRT .DEGC   69.44 : Max recorded temp
LUN .        5110 : Logging unit No
LUL .         PWI : Logging unit Loc
ENGI. RAJAMANDALA : Recorded by
WITN. RAJAMANDALA : Witness
DPRE.         DNI : Data Prepared
DIG . RAJAMANDALA : Digitize
~Other -----------------------------------------------------
BIT SIZE CHANGE : 9.6250 T 8.50 AT 2774
CALIPER CURVE RECORDED 7' TOO SHALLOW
SCALECHANGE AT 1582
~ASCII -----------------------------------------------------
# ...
 1342.50000   72.76600   10.51310    1.85500    1.71500  126.02800    -999.25    -999.25    -999.25    -999.25
 1343.00000   74.73800   10.49520    1.86100    1.68800  125.62900    -999.25    -999.25    -999.25    -999.25
 1343.50000   77.77300   10.41320    1.86600    1.67100  124.69700    -999.25    -999.25    -999.25    -999.25
 1344.00000   77.94700   10.31740    1.84400    1.67100  125.32300    -999.25    -999.25    -999.25    -999.25
 1344.50000   74.59500   10.23260    1.83200    1.68100  128.82200    -999.25    -999.25    -999.25    -999.25
 1345.00000   73.39100   10.17610    1.84400    1.69600  127.22600    -999.25    -999.25    -999.25    -999.25
 1345.50000   73.80500   10.14590    1.86600    1.71300  128.02400    -999.25    -999.25    -999.25    -999.25
 1346.00000   74.00200   10.03680    1.91300    1.71300  128.85700    -999.25    -999.25    -999.25    -999.25
 1346.50000   73.79500   10.12120    1.76600    1.68100  126.42700    -999.25    -999.25    -999.25    -999.25
 1347.00000   69.02400   10.03630    1.54300    1.65000  129.88700    -999.25    -999.25    -999.25    -999.25
 1347.50000   64.88200    9.95020    1.64000    1.62200  131.35100    -999.25    -999.25    -999.25    -999.25
 1348.00000   62.95700    9.90880    1.98500    1.59400  118.57600    -999.25    -999.25    -999.25    -999.25
 1348.50000   67.09900    9.90910    1.83200    1.56900  113.25300    -999.25    -999.25    -999.25    -999.25
 1349.00000   71.47100    9.93230    1.73400    1.54000  112.98700    -999.25    -999.25    -999.25    -999.25
 1349.50000   73.26600    9.97430    1.67100    1.51000  115.64900    -999.25    -999.25    -999.25    -999.25
 1350.00000   75.72400    9.98830    1.65100    1.48100  128.02400    -999.25    -999.25    -999.25    -999.25
 1350.50000   76.85100    9.98450    1.63000    1.45100  131.61700    -999.25    -999.25    -999.25    -999.25
 1351.00000   77.67800    9.97950    1.60600    1.44200  131.41700    -999.25    -999.25    -999.25    -999.25
 1351.50000   79.62000    9.97960    1.59100    1.44600  132.54800    -999.25    -999.25    -999.25    -999.25
 1352.00000   79.23100   10.03830    1.59100    1.44900  132.08300    -999.25    -999.25    -999.25    -999.25
 1352.50000   77.17100    9.98740    1.62000    1.45200  132.21600    -999.25    -999.25    -999.25    -999.25
 1353.00000   74.47400    9.97630    1.62000    1.45500  130.81800    -999.25    -999.25    -999.25    -999.25
 1353.50000   71.36100    9.94800    1.61100    1.45800  130.75200    -999.25    -999.25    -999.25    -999.25
 1354.00000   70.65100    9.94860    1.60100    1.46000  131.48400    -999.25    -999.25    -999.25    -999.25
 1354.50000   70.43900   10.00260    1.59100    1.46100  130.55200    -999.25    -999.25    -999.25    -999.25
 1355.00000   67.99100   10.00210    1.58100    1.43300  130.81800    -999.25    -999.25    -999.25    -999.25
 1355.50000   67.10800    9.97380    1.59100    1.39800  130.02000    -999.25    -999.25    -999.25    -999.25
 1356.00000   70.96900    9.94760    1.55200    1.39800  131.41700    -999.25    -999.25    -999.25    -999.25
 1356.50000   71.71800    9.91070    1.53300    1.38900  132.28200    -999.25    -999.25    -999.25    -999.25
 1357.00000   73.04600    9.87320    1.51500    1.37800  132.14900    -999.25    -999.25    -999.25    -999.25
 1357.50000   75.46700    9.86920    1.51500    1.37300  132.68100    -999.25    -999.25    -999.25    -999.25
 1358.00000   77.49900    9.86920    1.52400    1.37300  132.46000    -999.25    -999.25    -999.25    -999.25
 1358.50000   76.18100    9.86960    1.51500    1.37300  131.88300    -999.25    -999.25    -999.25    -999.25
 1359.00000   72.26800    9.89050    1.51500    1.37500  131.88300    -999.25    -999.25    -999.25    -999.25
 1359.50000   69.34900    9.93910    1.50500    1.37700  131.75000    -999.25    -999.25    -999.25    -999.25
 1360.00000   70.43600    9.99170    1.52500    1.37900  131.81800    -999.25    -999.25    -999.25    -999.25
 1360.50000   69.15900   10.02780    1.54300    1.38100  131.75000    -999.25    -999.25    -999.25    -999.25
 1361.00000   68.53800   10.01480    1.54300    1.38300  131.75000    -999.25    -999.25    -999.25    -999.25
 1361.50000   67.69000    9.97340    1.54300    1.38500  131.75000    -999.25    -999.25    -999.25    -999.25
 1362.00000   68.53200    9.96170    1.55200    1.38700  131.52000    -999.25    -999.25    -999.25    -999.25
 1362.50000   70.52600    9.96170    1.54300    1.38800  131.68300    -999.25    -999.25    -999.25    -999.25
 1363.00000   70.52300    9.96170    1.53300    1.39000  132.41500    -999.25    -999.25    -999.25    -999.25
 1363.50000   71.13800    9.96210    1.52400    1.39200  134.01200    -999.25    -999.25    -999.25    -999.25
 1364.00000   71.81700    9.97810    1.52200    1.39400  134.14500    -999.25    -999.25    -999.25    -999.25
 1364.50000   71.57400    9.96750    1.50500    1.39600  135.07700    -999.25    -999.25    -999.25    -999.25
 1365.00000   70.58100    9.96170    1.51500    1.39800  134.07900    -999.25    -999.25    -999.25    -999.25
 1365.50000   69.63100    9.96170    1.51500    1.39800  132.28200    -999.25    -999.25    -999.25    -999.25
 1366.00000   68.02900    9.96490    1.52700    1.39700  132.24200    -999.25    -999.25    -999.25    -999.25
 1366.50000   66.10900    9.97360    1.53800    1.39600  132.94700    -999.25    -999.25    -999.25    -999.25
 1367.00000   66.17400    9.97490    1.54300    1.39600  133.67900    -999.25    -999.25    -999.25    -999.25
 1367.50000   68.83300    9.99520    1.51500    1.39500  133.74600    -999.25    -999.25    -999.25    -999.25
 1368.00000   71.46300   10.07740    1.49600    1.39400  133.56100    -999.25    -999.25    -999.25    -999.25
 1368.50000   71.74900   10.10770    1.55200    1.39300  132.41500    -999.25    -999.25    -999.25    -999.25
 1369.00000   72.39200   10.10590    1.57100    1.39300  130.15300    -999.25    -999.25    -999.25    -999.25
 1369.50000   73.98100   10.12910    1.55200    1.39200  131.21800    -999.25    -999.25    -999.25    -999.25
 1370.00000   71.77500   10.17620    1.54300    1.39100  131.09600    -999.25    -999.25    -999.25    -999.25
 1370.50000   69.35000   10.31910    1.54300    1.39000  132.14900    -999.25    -999.25    -999.25    -999.25
 1371.00000   69.16900   10.82310    1.55200    1.39000  134.14500    -999.25    -999.25    -999.25    -999.25
 1371.50000   70.54600   11.37010    1.55200    1.39200  133.61300    -999.25    -999.25    -999.25    -999.25
 1372.00000   71.58200   11.34490    1.55200    1.39500  132.81400    -999.25    -999.25    -999.25    -999.25
 1372.50000   71.88000   11.18180    1.54300    1.39700  133.61300    -999.25    -999.25    -999.25    -999.25
 1373.00000   73.77700   11.15000    1.54300    1.39900  133.14700    -999.25    -999.25    -999.25    -999.25
 1373.50000   76.86100   11.14060    1.56200    1.40200  132.68100    -999.25    -999.25    -999.25    -999.25
 1374.00000   76.43700   11.13400    1.57200    1.40400  132.35800    -999.25    -999.25    -999.25    -999.25
 1374.50000   73.94000   11.11870    1.57800    1.40600  131.35100    -999.25    -999.25    -999.25    -999.25
 1375.00000   72.23300   11.05740    1.58400    1.40800  131.21800    -999.25    -999.25    -999.25    -999.25
 1375.50000   73.51900   11.07200    1.59000    1.41100  130.95100    -999.25    -999.25    -999.25    -999.25
 1376.00000   73.41200   11.10100    1.62000    1.41300  130.41900    -999.25    -999.25    -999.25    -999.25
 1376.50000   71.62900   11.18810    1.60100    1.41500  130.22000    -999.25    -999.25    -999.25    -999.25
 1377.00000   71.26800   11.12330    1.59100    1.41700  130.41900    -999.25    -999.25    -999.25    -999.25
 1377.50000   70.47200   11.04440    1.59100    1.42000  130.41900    -999.25    -999.25    -999.25    -999.25
 1378.00000   70.64900   11.05030    1.61100    1.42200  130.34200    -999.25    -999.25    -999.25    -999.25
 1378.50000   70.75500   11.11410    1.58100    1.42400  131.21800    -999.25    -999.25    -999.25    -999.25
