~Version ---------------------------------------------------
VERS. 2.0 : CWLS log ASCII Standard -VERSION 2.0
WRAP.  NO : One line per depth step
~Well ------------------------------------------------------
STRT.FT                  430.0 : START
STOP.FT                 3030.0 : STOP
STEP.FT                    0.5 : STEP
NULL.                  -999.25 : NULL VALUE
COMP.              RAJAMANDALA : Company
WELL.              RAJAMANDALA : Well Name
FLD .              RAJAMANDALA : Field
CTRY.              RAJAMANDALA : Country
STAT.              RAJAMANDALA : State
PROV.                          : Province
LOC .                          : Field Location
LATI. 001 10' 00.000" S    DMS : Latitude
LONG. 107 10' 00.000" E    DMS : Longitude
PD  .                      MSL : Permanent Datum
UWI .              RAJAMANDALA : Unique Well ID
EKB .FT                   99.0 : Elevation of KB
EDF .FT                   98.0 : Elevation of DF
EGL .FT                   81.0 : Elevation Ground lv
ELZ .FT                   99.0 : Elevation Log Zero
APD .FT                   18.0 : Above Perm. Datum
LMF .                       KB : Log measured from
MP  .                       KB : Drill measured from
OS  .                   IES-GR : Services
OS1 .                   BHC-GR : Other Services Ln 1
OS2 .                   FDC-GR : Other Services Ln 2
OS3 .                   SNP-GR : Other Services Ln 3
OS4 .                      HDT : Other Services Ln 4
SRVC.              RAJAMANDALA : Service company
RUNS.                        2 : Number of runs
DATE.                          : Date
~Curve Information -----------------------------------------
DEPT.FT    : 1  Depth
GR  .API   : 2  Gamma Ray
CALI.INCH  : 3  Caliper Log
SN  .OHMM  : 4  Short Normal
IND .OHMM  : 5  Induction Deep Resistivity
DT  .US/F  : 6  Delta-T
RHOB.G/CC  : 7  Bulk Density
PHID.%     : 8  Density Log Porosity for given zone matrix density
DRHO.G/CC  : 9  Density Log Correction
SNP .%     : 10  Sidewall Neutron Porosity
~Params ----------------------------------------------------
RUN .           1 : Run number
DATE.  2 AUG 2817 : Log date
DAY .           2 : Day
MONT.           8 : Month
YEAR.        2817 : Year
DD  .FT    2400.0 : Depth-Driller
DL  .FT    2406.0 : Depth-Logger
BLI .FT    2405.0 : Bottom log interval
TLI .FT     505.0 : Top log interval
CBD1.FT     505.0 : Casing-Driller
CBL1.FT     505.0 : Casing-Logger
CS  .IN    13.375 : Casing Diameter
CDF .FT     505.0 : Casing Depth From
CADT.FT    2400.0 : Casing Depth To
BS  .IN     9.625 : Bit Size
DFT .   GEL WATER : Hole Fluid type
TCS .     4 HOURS : Time circ. stopped
BHT .DEGC   65.56 : Bottom hole temp
MRT .DEGC   65.56 : Max recorded temp
LUN .        5110 : Logging unit No
LUL .         PWI : Logging unit Loc
ENGI. RAJAMANDALA : Recorded by
WITN. RAJAMANDALA : Witness
DPRE.         DNI : Data Prepared
DIG . RAJAMANDALA : Digitize
RUN .           2 : Run number
DATE.  2 AUG 2812 : Log date
DAY .           6 : Day
MONT.           8 : Month
YEAR.        2817 : Year
DD  .FT    3023.0 : Depth-Driller
DL  .FT    3023.0 : Depth-Logger
BLI .FT    3022.0 : Bottom log interval
TLI .FT    2405.0 : Top log interval
DFT .   GEL WATER : Hole Fluid type
MSS . CIRCULATION : Mud Sample Source
RMS .OHMM    4.28 : RM  @ Surface
RMT .DEGC   23.33 : Mud temp Surface
TCS .     6 HOURS : Time circ. stopped
BHT .DEGC   69.44 : Bottom hole temp
MRT .DEGC   69.44 : Max recorded temp
LUN .        5110 : Logging unit No
LUL .         PWI : Logging unit Loc
ENGI. RAJAMANDALA : Recorded by
WITN. RAJAMANDALA : Witness
DPRE.         DNI : Data Prepared
DIG . RAJAMANDALA : Digitize
~Other -----------------------------------------------------
BIT SIZE CHANGE : 9.6250 T 8.50 AT 2774
CALIPER CURVE RECORDED 7' TOO SHALLOW
SCALECHANGE AT 1582
~ASCII -----------------------------------------------------
# ...
 2656.50000   52.48400   10.85710    7.57600    6.45700   68.44300    2.61400    5.20700    0.00800   10.04300
 2657.00000   53.39200   10.84660    7.39200    6.45700   66.71300    2.60800    5.78800    0.01400   10.46600
 2657.50000   51.93300   10.85970    7.34600    6.57700   70.24000    2.60800    5.92600    0.01400   10.88300
 2658.00000   49.87400   10.89430    7.73300    6.86600   76.40100    2.60700    5.84600    0.01900   10.76300
 2658.50000   46.29700   10.95590    8.48900    7.23400   82.14900    2.61300    5.44600    0.02400   10.96300
 2659.00000   42.84100   10.88640    9.93000    7.76900   88.00400    2.60300    6.16300    0.01700   10.80300
 2659.50000   38.35900   10.89980   12.08400    8.49300   88.47000    2.59000    6.64600    0.01300   11.36200
 2660.00000   32.46400   10.94410   15.04600    9.22200   87.25900    2.59300    6.56600    0.04800   13.36100
 2660.50000   27.55100   10.95850   17.83000   11.73400   81.94900    2.57400    7.88500    0.04800   15.99900
 2661.00000   27.96300   10.97460   19.39500   14.11400   75.03000    2.55000    9.21700    0.03100   17.91000
 2661.50000   28.41600   10.98670   19.83200   16.43000   68.97500    2.54200    9.68400    0.03100   17.45800
 2662.00000   28.24400   10.96360   20.56100   17.04700   64.11800    2.52700   10.56300    0.02500   16.55900
 2662.50000   28.24900   10.91880   20.75100   15.54600   63.78600    2.52500   10.72300    0.01500   14.74000
 2663.00000   28.43300   10.93640   19.75600   13.74800   65.25000    2.56700    7.96500    0.00300   12.18200
 2663.50000   28.92200   10.98560   16.73600   11.70000   65.98100    2.61000    5.60600   -0.00600    8.34400
 2664.00000   29.89300   10.98780   14.22400   10.62700   65.07400    2.63500    4.10700   -0.00500    5.48600
 2664.50000   31.22900   10.96300   12.38500    9.74600   63.91900    2.63300    4.24700    0.00100    5.32600
 2665.00000   34.44600   10.91130   11.02000    9.05300   63.12000    2.62000    4.97700    0.00100    5.96700
 2665.50000   38.37500   10.95140   10.42700    8.07400   64.31800    2.61200    5.48600   -0.00400    5.80600
 2666.00000   39.52400   11.00770   10.35100    7.62500   67.45800    2.63600    3.98700    0.01200    5.16700
 2666.50000   37.50200   10.98950   10.27100    7.03700   72.76800    2.64000    3.84700    0.01500    4.64700
 2667.00000   35.90300   10.97310   10.19100    6.90900   79.15500    2.62300    4.93100    0.00100    4.48700
 2667.50000   36.62200   10.95590   10.05000    6.86600   81.01800    2.61800    5.20700    0.00300    4.56700
 2668.00000   37.76800   10.90530   10.11200    7.16800   79.68700    2.62700    4.56700    0.01800    5.68600
 2668.50000   38.13200   10.90150   10.11200    7.39200   77.49200    2.63000    4.36700    0.03300    8.44400
 2669.00000   38.73200   10.94960   10.23700    7.48300   75.96100    2.63800    3.66800    0.06100   10.80300
 2669.50000   37.46700   10.97510   10.42700    7.48300   77.22600    2.64600    3.32800    0.06700   12.92100
 2670.00000   35.10300   10.97920   10.36300    7.43700   78.17200    2.63400    4.28700    0.04000   13.16100
 2670.50000   33.41000   10.97890   10.30000    7.66900   79.42100    2.60900    5.64600    0.01500   11.20300
 2671.00000   35.20900   10.97890   12.01000    8.15500   80.48600    2.60600    5.87600    0.00800   10.16300
 2671.50000   37.15000   10.97910   12.77100    8.72500   76.76000    2.60500    5.92600    0.00700   10.38300
 2672.00000   36.39200   10.99110   13.66400    9.98800   74.83900    2.58800    6.92500    0.01200   10.72300
 2672.50000   34.02700   10.96600   14.71000   10.75300   73.96500    2.58900    6.84500    0.01100   12.52200
 2673.00000   31.74300   10.96590   16.08100   11.61100   73.23400    2.59100    6.75800    0.00800   13.00100
 2673.50000   30.05300   10.96630   18.01600   12.89000   76.29400    2.59600    6.44600    0.00400   11.30200
 2674.00000   29.58300   10.98330   19.75600   13.83400   77.02600    2.58600    7.00500   -0.01000   10.64300
 2674.50000   28.19200   10.96580   21.79700   14.92100   74.69700    2.58800    6.88500    0.00000   10.00300
 2675.00000   27.25200   10.95280   22.89500   16.00700   71.90300    2.59100    6.74200    0.01300   10.10300
 2675.50000   26.85800   10.95260   23.17800   17.47100   69.04200    2.59100    6.76500    0.01300   11.88200
 2676.00000   26.16100   10.98710   23.00400   17.68700   66.78000    2.59100    6.76500    0.00700   12.48200
 2676.50000   25.93000   11.02950   22.89500   17.90600   64.45100    2.58800    6.92500   -0.00400   10.20300
 2677.00000   26.60200   11.01610   22.06600   15.64200   63.45300    2.58600    7.02100   -0.01600    8.08500
 2677.50000   26.71600   11.01600   20.00000   14.09100   64.51800    2.59200    6.72600   -0.01700    7.24500
 2678.00000   27.30300   11.01820   18.35200   12.57700   65.91500    2.60200    6.00600   -0.01500    6.40600
 2678.50000   29.48800   11.00540   16.22900   11.86300   65.78200    2.62800    4.32700   -0.01100    5.88600
 2679.00000   33.06100   11.00250   14.44100   11.22500   64.88400    2.64900    3.22900   -0.00300    5.83500
 2679.50000   34.29200   11.02280   13.25100   10.23700   64.65100    2.64800    3.32800    0.00400    6.44600
 2680.00000   34.18700   11.05470   12.53900    9.68600   66.95800    2.63500    4.08700    0.00000    7.12500
 2680.50000   34.75400   11.05780   12.15900    9.16500   69.70700    2.62700    4.60700    0.00000    7.62500
 2681.00000   34.94700   11.04510   12.01000    8.99800   72.96700    2.61400    5.35100    0.00000    8.43400
 2681.50000   34.81300   11.03090   11.71900    8.83300   74.63100    2.59300    6.68600   -0.01500    8.88400
 2682.00000   35.38900   11.05850   11.55400    8.83300   74.49800    2.58300    7.32500   -0.00600    8.68400
 2682.50000   36.07000   11.05840   11.50500    8.77900   74.53100    2.59600    6.44600    0.00000    8.68400
 2683.00000   35.67300   11.06090   11.29400    8.67200   73.89900    2.59000    7.04500    0.00100    8.88400
 2683.50000   34.67900   11.06130   10.95300    8.56600   73.23400    2.59800    6.18600    0.00500    9.56400
 2684.00000   35.91500   11.07290   10.68700    8.38400   73.23400    2.61200    5.48600    0.01400    9.52400
 2684.50000   35.84200   11.08240   10.30000    7.90900   73.56600    2.62600    4.64700    0.01600    9.52400
 2685.00000   36.48100   11.09170   10.05000    7.69300   73.63300    2.63700    3.98300    0.01200    9.55300
 2685.50000   37.71100   11.09730    9.39300    7.38500   74.09800    2.64500    3.52800    0.01200    9.46400
 2686.00000   38.90200   11.08430    9.16500    7.08500   74.03200    2.63500    4.08700    0.01300    9.36400
 2686.50000   40.09800   11.08450    8.61900    6.78500   74.29800    2.62600    4.62700    0.01100    9.08400
 2687.00000   40.40800   11.08530    8.25600    6.48500   75.72900    2.62900    4.45700    0.00800    9.48900
 2687.50000   41.23500   11.08360    8.00600    6.18500   76.82600    2.63800    3.88700    0.01100    9.72400
 2688.00000   42.62100   11.08170    7.86000    5.98500   77.42500    2.64000    3.76700    0.01400   10.16300
 2688.50000   45.37500   11.06950    7.43700    5.88400   78.42300    2.63200    4.40700    0.01200   10.48300
 2689.00000   44.55400   11.06470    7.25700    5.78400   79.62100    2.61700    5.29500    0.01000   10.73500
 2689.50000   43.18600   11.05780    7.16800    5.68400   79.95300    2.59600    6.40600    0.00300   10.92300
 2690.00000   42.40900   11.05370    7.12400    5.67500   80.46400    2.59700    6.40600    0.00700   10.44300
 2690.50000   40.16600   11.04260    7.12400    5.74600   81.01800    2.61400    5.32600    0.01300   11.16300
 2691.00000   39.36300   11.03140    7.16800    5.79000   81.55000    2.59800    6.38100    0.01100   11.52200
 2691.50000   40.52500   11.01960    7.21200    5.86800   81.81600    2.58200    7.32500    0.01000   12.32200
 2692.00000   41.78000   11.02300    7.30100    5.94700   81.65100    2.58900    6.64600    0.00600   12.08200
 2692.50000   41.83800   10.99070    7.48300    6.02600   81.35100    2.58100    7.28500    0.00100   12.56200
