~Version ---------------------------------------------------
VERS. 2.0 : CWLS log ASCII Standard -VERSION 2.0
WRAP.  NO : One line per depth step
~Well ------------------------------------------------------
STRT.FT                  430.0 : START
STOP.FT                 3030.0 : STOP
STEP.FT                    0.5 : STEP
NULL.                  -999.25 : NULL VALUE
COMP.              RAJAMANDALA : Company
WELL.              RAJAMANDALA : Well Name
FLD .              RAJAMANDALA : Field
CTRY.              RAJAMANDALA : Country
STAT.              RAJAMANDALA : State
PROV.                          : Province
LOC .                          : Field Location
LATI. 001 10' 00.000" S    DMS : Latitude
LONG. 107 10' 00.000" E    DMS : Longitude
PD  .                      MSL : Permanent Datum
UWI .              RAJAMANDALA : Unique Well ID
EKB .FT                   99.0 : Elevation of KB
EDF .FT                   98.0 : Elevation of DF
EGL .FT                   81.0 : Elevation Ground lv
ELZ .FT                   99.0 : Elevation Log Zero
APD .FT                   18.0 : Above Perm. Datum
LMF .                       KB : Log measured from
MP  .                       KB : Drill measured from
OS  .                   IES-GR : Services
OS1 .                   BHC-GR : Other Services Ln 1
OS2 .                   FDC-GR : Other Services Ln 2
OS3 .                   SNP-GR : Other Services Ln 3
OS4 .                      HDT : Other Services Ln 4
SRVC.              RAJAMANDALA : Service company
RUNS.                        2 : Number of runs
DATE.                          : Date
~Curve Information -----------------------------------------
DEPT.FT    : 1  Depth
GR  .API   : 2  Gamma Ray
CALI.INCH  : 3  Caliper Log
SN  .OHMM  : 4  Short Normal
IND .OHMM  : 5  Induction Deep Resistivity
DT  .US/F  : 6  Delta-T
RHOB.G/CC  : 7  Bulk Density
PHID.%     : 8  Density Log Porosity for given zone matrix density
DRHO.G/CC  : 9  Density Log Correction
SNP .%     : 10  Sidewall Neutron Porosity
~Params ----------------------------------------------------
RUN .           1 : Run number
DATE.  2 AUG 2817 : Log date
DAY .           2 : Day
MONT.           8 : Month
YEAR.        2817 : Year
DD  .FT    2400.0 : Depth-Driller
DL  .FT    2406.0 : Depth-Logger
BLI .FT    2405.0 : Bottom log interval
TLI .FT     505.0 : Top log interval
CBD1.FT     505.0 : Casing-Driller
CBL1.FT     505.0 : Casing-Logger
CS  .IN    13.375 : Casing Diameter
CDF .FT     505.0 : Casing Depth From
CADT.FT    2400.0 : Casing Depth To
BS  .IN     9.625 : Bit Size
DFT .   GEL WATER : Hole Fluid type
TCS .     4 HOURS : Time circ. stopped
BHT .DEGC   65.56 : Bottom hole temp
MRT .DEGC   65.56 : Max recorded temp
LUN .        5110 : Logging unit No
LUL .         PWI : Logging unit Loc
ENGI. RAJAMANDALA : Recorded by
WITN. RAJAMANDALA : Witness
DPRE.         DNI : Data Prepared
DIG . RAJAMANDALA : Digitize
RUN .           2 : Run number
DATE.  2 AUG 2812 : Log date
DAY .           6 : Day
MONT.           8 : Month
YEAR.        2817 : Year
DD  .FT    3023.0 : Depth-Driller
DL  .FT    3023.0 : Depth-Logger
BLI .FT    3022.0 : Bottom log interval
TLI .FT    2405.0 : Top log interval
DFT .   GEL WATER : Hole Fluid type
MSS . CIRCULATION : Mud Sample Source
RMS .OHMM    4.28 : RM  @ Surface
RMT .DEGC   23.33 : Mud temp Surface
TCS .     6 HOURS : Time circ. stopped
BHT .DEGC   69.44 : Bottom hole temp
MRT .DEGC   69.44 : Max recorded temp
LUN .        5110 : Logging unit No
LUL .         PWI : Logging unit Loc
ENGI. RAJAMANDALA : Recorded by
WITN. RAJAMANDALA : Witness
DPRE.         DNI : Data Prepared
DIG . RAJAMANDALA : Digitize
~Other -----------------------------------------------------
BIT SIZE CHANGE : 9.6250 T 8.50 AT 2774
CALIPER CURVE RECORDED 7' TOO SHALLOW
SCALECHANGE AT 1582
~ASCII -----------------------------------------------------
# ...
 1014.00000   72.94000   10.76820    1.49600    1.35200  143.32700    -999.25    -999.25    -999.25    -999.25
 1014.50000   72.88000   10.74680    1.50100    1.34800  146.91900    -999.25    -999.25    -999.25    -999.25
 1015.00000   71.47000   10.70250    1.50500    1.35000  146.91900    -999.25    -999.25    -999.25    -999.25
 1015.50000   71.88200   10.68860    1.51500    1.35400  147.71800    -999.25    -999.25    -999.25    -999.25
 1016.00000   72.78800   10.67760    1.50500    1.35800  147.71800    -999.25    -999.25    -999.25    -999.25
 1016.50000   73.91800   10.67180    1.46900    1.36200  144.92300    -999.25    -999.25    -999.25    -999.25
 1017.00000   74.88200   10.58520    1.46900    1.36600  144.72400    -999.25    -999.25    -999.25    -999.25
 1017.50000   74.73500   10.55090    1.49600    1.37000  145.32300    -999.25    -999.25    -999.25    -999.25
 1018.00000   74.18000   10.54040    1.49600    1.37400  145.53900    -999.25    -999.25    -999.25    -999.25
 1018.50000   74.31600   10.56230    1.50500    1.37800  146.78600    -999.25    -999.25    -999.25    -999.25
 1019.00000   75.14500   10.61290    1.50500    1.38200  146.98600    -999.25    -999.25    -999.25    -999.25
 1019.50000   75.03600   10.62290    1.49600    1.38600  146.25400    -999.25    -999.25    -999.25    -999.25
 1020.00000   75.60100   10.60340    1.47800    1.39000  146.26500    -999.25    -999.25    -999.25    -999.25
 1020.50000   76.93000   10.64580    1.51200    1.39400  145.85500    -999.25    -999.25    -999.25    -999.25
 1021.00000   78.94000   10.64860    1.54300    1.39800  145.25600    -999.25    -999.25    -999.25    -999.25
 1021.50000   79.15400   10.60240    1.53300    1.40200  145.98800    -999.25    -999.25    -999.25    -999.25
 1022.00000   76.40800   10.52970    1.53300    1.40600  146.66500    -999.25    -999.25    -999.25    -999.25
 1022.50000   75.81200   10.53020    1.53300    1.41000  147.05300    -999.25    -999.25    -999.25    -999.25
 1023.00000   75.52800   10.55860    1.52400    1.41300  147.58500    -999.25    -999.25    -999.25    -999.25
 1023.50000   74.81400   10.55540    1.51500    1.43300  147.45200    -999.25    -999.25    -999.25    -999.25
 1024.00000   73.35800   10.51470    1.50500    1.43300  145.38900    -999.25    -999.25    -999.25    -999.25
 1024.50000   71.94100   10.47550    1.50500    1.43300  144.92300    -999.25    -999.25    -999.25    -999.25
 1025.00000   70.93000   10.48560    1.49600    1.42600  145.32300    -999.25    -999.25    -999.25    -999.25
 1025.50000   69.68300   10.49040    1.49600    1.41600  145.19000    -999.25    -999.25    -999.25    -999.25
 1026.00000   69.84300   10.49610    1.48700    1.40600  145.65500    -999.25    -999.25    -999.25    -999.25
 1026.50000   69.81000   10.55640    1.47800    1.39600  146.52000    -999.25    -999.25    -999.25    -999.25
 1027.00000   69.89300   10.59470    1.46900    1.38600  146.78600    -999.25    -999.25    -999.25    -999.25
 1027.50000   70.66200   10.62400    1.46900    1.37600  146.25400    -999.25    -999.25    -999.25    -999.25
 1028.00000   71.20600   10.70930    1.47600    1.37300  145.58900    -999.25    -999.25    -999.25    -999.25
 1028.50000   72.56400   10.81970    1.48600    1.37400  144.92300    -999.25    -999.25    -999.25    -999.25
 1029.00000   73.26300   10.77450    1.49600    1.37400  144.92300    -999.25    -999.25    -999.25    -999.25
 1029.50000   74.04100   10.64480    1.50500    1.37500  145.32300    -999.25    -999.25    -999.25    -999.25
 1030.00000   76.71800   10.56400    1.49600    1.37600  145.12700    -999.25    -999.25    -999.25    -999.25
 1030.50000   78.09300   10.53840    1.49600    1.37600  145.85500    -999.25    -999.25    -999.25    -999.25
 1031.00000   77.32100   10.72970    1.49600    1.37700  145.58900    -999.25    -999.25    -999.25    -999.25
 1031.50000   77.09300   10.99360    1.50500    1.37800  145.19000    -999.25    -999.25    -999.25    -999.25
 1032.00000   77.53500   11.10570    1.51800    1.37800  145.45600    -999.25    -999.25    -999.25    -999.25
 1032.50000   78.25900   10.88580    1.54000    1.37900  144.25800    -999.25    -999.25    -999.25    -999.25
 1033.00000   78.94600   10.96000    1.55200    1.38000  143.06100    -999.25    -999.25    -999.25    -999.25
 1033.50000   78.52700   11.18090    1.53300    1.38000  146.12100    -999.25    -999.25    -999.25    -999.25
 1034.00000   77.06000   11.69050    1.52400    1.38000  146.19700    -999.25    -999.25    -999.25    -999.25
 1034.50000   76.32800   11.54300    1.55200    1.40600  145.32300    -999.25    -999.25    -999.25    -999.25
 1035.00000   76.21200   11.26030    1.60100    1.44400  145.85500    -999.25    -999.25    -999.25    -999.25
 1035.50000   75.17300   11.00350    1.64000    1.48200  138.93500    -999.25    -999.25    -999.25    -999.25
 1036.00000   73.54100   10.94320    1.67700    1.52400  143.06100    -999.25    -999.25    -999.25    -999.25
 1036.50000   69.12200   10.87070    1.72300    1.55200  143.82600    -999.25    -999.25    -999.25    -999.25
 1037.00000   67.41200   10.86450    1.76600    1.54300  146.25400    -999.25    -999.25    -999.25    -999.25
 1037.50000   66.64300   10.75010    1.58100    1.51100  150.51200    -999.25    -999.25    -999.25    -999.25
 1038.00000   63.89300   10.69680    1.49600    1.49300  151.84300    -999.25    -999.25    -999.25    -999.25
 1038.50000   62.20700   10.67770    1.62000    1.47800  138.27000    -999.25    -999.25    -999.25    -999.25
 1039.00000   63.94100   10.74820    1.69200    1.46600  129.22200    -999.25    -999.25    -999.25    -999.25
 1039.50000   66.97600   10.76810    1.52400    1.45100  128.15700    -999.25    -999.25    -999.25    -999.25
 1040.00000   69.62000   10.73570    1.56200    1.42300  132.53900    -999.25    -999.25    -999.25    -999.25
 1040.50000   72.81600   10.69990    1.53300    1.38400  144.79000    -999.25    -999.25    -999.25    -999.25
 1041.00000   73.39400   10.80480    1.52400    1.36400  142.66100    -999.25    -999.25    -999.25    -999.25
 1041.50000   72.28300   10.74230    1.53300    1.36400  141.86300    -999.25    -999.25    -999.25    -999.25
 1042.00000   71.31000   10.74630    1.59100    1.36900  146.57200    -999.25    -999.25    -999.25    -999.25
 1042.50000   71.56500   10.87270    1.55200    1.37600  148.78200    -999.25    -999.25    -999.25    -999.25
 1043.00000   71.68200   10.87010    1.55200    1.38200  149.71400    -999.25    -999.25    -999.25    -999.25
 1043.50000   72.22000   10.92270    1.55200    1.38900  146.52000    -999.25    -999.25    -999.25    -999.25
 1044.00000   73.02100   10.94540    1.57100    1.39500  144.23300    -999.25    -999.25    -999.25    -999.25
 1044.50000   73.42300   10.90260    1.54300    1.40200  144.12500    -999.25    -999.25    -999.25    -999.25
 1045.00000   72.76200   10.86180    1.54300    1.40800  143.72600    -999.25    -999.25    -999.25    -999.25
 1045.50000   71.25700   10.80390    1.55200    1.41600  144.25800    -999.25    -999.25    -999.25    -999.25
 1046.00000   69.90800   10.78090    1.59100    1.40700  141.94300    -999.25    -999.25    -999.25    -999.25
 1046.50000   69.60000   10.81060    1.56700    1.40600  139.86700    -999.25    -999.25    -999.25    -999.25
 1047.00000   72.20700   10.88680    1.54500    1.40200  142.26200    -999.25    -999.25    -999.25    -999.25
 1047.50000   75.50900   10.96660    1.52400    1.39900  143.32700    -999.25    -999.25    -999.25    -999.25
 1048.00000   75.09900   10.99510    1.52400    1.39500  145.67300    -999.25    -999.25    -999.25    -999.25
 1048.50000   75.18200   10.96560    1.52800    1.39200  145.45600    -999.25    -999.25    -999.25    -999.25
 1049.00000   76.06700   10.95270    1.53100    1.38800  142.92700    -999.25    -999.25    -999.25    -999.25
 1049.50000   75.59600   10.95430    1.53300    1.38500  143.59300    -999.25    -999.25    -999.25    -999.25
 1050.00000   75.80000   10.94520    1.51500    1.38100  144.71700    -999.25    -999.25    -999.25    -999.25
