~Version ---------------------------------------------------
VERS. 2.0 : CWLS log ASCII Standard -VERSION 2.0
WRAP.  NO : One line per depth step
~Well ------------------------------------------------------
STRT.FT                  430.0 : START
STOP.FT                 3030.0 : STOP
STEP.FT                    0.5 : STEP
NULL.                  -999.25 : NULL VALUE
COMP.              RAJAMANDALA : Company
WELL.              RAJAMANDALA : Well Name
FLD .              RAJAMANDALA : Field
CTRY.              RAJAMANDALA : Country
STAT.              RAJAMANDALA : State
PROV.                          : Province
LOC .                          : Field Location
LATI. 001 10' 00.000" S    DMS : Latitude
LONG. 107 10' 00.000" E    DMS : Longitude
PD  .                      MSL : Permanent Datum
UWI .              RAJAMANDALA : Unique Well ID
EKB .FT                   99.0 : Elevation of KB
EDF .FT                   98.0 : Elevation of DF
EGL .FT                   81.0 : Elevation Ground lv
ELZ .FT                   99.0 : Elevation Log Zero
APD .FT                   18.0 : Above Perm. Datum
LMF .                       KB : Log measured from
MP  .                       KB : Drill measured from
OS  .                   IES-GR : Services
OS1 .                   BHC-GR : Other Services Ln 1
OS2 .                   FDC-GR : Other Services Ln 2
OS3 .                   SNP-GR : Other Services Ln 3
OS4 .                      HDT : Other Services Ln 4
SRVC.              RAJAMANDALA : Service company
RUNS.                        2 : Number of runs
DATE.                          : Date
~Curve Information -----------------------------------------
DEPT.FT    : 1  Depth
GR  .API   : 2  Gamma Ray
CALI.INCH  : 3  Caliper Log
SN  .OHMM  : 4  Short Normal
IND .OHMM  : 5  Induction Deep Resistivity
DT  .US/F  : 6  Delta-T
RHOB.G/CC  : 7  Bulk Density
PHID.%     : 8  Density Log Porosity for given zone matrix density
DRHO.G/CC  : 9  Density Log Correction
SNP .%     : 10  Sidewall Neutron Porosity
~Params ----------------------------------------------------
RUN .           1 : Run number
DATE.  2 AUG 2817 : Log date
DAY .           2 : Day
MONT.           8 : Month
YEAR.        2817 : Year
DD  .FT    2400.0 : Depth-Driller
DL  .FT    2406.0 : Depth-Logger
BLI .FT    2405.0 : Bottom log interval
TLI .FT     505.0 : Top log interval
CBD1.FT     505.0 : Casing-Driller
CBL1.FT     505.0 : Casing-Logger
CS  .IN    13.375 : Casing Diameter
CDF .FT     505.0 : Casing Depth From
CADT.FT    2400.0 : Casing Depth To
BS  .IN     9.625 : Bit Size
DFT .   GEL WATER : Hole Fluid type
TCS .     4 HOURS : Time circ. stopped
BHT .DEGC   65.56 : Bottom hole temp
MRT .DEGC   65.56 : Max recorded temp
LUN .        5110 : Logging unit No
LUL .         PWI : Logging unit Loc
ENGI. RAJAMANDALA : Recorded by
WITN. RAJAMANDALA : Witness
DPRE.         DNI : Data Prepared
DIG . RAJAMANDALA : Digitize
RUN .           2 : Run number
DATE.  2 AUG 2812 : Log date
DAY .           6 : Day
MONT.           8 : Month
YEAR.        2817 : Year
DD  .FT    3023.0 : Depth-Driller
DL  .FT    3023.0 : Depth-Logger
BLI .FT    3022.0 : Bottom log interval
TLI .FT    2405.0 : Top log interval
DFT .   GEL WATER : Hole Fluid type
MSS . CIRCULATION : Mud Sample Source
RMS .OHMM    4.28 : RM  @ Surface
RMT .DEGC   23.33 : Mud temp Surface
TCS .     6 HOURS : Time circ. stopped
BHT .DEGC   69.44 : Bottom hole temp
MRT .DEGC   69.44 : Max recorded temp
LUN .        5110 : Logging unit No
LUL .         PWI : Logging unit Loc
ENGI. RAJAMANDALA : Recorded by
WITN. RAJAMANDALA : Witness
DPRE.         DNI : Data Prepared
DIG . RAJAMANDALA : Digitize
~Other -----------------------------------------------------
BIT SIZE CHANGE : 9.6250 T 8.50 AT 2774
CALIPER CURVE RECORDED 7' TOO SHALLOW
SCALECHANGE AT 1582
~ASCII -----------------------------------------------------
# ...
 1160.00000   78.97000   10.31460    1.45100    1.24400  151.71000    -999.25    -999.25    -999.25    -999.25
 1160.50000   75.54800   10.36010    1.45100    1.24400  141.13100    -999.25    -999.25    -999.25    -999.25
 1161.00000   74.01900   10.31730    1.45100    1.24400  142.19600    -999.25    -999.25    -999.25    -999.25
 1161.50000   75.09800   10.33320    1.46000    1.25600  140.13300    -999.25    -999.25    -999.25    -999.25
 1162.00000   77.13900   10.32860    1.45100    1.27500  147.58500    -999.25    -999.25    -999.25    -999.25
 1162.50000   79.92100   10.46850    1.46000    1.30300  142.26200    -999.25    -999.25    -999.25    -999.25
 1163.00000   78.10200   10.69210    1.49600    1.35500  141.99600    -999.25    -999.25    -999.25    -999.25
 1163.50000   75.29400   11.00370    1.55200    1.41200  146.91900    -999.25    -999.25    -999.25    -999.25
 1164.00000   74.29500   11.54810    1.63100    1.46900  140.35200    -999.25    -999.25    -999.25    -999.25
 1164.50000   71.54400   11.95320    1.70200    1.53900  138.27000    -999.25    -999.25    -999.25    -999.25
 1165.00000   66.76100   11.98890    1.75000    1.60600  150.64500    -999.25    -999.25    -999.25    -999.25
 1165.50000   64.56100   12.12800    1.83200    1.67300  140.13300    -999.25    -999.25    -999.25    -999.25
 1166.00000   64.63300   12.26170    1.86600    1.74400  143.99200    -999.25    -999.25    -999.25    -999.25
 1166.50000   66.06400   12.25050    1.86600    1.75500  138.13700    -999.25    -999.25    -999.25    -999.25
 1167.00000   64.92800   12.47380    1.84400    1.72300  150.77800    -999.25    -999.25    -999.25    -999.25
 1167.50000   63.34400   12.62960    1.74400    1.67800  136.93900    -999.25    -999.25    -999.25    -999.25
 1168.00000   64.42100   12.71650    1.71300    1.65300  129.08800    -999.25    -999.25    -999.25    -999.25
 1168.50000   64.68600   12.73090    1.77700    1.63300  136.87300    -999.25    -999.25    -999.25    -999.25
 1169.00000   66.46300   12.64380    1.74400    1.61300  127.29200    -999.25    -999.25    -999.25    -999.25
 1169.50000   69.36100   12.34690    1.70200    1.59200  125.62900    -999.25    -999.25    -999.25    -999.25
 1170.00000   68.73900   12.56750    1.69200    1.57200  124.83000    -999.25    -999.25    -999.25    -999.25
 1170.50000   66.17200   12.63250    1.71300    1.55200  135.74200    -999.25    -999.25    -999.25    -999.25
 1171.00000   64.79200   12.47460    1.70200    1.53200  139.60100    -999.25    -999.25    -999.25    -999.25
 1171.50000   66.24800   12.56820    1.71300    1.51100  134.01200    -999.25    -999.25    -999.25    -999.25
 1172.00000   67.37200   12.75260    1.72300    1.49600  124.53100    -999.25    -999.25    -999.25    -999.25
 1172.50000   65.51000   12.71990    1.67100    1.49000  122.30200    -999.25    -999.25    -999.25    -999.25
 1173.00000   64.92600   12.58810    1.65100    1.48500  123.03400    -999.25    -999.25    -999.25    -999.25
 1173.50000   65.60500   12.63940    1.66100    1.48000  126.69300    -999.25    -999.25    -999.25    -999.25
 1174.00000   67.81100   12.67810    1.65100    1.47400  135.84200    -999.25    -999.25    -999.25    -999.25
 1174.50000   69.82500   13.01680    1.64000    1.46900  137.80400    -999.25    -999.25    -999.25    -999.25
 1175.00000   70.03900   13.18020    1.65100    1.46400  137.33900    -999.25    -999.25    -999.25    -999.25
 1175.50000   71.78600   12.28910    1.64600    1.45800  136.34100    -999.25    -999.25    -999.25    -999.25
 1176.00000   73.07200   11.63100    1.64000    1.45100  134.41100    -999.25    -999.25    -999.25    -999.25
 1176.50000   71.48700   11.05780    1.64700    1.45500  134.21200    -999.25    -999.25    -999.25    -999.25
 1177.00000   66.66100   10.83780    1.63000    1.46300  134.94300    -999.25    -999.25    -999.25    -999.25
 1177.50000   62.57000   10.54660    1.64000    1.47100  135.60900    -999.25    -999.25    -999.25    -999.25
 1178.00000   62.43000   10.39130    1.65100    1.47900  135.16900    -999.25    -999.25    -999.25    -999.25
 1178.50000   63.52800   10.30240    1.63700    1.48700  135.07700    -999.25    -999.25    -999.25    -999.25
 1179.00000   64.75200   10.29570    1.63000    1.49500  135.21000    -999.25    -999.25    -999.25    -999.25
 1179.50000   64.90000   10.27870    1.64000    1.50300  135.21000    -999.25    -999.25    -999.25    -999.25
 1180.00000   63.46200   10.29100    1.65100    1.50500  135.80300    -999.25    -999.25    -999.25    -999.25
 1180.50000   61.52900   10.27690    1.65000    1.50500  136.80600    -999.25    -999.25    -999.25    -999.25
 1181.00000   62.34900   10.22590    1.65700    1.50000  136.40700    -999.25    -999.25    -999.25    -999.25
 1181.50000   64.55900   10.09730    1.66100    1.49200  136.40700    -999.25    -999.25    -999.25    -999.25
 1182.00000   66.72700   10.05090    1.63800    1.48500  136.42900    -999.25    -999.25    -999.25    -999.25
 1182.50000   68.23700   10.06470    1.63000    1.47700  135.34300    -999.25    -999.25    -999.25    -999.25
 1183.00000   69.05400   10.11920    1.59100    1.47000  134.67700    -999.25    -999.25    -999.25    -999.25
 1183.50000   69.02600   10.13450    1.59100    1.46200  134.67700    -999.25    -999.25    -999.25    -999.25
 1184.00000   68.24200   10.19290    1.60100    1.45400  134.01200    -999.25    -999.25    -999.25    -999.25
 1184.50000   70.65600   10.27440    1.59100    1.44700  133.48000    -999.25    -999.25    -999.25    -999.25
 1185.00000   72.71500   10.21590    1.57100    1.44200  134.81000    -999.25    -999.25    -999.25    -999.25
 1185.50000   74.53200   10.28850    1.56200    1.43300  137.33900    -999.25    -999.25    -999.25    -999.25
 1186.00000   77.13800   10.40130    1.58100    1.43500  138.02000    -999.25    -999.25    -999.25    -999.25
 1186.50000   75.72800   10.38260    1.57100    1.43800  137.55700    -999.25    -999.25    -999.25    -999.25
 1187.00000   73.45100   10.39700    1.56200    1.44000  136.80600    -999.25    -999.25    -999.25    -999.25
 1187.50000   71.46800   10.43270    1.55200    1.44200  135.80800    -999.25    -999.25    -999.25    -999.25
 1188.00000   70.90300   10.52720    1.57700    1.44400  135.55700    -999.25    -999.25    -999.25    -999.25
 1188.50000   71.70700   10.59660    1.60100    1.44600  135.87500    -999.25    -999.25    -999.25    -999.25
 1189.00000   72.31700   10.62930    1.61100    1.44800  136.80600    -999.25    -999.25    -999.25    -999.25
 1189.50000   73.58700   10.93180    1.60100    1.44200  137.07300    -999.25    -999.25    -999.25    -999.25
 1190.00000   73.71500   11.11480    1.62000    1.44700  136.42900    -999.25    -999.25    -999.25    -999.25
 1190.50000   73.04600   11.13310    1.62000    1.45500  136.14100    -999.25    -999.25    -999.25    -999.25
 1191.00000   72.44300   10.87450    1.62000    1.46300  135.47600    -999.25    -999.25    -999.25    -999.25
 1191.50000   71.35400   10.35550    1.62100    1.45100  135.07700    -999.25    -999.25    -999.25    -999.25
 1192.00000   70.20500   10.43240    1.62000    1.46200  134.81000    -999.25    -999.25    -999.25    -999.25
 1192.50000   70.49100   10.49000    1.65400    1.47800  136.40700    -999.25    -999.25    -999.25    -999.25
 1193.00000   70.89500   10.45000    1.68100    1.50500  135.14300    -999.25    -999.25    -999.25    -999.25
 1193.50000   71.43000   10.25600    1.70700    1.53800  133.94500    -999.25    -999.25    -999.25    -999.25
 1194.00000   72.23800   10.24000    1.77700    1.64400  134.22800    -999.25    -999.25    -999.25    -999.25
 1194.50000   73.05200   10.17580    1.83200    1.75500  135.54200    -999.25    -999.25    -999.25    -999.25
 1195.00000   71.95300   10.14510    2.00900    1.86500  135.87500    -999.25    -999.25    -999.25    -999.25
 1195.50000   65.00700   10.03490    2.25800    1.93000  137.07300    -999.25    -999.25    -999.25    -999.25
 1196.00000   59.63600   10.02750    2.34300    2.01200  132.48200    -999.25    -999.25    -999.25    -999.25
