~Version ---------------------------------------------------
VERS. 2.0 : CWLS log ASCII Standard -VERSION 2.0
WRAP.  NO : One line per depth step
~Well ------------------------------------------------------
STRT.FT                  430.0 : START
STOP.FT                 3030.0 : STOP
STEP.FT                    0.5 : STEP
NULL.                  -999.25 : NULL VALUE
COMP.              RAJAMANDALA : Company
WELL.              RAJAMANDALA : Well Name
FLD .              RAJAMANDALA : Field
CTRY.              RAJAMANDALA : Country
STAT.              RAJAMANDALA : State
PROV.                          : Province
LOC .                          : Field Location
LATI. 001 10' 00.000" S    DMS : Latitude
LONG. 107 10' 00.000" E    DMS : Longitude
PD  .                      MSL : Permanent Datum
UWI .              RAJAMANDALA : Unique Well ID
EKB .FT                   99.0 : Elevation of KB
EDF .FT                   98.0 : Elevation of DF
EGL .FT                   81.0 : Elevation Ground lv
ELZ .FT                   99.0 : Elevation Log Zero
APD .FT                   18.0 : Above Perm. Datum
LMF .                       KB : Log measured from
MP  .                       KB : Drill measured from
OS  .                   IES-GR : Services
OS1 .                   BHC-GR : Other Services Ln 1
OS2 .                   FDC-GR : Other Services Ln 2
OS3 .                   SNP-GR : Other Services Ln 3
OS4 .                      HDT : Other Services Ln 4
SRVC.              RAJAMANDALA : Service company
RUNS.                        2 : Number of runs
DATE.                          : Date
~Curve Information -----------------------------------------
DEPT.FT    : 1  Depth
GR  .API   : 2  Gamma Ray
CALI.INCH  : 3  Caliper Log
SN  .OHMM  : 4  Short Normal
IND .OHMM  : 5  Induction Deep Resistivity
DT  .US/F  : 6  Delta-T
RHOB.G/CC  : 7  Bulk Density
PHID.%     : 8  Density Log Porosity for given zone matrix density
DRHO.G/CC  : 9  Density Log Correction
SNP .%     : 10  Sidewall Neutron Porosity
~Params ----------------------------------------------------
RUN .           1 : Run number
DATE.  2 AUG 2817 : Log date
DAY .           2 : Day
MONT.           8 : Month
YEAR.        2817 : Year
DD  .FT    2400.0 : Depth-Driller
DL  .FT    2406.0 : Depth-Logger
BLI .FT    2405.0 : Bottom log interval
TLI .FT     505.0 : Top log interval
CBD1.FT     505.0 : Casing-Driller
CBL1.FT     505.0 : Casing-Logger
CS  .IN    13.375 : Casing Diameter
CDF .FT     505.0 : Casing Depth From
CADT.FT    2400.0 : Casing Depth To
BS  .IN     9.625 : Bit Size
DFT .   GEL WATER : Hole Fluid type
TCS .     4 HOURS : Time circ. stopped
BHT .DEGC   65.56 : Bottom hole temp
MRT .DEGC   65.56 : Max recorded temp
LUN .        5110 : Logging unit No
LUL .         PWI : Logging unit Loc
ENGI. RAJAMANDALA : Recorded by
WITN. RAJAMANDALA : Witness
DPRE.         DNI : Data Prepared
DIG . RAJAMANDALA : Digitize
RUN .           2 : Run number
DATE.  2 AUG 2812 : Log date
DAY .           6 : Day
MONT.           8 : Month
YEAR.        2817 : Year
DD  .FT    3023.0 : Depth-Driller
DL  .FT    3023.0 : Depth-Logger
BLI .FT    3022.0 : Bottom log interval
TLI .FT    2405.0 : Top log interval
DFT .   GEL WATER : Hole Fluid type
MSS . CIRCULATION : Mud Sample Source
RMS .OHMM    4.28 : RM  @ Surface
RMT .DEGC   23.33 : Mud temp Surface
TCS .     6 HOURS : Time circ. stopped
BHT .DEGC   69.44 : Bottom hole temp
MRT .DEGC   69.44 : Max recorded temp
LUN .        5110 : Logging unit No
LUL .         PWI : Logging unit Loc
ENGI. RAJAMANDALA : Recorded by
WITN. RAJAMANDALA : Witness
DPRE.         DNI : Data Prepared
DIG . RAJAMANDALA : Digitize
~Other -----------------------------------------------------
BIT SIZE CHANGE : 9.6250 T 8.50 AT 2774
CALIPER CURVE RECORDED 7' TOO SHALLOW
SCALECHANGE AT 1582
~ASCII -----------------------------------------------------
# ...
 2802.50000   44.91400    8.65770  248.36600  167.10100   47.68500    2.73400   -2.06900    0.00800    6.50600
 2803.00000   38.09800    8.66090  248.36600  152.85700   47.81800    2.73600   -2.18900    0.00800    6.88500
 2803.50000   28.31500    8.66400  246.84500  151.92100   48.55000    2.72200   -1.29600    0.00800    6.45100
 2804.00000   24.55400    8.66720  245.33300  159.97500   48.28300    2.71500   -1.06900    0.00500    5.76600
 2804.50000   24.18600    8.67030  242.33700  167.61500   48.41700    2.73600   -2.38800    0.01000    5.38600
 2805.00000   24.55300    8.67350  239.37700  176.06000   48.08400    2.73900   -2.46800    0.01200    5.70600
 2805.50000   25.69800    8.67650  236.45300  176.06000   47.15200    2.73200   -2.02900    0.00100    5.83000
 2806.00000   26.77300    8.68050  233.56500  160.55800   46.88600    2.73100   -1.98900    0.00000    6.12600
 2806.50000   27.10600    8.70560  230.71300  158.59700   46.48700    2.73600   -2.20900    0.01600    6.24600
 2807.00000   26.14200    8.69200  226.49900  158.59700   46.12100    2.73200   -1.98900    0.02200    6.12600
 2807.50000   25.66500    8.68030  227.89500  178.23600   46.08800    2.72900   -1.78900    0.02200    5.65500
 2808.00000   25.74400    8.68210  225.11100  179.33500   46.71800    2.76000   -3.74800    0.02700    5.36600
 2808.50000   25.65400    8.69460  223.73300  201.54200   48.08400    2.77100   -4.34700    0.01700    5.08700
 2809.00000   24.93900    8.71060  222.36200  198.47100   48.28300    2.78000   -4.86700    0.03100    5.60600
 2809.50000   24.77100    8.70930  222.36200  181.55200   48.08400    2.77700   -4.70700    0.04000    6.12300
 2810.00000   25.19100    8.76210  223.73300  179.33500   47.85100    2.75100   -3.18800    0.03200    6.38600
 2810.50000   25.53700    8.78340  222.36200  180.44000   47.61800    2.73600   -2.26800    0.01600    6.08600
 2811.00000   24.79700    8.55660  218.30100  204.66300   47.75100    2.73800   -2.14900    0.00200    5.38600
 2811.50000   23.25200    8.54800  214.31400  215.63500   47.41800    2.74900   -2.98900    0.00100    5.16700
 2812.00000   22.81600    8.55950  210.39900  189.53100   47.90700    2.75700   -3.50800    0.00800    5.00700
 2812.50000   24.76600    8.57000  206.55700  248.37100   48.68300    2.75500   -3.38800    0.00900    5.16700
 2813.00000   25.85800    8.61450  206.55700  226.49900   50.54600    2.75100   -3.12800    0.00600    5.12700
 2813.50000   27.06900    8.60150  207.83000  265.73300   50.81200    2.76500   -3.98700    0.02300    5.60600
 2814.00000   28.08400    8.57450  209.11100  243.83000   49.21500    2.76700   -4.06700    0.02100    5.82600
 2814.50000   28.04600    8.58790  205.29100  232.13500   49.01500    2.72600   -1.60900    0.00500    5.72600
 2815.00000   27.74700    8.59130  210.39900  223.73300   49.08200    2.73300   -2.02900    0.00100    5.98600
 2815.50000   27.65100    8.57100  216.96400  240.85200   50.08000    2.72600   -1.66900    0.00700    6.18200
 2816.00000   27.06800    8.54770  223.73300  229.29900   48.84900    2.71300   -0.82900    0.01200    6.90500
 2816.50000   25.93000    8.60160  225.11100  275.71200   48.41700    2.71300   -0.86900    0.04300    7.44500
 2817.00000   25.78100    8.61410  228.59700  264.11000   48.55000    2.71700   -1.10900    0.07000    6.64600
 2817.50000   25.34200    8.61430  234.28500  237.91000   49.14800    2.70400   -0.31000    0.04700    5.98600
 2818.00000   25.13900    8.61430  242.33700  237.91000   49.08200    2.72400   -1.48900    0.03600    5.88600
 2818.50000   25.38800    8.61430  240.85200  300.47900   48.94900    2.74800   -2.98800    0.07700    6.84500
 2819.00000   26.66700    8.61380  248.36600  248.36600   48.01700    2.73500   -2.16900    0.13100    8.08500
 2819.50000   28.00400    8.60080  252.98700  242.33700   47.76200    2.71300   -0.79600    0.19100    8.84000
 2820.00000   27.82900    8.61080  254.54600  311.76300   47.74000    2.66800    6.64600    0.14800    8.88400
 2820.50000   28.05100    8.65290  253.76700  275.71200   47.28500    2.62800    4.12700    0.04900    5.16700
 2821.00000   30.01900    8.62990  252.98700  255.33100   46.98600    2.69100   -0.03000    0.00500    5.28600
 2821.50000   30.43400    8.62730  252.98700  294.99100   46.75300    2.72800   -1.83100    0.00900    4.42800
 2822.00000   31.26300    8.62750  251.48500  356.88700   46.88100    2.75000   -3.04800    0.01200    4.38700
 2822.50000   31.75400    8.62750  247.62200  252.98700   47.81800    2.76900   -4.24700    0.01500    4.08700
 2823.00000   32.68300    8.62750  243.76000  293.18400   47.75100    2.78800   -5.36600    0.02700    3.86700
 2823.50000   32.70000    8.62750  240.85200  260.88000   47.98400    2.79000   -5.46100    0.01900    3.96300
 2824.00000   33.27900    8.62750  237.91000  269.84800   48.48300    2.78800   -5.34600    0.01500    4.22700
 2824.50000   35.83800    8.62830  232.13500  282.57300   48.28300    2.78600   -5.20700    0.01900    4.44700
 2825.00000   38.73800    8.61370  230.00600  287.83000   48.74900    2.77500   -4.46700    0.01700    4.32700
 2825.50000   43.03000    8.60140  226.49900  282.57300   48.15000    2.77600   -4.43200    0.01000    4.36400
 2826.00000   52.05000    8.60100  223.73300  300.47900   48.01700    2.75700   -3.50800    0.01400    4.48700
 2826.50000   61.20200    8.60100  219.64600  304.19500   48.35000    2.74600   -2.82800    0.02000    4.52700
 2827.00000   73.30200    8.60020  221.00000  294.99100   49.08200    2.75100   -3.12800    0.01800    4.76700
 2827.50000   73.78800    8.61330  221.00000  302.33100   50.81200    2.74700   -2.71000    0.02000    5.48600
 2828.00000   54.95100    8.62760  225.11100  293.18400   50.81200    2.71700   -1.18900    0.02200    6.44600
 2828.50000   33.66700    8.61500  226.49900  254.54600   51.34400    2.70500   -0.39000    0.02600    7.78500
 2829.00000   28.94600    8.61420  229.29900  274.86800   49.68100    2.69600    0.21000    0.00000    8.36400
 2829.50000   28.00100    8.61440  233.56500  286.06600   48.55000    2.69000    0.53000   -0.00200    8.44800
 2830.00000   30.07500    8.62830  233.56500  239.38100   47.93800    2.65400    2.80800   -0.00400    8.48400
 2830.50000   32.04500    8.61680  233.56500  237.91000   47.35200    2.63700    3.72800    0.01100    7.96500
 2831.00000   31.00800    8.62760  230.71300  242.33700   47.48500    2.67700    1.44900    0.02900    6.24600
 2831.50000   31.72200    8.62750  233.56500  242.33700   47.21900    2.71000   -0.76900    0.02300    5.57100
 2832.00000   33.19500    8.62740  227.89500  236.45300   46.98800    2.73900   -2.38800    0.01000    4.64700
 2832.50000   34.61400    8.62680  227.89500  242.34100   47.55200    2.75600   -3.44800    0.00200    4.36700
 2833.00000   36.20100    8.65560  224.42200  228.59700   47.88400    2.76500   -3.94700   -0.00400    4.46700
 2833.50000   37.24200    8.63360  215.63500  218.36300   47.81800    2.76400   -3.90700    0.00100    4.36700
 2834.00000   40.40900    8.62730  209.74600  211.69600   47.88400    2.79400   -5.58600    0.01300    4.52700
 2834.50000   46.14300    8.62750  207.83000  205.29100   49.81400    2.76300   -3.98700    0.01500    4.56700
 2835.00000   51.24000    8.62750  202.78400  204.03400   50.47900    2.76100   -3.74800    0.01100    4.74700
 2835.50000   54.35100    8.62820  204.03400  248.36600   50.87800    2.75000   -3.04800    0.00500    5.21700
 2836.00000   59.06100    8.63840  204.03400  230.71300   50.27900    2.72200   -1.25400   -0.00200    5.40600
 2836.50000   74.88900    8.64870  207.83000  229.29900   49.48100    2.69900    0.05000   -0.00100    5.68600
 2837.00000   92.38400    8.65840  209.11100  310.29100   47.28500    2.71400   -0.90900    0.01500    5.64600
 2837.50000  119.68900    8.70040  209.11100  361.30000   47.08600    2.72300   -1.42900    0.02000    5.36800
 2838.00000  145.83800    8.66980  209.11100  315.61800   46.75300    2.75500   -3.94700    0.03700    5.12700
 2838.50000  152.98400    8.66310  206.55700  325.46500   46.95300    2.76400   -2.90800    0.03900    4.40700
