~Version ---------------------------------------------------
VERS. 2.0 : CWLS log ASCII Standard -VERSION 2.0
WRAP.  NO : One line per depth step
~Well ------------------------------------------------------
STRT.FT                  430.0 : START
STOP.FT                 3030.0 : STOP
STEP.FT                    0.5 : STEP
NULL.                  -999.25 : NULL VALUE
COMP.              RAJAMANDALA : Company
WELL.              RAJAMANDALA : Well Name
FLD .              RAJAMANDALA : Field
CTRY.              RAJAMANDALA : Country
STAT.              RAJAMANDALA : State
PROV.                          : Province
LOC .                          : Field Location
LATI. 001 10' 00.000" S    DMS : Latitude
LONG. 107 10' 00.000" E    DMS : Longitude
PD  .                      MSL : Permanent Datum
UWI .              RAJAMANDALA : Unique Well ID
EKB .FT                   99.0 : Elevation of KB
EDF .FT                   98.0 : Elevation of DF
EGL .FT                   81.0 : Elevation Ground lv
ELZ .FT                   99.0 : Elevation Log Zero
APD .FT                   18.0 : Above Perm. Datum
LMF .                       KB : Log measured from
MP  .                       KB : Drill measured from
OS  .                   IES-GR : Services
OS1 .                   BHC-GR : Other Services Ln 1
OS2 .                   FDC-GR : Other Services Ln 2
OS3 .                   SNP-GR : Other Services Ln 3
OS4 .                      HDT : Other Services Ln 4
SRVC.              RAJAMANDALA : Service company
RUNS.                        2 : Number of runs
DATE.                          : Date
~Curve Information -----------------------------------------
DEPT.FT    : 1  Depth
GR  .API   : 2  Gamma Ray
CALI.INCH  : 3  Caliper Log
SN  .OHMM  : 4  Short Normal
IND .OHMM  : 5  Induction Deep Resistivity
DT  .US/F  : 6  Delta-T
RHOB.G/CC  : 7  Bulk Density
PHID.%     : 8  Density Log Porosity for given zone matrix density
DRHO.G/CC  : 9  Density Log Correction
SNP .%     : 10  Sidewall Neutron Porosity
~Params ----------------------------------------------------
RUN .           1 : Run number
DATE.  2 AUG 2817 : Log date
DAY .           2 : Day
MONT.           8 : Month
YEAR.        2817 : Year
DD  .FT    2400.0 : Depth-Driller
DL  .FT    2406.0 : Depth-Logger
BLI .FT    2405.0 : Bottom log interval
TLI .FT     505.0 : Top log interval
CBD1.FT     505.0 : Casing-Driller
CBL1.FT     505.0 : Casing-Logger
CS  .IN    13.375 : Casing Diameter
CDF .FT     505.0 : Casing Depth From
CADT.FT    2400.0 : Casing Depth To
BS  .IN     9.625 : Bit Size
DFT .   GEL WATER : Hole Fluid type
TCS .     4 HOURS : Time circ. stopped
BHT .DEGC   65.56 : Bottom hole temp
MRT .DEGC   65.56 : Max recorded temp
LUN .        5110 : Logging unit No
LUL .         PWI : Logging unit Loc
ENGI. RAJAMANDALA : Recorded by
WITN. RAJAMANDALA : Witness
DPRE.         DNI : Data Prepared
DIG . RAJAMANDALA : Digitize
RUN .           2 : Run number
DATE.  2 AUG 2812 : Log date
DAY .           6 : Day
MONT.           8 : Month
YEAR.        2817 : Year
DD  .FT    3023.0 : Depth-Driller
DL  .FT    3023.0 : Depth-Logger
BLI .FT    3022.0 : Bottom log interval
TLI .FT    2405.0 : Top log interval
DFT .   GEL WATER : Hole Fluid type
MSS . CIRCULATION : Mud Sample Source
RMS .OHMM    4.28 : RM  @ Surface
RMT .DEGC   23.33 : Mud temp Surface
TCS .     6 HOURS : Time circ. stopped
BHT .DEGC   69.44 : Bottom hole temp
MRT .DEGC   69.44 : Max recorded temp
LUN .        5110 : Logging unit No
LUL .         PWI : Logging unit Loc
ENGI. RAJAMANDALA : Recorded by
WITN. RAJAMANDALA : Witness
DPRE.         DNI : Data Prepared
DIG . RAJAMANDALA : Digitize
~Other -----------------------------------------------------
BIT SIZE CHANGE : 9.6250 T 8.50 AT 2774
CALIPER CURVE RECORDED 7' TOO SHALLOW
SCALECHANGE AT 1582
~ASCII -----------------------------------------------------
# ...
 2474.00000   38.50400   10.76550    6.29300    4.93000   80.95100    2.54500    9.50400    0.03700   18.66600
 2474.50000   37.15600   10.70140    6.61800    5.17600   80.02000    2.52800   10.52300    0.03200   19.35700
 2475.00000   35.74400   10.72200    6.82400    5.70200   79.75400    2.52500   10.64300    0.03800   19.27700
 2475.50000   33.46100   10.69700    7.34600    5.92500   79.48800    2.52100   10.88300    0.01900   18.95700
 2476.00000   31.82000   10.73950    8.10500    6.30000   79.32100    2.54100    9.61000    0.01100   17.63800
 2476.50000   29.62100   10.68840    8.56600    6.45700   78.22400    2.55800    8.76400    0.00400   14.54000
 2477.00000   28.13000   10.67440    9.02500    6.85800   76.06100    2.55500    8.92400   -0.00100   13.62100
 2477.50000   28.35000   10.71880    9.27800    6.99400   74.69700    2.55800    8.75900   -0.00800   12.84100
 2478.00000   29.56500   10.68870    9.10900    7.12400   73.49000    2.55900    8.65400   -0.00800   12.28700
 2478.50000   29.12400   10.66000    8.61900    7.08000   72.70100    2.56200    8.52400   -0.00300   12.04200
 2479.00000   31.08300   10.62220    8.46200    7.08000   73.23400    2.56400    8.40400   -0.00800   11.72200
 2479.50000   34.10100   10.62220    8.94300    7.12400   74.23200    2.57100    7.88500    0.00400   11.64200
 2480.00000   36.18200   10.62210    8.94300    6.70000   75.56200    2.57800    7.48500    0.00000   12.00500
 2480.50000   36.80400   10.61190    8.56600    6.75400   76.29400    2.56800    8.20500   -0.00500   12.44200
 2481.00000   35.75300   10.59150    9.05300    6.83100   76.16100    2.57000    8.24500   -0.00600   12.36200
 2481.50000   32.86800   10.57690    9.27800    7.16800   76.82600    2.57700    7.56500   -0.00100   12.16200
 2482.00000   33.00200   10.56950    9.48300    7.12400   75.98200    2.57200    7.88500    0.00000   12.36200
 2482.50000   34.34300   10.57840   10.05000    7.45400   75.49600    2.56900    8.16500    0.00000   11.76200
 2483.00000   31.59500   10.58570   10.42700    8.05600   75.19600    2.56000    8.48400   -0.00400   12.26200
 2483.50000   27.40200   10.60980   10.81900    8.00600   74.23200    2.58500    7.12500   -0.00600   11.72200
 2484.00000   25.54300   10.56180   11.36800    8.24100   72.50200    2.60200    6.12600    0.00500   11.35200
 2484.50000   25.20000   10.50280   11.86300    8.28200   73.10000    2.57800    7.44500    0.00300   11.00300
 2485.00000   24.58700   10.56400   11.36400    8.20600   72.70100    2.57000    8.00500    0.00200   10.86300
 2485.50000   21.11000   10.49300   11.22500    8.23100   70.30600    2.57900    7.48500    0.00100   11.00300
 2486.00000   20.25000   10.48190   11.43400    8.15500   70.97100    2.58100    7.31700    0.00400   10.97300
 2486.50000   19.96100   10.45690   11.12200    8.25600   71.63700    2.59100    6.72600    0.00500   10.40300
 2487.00000   19.73200   10.44110   10.95300    8.10500   72.43500    2.59800    6.28600    0.00700   10.32300
 2487.50000   19.82200   10.50020   10.81900    8.05600   75.09600    2.58100    7.60500    0.00800   11.08300
 2488.00000   19.66700   10.53410   10.81900    7.86000   74.69700    2.56200    8.47900    0.00200   10.88300
 2488.50000   18.75800   10.59980   11.15600    8.00600   75.03000    2.56000    8.64400    0.00600   10.80300
 2489.00000   18.90500   10.63220   10.88600    7.76400   74.49800    2.55400    8.92400    0.00600   11.12300
 2489.50000   18.41800   10.64770   11.36400    7.86000   73.43300    2.54000    9.88300    0.00400   11.80200
 2490.00000   16.93000   10.72450   12.04600    7.62200   73.86200    2.51700   11.16300    0.00300   13.01100
 2490.50000   15.21300   10.68750   12.81100    7.34600   74.23200    2.50600   12.00200   -0.00500   13.44100
 2491.00000   14.20500   10.72100   13.66400    7.43700   73.63300    2.51800   11.08300   -0.00700   14.00100
 2491.50000   14.80400   10.78130   14.75600    7.16800   73.96500    2.52400   10.76300    0.00900   14.64000
 2492.00000   14.60100   10.78920   15.35600    7.05900   73.96500    2.52500   10.71100    0.00100   14.47600
 2492.50000   14.12300   10.80730   15.26200    6.86600   73.96500    2.52900   10.48300   -0.00600   13.42100
 2493.00000   14.48900   10.82150   16.63300    6.65900   74.29800    2.53400   10.16300   -0.01000   13.08100
 2493.50000   14.87700   10.84510   16.22900    6.41800   74.76400    2.52100   10.92300   -0.00800   14.64000
 2494.00000   14.90600   10.89110   15.55800    6.40200   73.36700    2.50600   11.86200   -0.01000   15.24000
 2494.50000   14.61300   10.89850   14.00500    6.28100   73.63300    2.49900   12.24200   -0.00200   14.88000
 2495.00000   15.82700   10.91280   12.77100    6.30000   73.16700    2.48700   12.96100    0.00100   15.36000
 2495.50000   17.01600   10.90480   11.93700    6.30000   73.10000    2.48500   13.12100    0.01500   15.95900
 2496.00000   17.79600   10.98440   11.64700    6.26200   73.43300    2.47600   13.61900    0.01600   16.19500
 2496.50000   20.16100   10.98940   11.43400    6.22300   74.36500    2.47500   13.80100    0.00700   17.67800
 2497.00000   20.98300   11.01790   10.75300    6.22300   74.69700    2.46900   14.04100    0.00300   18.59800
 2497.50000   22.16500   11.00100    9.98800    6.26200   73.96500    2.45700   14.80000   -0.00800   17.63800
 2498.00000   24.22200   11.06780    9.49800    6.61800   73.30000    2.46500   14.80000   -0.00800   16.45600
 2498.50000   26.95300   11.09140    9.27800    6.61800   73.83200    2.50900   11.64200    0.00200   15.56000
 2499.00000   28.37700   11.04250    9.16500    6.53700   74.23200    2.53200   10.28300    0.00900   14.68000
 2499.50000   26.82600   11.05490    9.16500    6.65900   74.56400    2.52700   10.80300    0.00900   14.44000
 2500.00000   23.88200   11.05390    9.22200    6.53700   74.76800    2.50800   11.72200    0.00300   14.65400
 2500.50000   20.83600   11.08190    9.10900    6.92600   74.56400    2.50100   12.20200   -0.00100   14.08100
 2501.00000   19.71800   11.06960    9.13700    7.14600   74.96300    2.52700   10.56300    0.00600   13.88100
 2501.50000   20.87400   11.13010    9.10900    7.21200   75.76200    2.55000    9.12400    0.01400   14.68000
 2502.00000   24.97900   11.19090    9.33600    6.99400   76.55500    2.54700    9.46400    0.00500   14.64000
 2502.50000   24.44300   11.18510    9.33600    7.01200   77.15900    2.54100    9.74400    0.00500   14.00100
 2503.00000   24.50700   11.15390    9.33600    7.03400   76.22800    2.53300   10.24300    0.00800   14.36000
 2503.50000   24.85700   11.17760    9.22200    7.12400   74.89700    2.50700   11.98200    0.00300   14.68000
 2504.00000   27.93100   11.09460    8.83300    7.12400   74.56400    2.49100   12.76100   -0.00600   15.20700
 2504.50000   31.71700   11.05770    8.23100    7.12400   74.43100    2.49500   12.48200   -0.00200   15.79900
 2505.00000   32.91200   11.08820    8.10500    7.12400   74.43100    2.49800   12.28200   -0.00100   16.55900
 2505.50000   31.91600   11.13700    8.10500    7.12800   75.56200    2.48800   13.04100   -0.00900   16.51900
 2506.00000   30.64300   11.19190    8.22100    7.09200   75.87700    2.48900   12.80100   -0.01000   15.75900
 2506.50000   28.99500   11.17730    8.25600    7.11100   75.69500    2.49900   12.14200   -0.01000   15.83900
 2507.00000   27.32900   11.15550    8.51400    7.12400   75.56200    2.52500   10.68300   -0.00500   15.12000
 2507.50000   25.65700   11.11390    8.77900    7.12500   75.42900    2.54500    9.50400   -0.00100   15.08000
 2508.00000   25.18600   11.21650    8.52400    6.95100   74.96300    2.54900    9.20400    0.00900   14.96100
 2508.50000   27.14200   11.24600    8.15500    6.80700   74.96300    2.52100   10.94300    0.01200   15.08000
 2509.00000   29.91800   11.30410    8.05600    6.70000   74.53100    2.51400   11.36200    0.00400   14.28000
 2509.50000   32.23300   11.12860    7.90900    6.61800   75.16300    2.51700   11.18300   -0.00400   13.52100
 2510.00000   33.08100   11.07630    7.34600    6.44500   76.35000    2.52000   11.00300   -0.01100   12.58400
