~Version ---------------------------------------------------
VERS. 2.0 : CWLS log ASCII Standard -VERSION 2.0
WRAP.  NO : One line per depth step
~Well ------------------------------------------------------
STRT.FT                  430.0 : START
STOP.FT                 3030.0 : STOP
STEP.FT                    0.5 : STEP
NULL.                  -999.25 : NULL VALUE
COMP.              RAJAMANDALA : Company
WELL.              RAJAMANDALA : Well Name
FLD .              RAJAMANDALA : Field
CTRY.              RAJAMANDALA : Country
STAT.              RAJAMANDALA : State
PROV.                          : Province
LOC .                          : Field Location
LATI. 001 10' 00.000" S    DMS : Latitude
LONG. 107 10' 00.000" E    DMS : Longitude
PD  .                      MSL : Permanent Datum
UWI .              RAJAMANDALA : Unique Well ID
EKB .FT                   99.0 : Elevation of KB
EDF .FT                   98.0 : Elevation of DF
EGL .FT                   81.0 : Elevation Ground lv
ELZ .FT                   99.0 : Elevation Log Zero
APD .FT                   18.0 : Above Perm. Datum
LMF .                       KB : Log measured from
MP  .                       KB : Drill measured from
OS  .                   IES-GR : Services
OS1 .                   BHC-GR : Other Services Ln 1
OS2 .                   FDC-GR : Other Services Ln 2
OS3 .                   SNP-GR : Other Services Ln 3
OS4 .                      HDT : Other Services Ln 4
SRVC.              RAJAMANDALA : Service company
RUNS.                        2 : Number of runs
DATE.                          : Date
~Curve Information -----------------------------------------
DEPT.FT    : 1  Depth
GR  .API   : 2  Gamma Ray
CALI.INCH  : 3  Caliper Log
SN  .OHMM  : 4  Short Normal
IND .OHMM  : 5  Induction Deep Resistivity
DT  .US/F  : 6  Delta-T
RHOB.G/CC  : 7  Bulk Density
PHID.%     : 8  Density Log Porosity for given zone matrix density
DRHO.G/CC  : 9  Density Log Correction
SNP .%     : 10  Sidewall Neutron Porosity
~Params ----------------------------------------------------
RUN .           1 : Run number
DATE.  2 AUG 2817 : Log date
DAY .           2 : Day
MONT.           8 : Month
YEAR.        2817 : Year
DD  .FT    2400.0 : Depth-Driller
DL  .FT    2406.0 : Depth-Logger
BLI .FT    2405.0 : Bottom log interval
TLI .FT     505.0 : Top log interval
CBD1.FT     505.0 : Casing-Driller
CBL1.FT     505.0 : Casing-Logger
CS  .IN    13.375 : Casing Diameter
CDF .FT     505.0 : Casing Depth From
CADT.FT    2400.0 : Casing Depth To
BS  .IN     9.625 : Bit Size
DFT .   GEL WATER : Hole Fluid type
TCS .     4 HOURS : Time circ. stopped
BHT .DEGC   65.56 : Bottom hole temp
MRT .DEGC   65.56 : Max recorded temp
LUN .        5110 : Logging unit No
LUL .         PWI : Logging unit Loc
ENGI. RAJAMANDALA : Recorded by
WITN. RAJAMANDALA : Witness
DPRE.         DNI : Data Prepared
DIG . RAJAMANDALA : Digitize
RUN .           2 : Run number
DATE.  2 AUG 2812 : Log date
DAY .           6 : Day
MONT.           8 : Month
YEAR.        2817 : Year
DD  .FT    3023.0 : Depth-Driller
DL  .FT    3023.0 : Depth-Logger
BLI .FT    3022.0 : Bottom log interval
TLI .FT    2405.0 : Top log interval
DFT .   GEL WATER : Hole Fluid type
MSS . CIRCULATION : Mud Sample Source
RMS .OHMM    4.28 : RM  @ Surface
RMT .DEGC   23.33 : Mud temp Surface
TCS .     6 HOURS : Time circ. stopped
BHT .DEGC   69.44 : Bottom hole temp
MRT .DEGC   69.44 : Max recorded temp
LUN .        5110 : Logging unit No
LUL .         PWI : Logging unit Loc
ENGI. RAJAMANDALA : Recorded by
WITN. RAJAMANDALA : Witness
DPRE.         DNI : Data Prepared
DIG . RAJAMANDALA : Digitize
~Other -----------------------------------------------------
BIT SIZE CHANGE : 9.6250 T 8.50 AT 2774
CALIPER CURVE RECORDED 7' TOO SHALLOW
SCALECHANGE AT 1582
~ASCII -----------------------------------------------------
# ...
 2145.50000   20.30400   10.04310    4.83700    4.16800   80.75200    2.47200   13.88100   -0.00300   17.03900
 2146.00000   21.24700   10.04820    4.86700    4.18900   80.91800    2.48900   12.84100   -0.00800   16.63900
 2146.50000   23.03800   10.05420    4.80800    4.21100   81.01800    2.49900   12.28200   -0.00900   15.38400
 2147.00000   22.62500   10.05450    4.89700    4.23200   80.85200    2.49200   12.68200   -0.01000   14.64000
 2147.50000   22.06500   10.04230    5.01900    4.25400   80.75200    2.50100   12.16200   -0.00100   15.72000
 2148.00000   23.60100   10.04090    5.08100    4.27500   80.85900    2.50900   11.64200    0.00200   16.43900
 2148.50000   23.61700   10.06640    5.11300    4.29700   80.75200    2.50400   11.94000    0.00100   17.51800
 2149.00000   22.88700   10.04020    5.20800    4.30400   80.75200    2.49300   12.56200   -0.00200   17.87800
 2149.50000   21.84600   10.05500    5.14400    4.29300   80.61900    2.48900   12.84100   -0.00800   17.15900
 2150.00000   21.89400   10.07170    5.08100    4.26200   80.71200    2.49700   12.44200   -0.00900   16.43900
 2150.50000   22.63900   10.06580    5.05000    4.23000   80.22000    2.50600   11.84700   -0.00800   16.63900
 2151.00000   24.54700   10.07610    5.08100    4.19900   80.41900    2.51500   11.28200   -0.00700   16.59900
 2151.50000   23.54100   10.09990    5.01900    4.16800   81.38400    2.51900   11.12300   -0.00400   16.59900
 2152.00000   22.11000   10.12990    4.89500    4.12300   81.99700    2.51200   11.48200    0.00400   15.95900
 2152.50000   21.96900   10.13530    4.86700    4.02300   82.41500    2.51100   11.53700    0.01200   15.68000
 2153.00000   22.81000   10.11550    5.01900    4.02300   81.71700    2.51900   11.08300    0.01300   14.94000
 2153.50000   23.12000   10.11680    5.08100    4.02200   81.35100    2.50700   11.78200    0.00800   14.60000
 2154.00000   22.11000   10.13190    5.11300    4.01200   80.95100    2.50100   12.12200    0.00900   14.40000
 2154.50000   22.17900   10.12550    5.14400    4.00200   81.28400    2.50200   12.06900    0.01200   14.18600
 2155.00000   23.10000   10.10150    5.20800    3.99300   80.81800    2.50100   12.16200    0.01100   14.94000
 2155.50000   21.02100   10.09310    5.24000    3.98300   80.15300    2.49300   12.60200    0.00500   16.05900
 2156.00000   20.58800   10.10530    5.33700    3.97300   79.42100    2.49000   12.72200    0.00700   15.56000
 2156.50000   22.09800   10.14000    5.37000    3.96300   78.55600    2.50500   11.90500    0.00900   14.88000
 2157.00000   23.06500   10.13430    5.24000    3.95300   78.35700    2.50500   11.88200    0.00600   14.78000
 2157.50000   24.66500   10.13700    5.14400    3.90100   77.99100    2.50400   11.94200    0.00200   15.02000
 2158.00000   24.05100   10.11430    5.14400    3.82800   78.09000    2.49100   12.76100   -0.01700   14.26000
 2158.50000   22.13700   10.07960    5.20800    3.79100   78.55600    2.49000   12.84100   -0.02100   13.95000
 2159.00000   22.54500   10.07990    5.08100    3.75400   79.22200    2.48500   13.04100   -0.02200   13.84100
 2159.50000   22.60200   10.08060    5.01900    3.71700   79.88700    2.49100   12.76100   -0.01300   12.96100
 2160.00000   23.09300   10.08060    4.85200    3.67800   80.64700    2.48700   13.00100   -0.01200   12.12200
 2160.50000   23.88200   10.08060    4.74900    3.55800   80.88500    2.49100   12.72200   -0.01300   12.49100
 2161.00000   24.06800   10.08060    4.69100    3.64600   80.75200    2.48800   13.00100   -0.01100   13.28100
 2161.50000   24.81500   10.08090    4.63400    3.62400   80.95100    2.49100   13.00100    0.00000   14.68000
 2162.00000   24.54600   10.15230    4.60500    3.64600   80.91200    2.51000   11.60200    0.00300   15.79900
 2162.50000   23.95200   10.17040    4.57700    3.62400   80.88500    2.48200   13.43000   -0.01200   16.63500
 2163.00000   22.06400   10.16950    4.54900    3.62400   80.95100    2.46300   14.44000   -0.02000   17.39800
 2163.50000   21.92900   10.14720    4.52100    3.61300   80.88500    2.46300   14.43500   -0.00800   17.23900
 2164.00000   23.30400   10.15640    4.49400    3.54200   80.81100    2.47100   13.92100   -0.00600   16.27900
 2164.50000   24.04100   10.17760    4.49400    3.51400   81.01800    2.45900   14.66000   -0.00800   15.68000
 2165.00000   24.22200   10.14000    4.49400    3.62400   81.08400    2.46800   14.08100   -0.00900   15.21000
 2165.50000   23.56200   10.13840    4.52100    3.60200   81.21800    2.48400   13.16100   -0.00300   15.20000
 2166.00000   24.64400   10.06680    4.60500    3.69200   81.21800    2.49000   12.74200   -0.00300   16.83900
 2166.50000   24.96900   10.05300    4.54900    3.60200   81.28400    2.48400   13.08100   -0.00700   16.97900
 2167.00000   23.50400   10.06770    4.52100    3.55800   81.08400    2.47700   13.56100   -0.00200   16.19900
 2167.50000   22.17300   10.05390    4.49400    3.66900   80.88500    2.45900   14.68000   -0.00800   16.35900
 2168.00000   21.96500   10.05540    4.52100    3.62400   80.22000    2.45400   14.96000   -0.00600   17.11900
 2168.50000   23.14600   10.05920    4.52100    3.64600   80.75200    2.45800   14.70600   -0.00500   17.63800
 2169.00000   23.67300   10.06290    4.49400    3.69200   81.08400    2.46700   14.20100   -0.00800   17.19900
 2169.50000   24.40300   10.06740    4.54900    3.71400   81.35100    2.46600   14.26000   -0.01000   16.87900
 2170.00000   24.63100   10.07070    4.52100    3.72600   81.57000    2.46200   14.48000   -0.00900   16.43900
 2170.50000   24.59000   10.09020    4.57700    3.64600   81.51700    2.46900   14.03400   -0.00100   16.56800
 2171.00000   23.46300   10.12430    4.60500    3.76700   81.15100    2.49200   12.68200    0.00300   16.23900
 2171.50000   22.83100   10.09040    4.69100    3.92500   80.88500    2.49200   12.68200   -0.00500   15.88300
 2172.00000   24.02100   10.06300    4.74900    3.92500   80.77800    2.48600   13.04100   -0.00600   15.79900
 2172.50000   25.39800   10.05410    4.80800    3.90100   80.61900    2.49000   12.84100   -0.00100   17.05600
 2173.00000   25.06200   10.05420    4.80800    3.97400   80.61900    2.47700   13.60100   -0.00700   18.03800
 2173.50000   24.34100   10.05410    4.80800    3.99900   80.22000    2.47200   13.90100   -0.00700   18.03800
 2174.00000   24.80300   10.05970    4.80800    3.98400   80.12600    2.47700   13.60100   -0.00300   17.55800
 2174.50000   27.09900   10.06570    4.80700    3.99500   80.28600    2.47200   13.76100    0.01000   17.31800
 2175.00000   28.99100   10.08410    4.77800    4.04800   80.71900    2.49000   12.84100    0.01700   16.91900
 2175.50000   30.11100   10.13430    4.80800    4.02300   80.88500    2.48500   12.96100    0.01400   17.31800
 2176.00000   30.18400   10.13360    4.86700    4.12300   80.91800    2.47400   13.76100    0.00600   16.87900
 2176.50000   29.01800   10.11900    5.01900    4.02300   80.55200    2.48100   13.20100   -0.00900   16.15900
 2177.00000   27.88500   10.13730    5.05000    4.07300   80.41900    2.50000   12.16200   -0.00400   16.43900
 2177.50000   27.29300   10.11790    5.14400    4.07300   80.08600    2.51500   11.32200    0.00200   16.11900
 2178.00000   26.02900   10.13990    5.24000    4.07300   79.82000    2.50900   11.68200    0.00300   16.79900
 2178.50000   25.55900   10.10640    5.37000    4.12300   80.02000    2.51300   11.48200    0.01100   17.07900
 2179.00000   26.06700   10.07080    5.43700    4.25200   80.02000    2.50400   11.88200    0.00300   16.83900
 2179.50000   25.48700   10.06650    5.47000    4.17400   80.22000    2.49300   12.68200    0.00700   16.91900
 2180.00000   25.91500   10.07940    5.50400    4.17400   80.40600    2.48900   12.84100    0.00000   15.95900
 2180.50000   26.89600   10.05440    5.24000    4.04800   80.81800    2.49200   12.68200   -0.00800   15.72000
 2181.00000   29.82600   10.05440    5.05000    4.09800   79.75400    2.50000   12.12200   -0.00500   16.07900
 2181.50000   34.20800   10.06620    4.95800    4.07300   78.15700    2.48700   12.96100   -0.00600   15.40000
