~Version ---------------------------------------------------
VERS. 2.0 : CWLS log ASCII Standard -VERSION 2.0
WRAP.  NO : One line per depth step
~Well ------------------------------------------------------
STRT.M                 60.0 : START
STOP.M               304.92 : STOP
STEP.M 0.030000000000001137 : STEP
NULL.               -999.25 : NULL VALUE
WELL.     Gamma_Ray_Neutron : Well Name
FLD .                       : Field
PROV.                       : Province
LOC .                       : Field Location
PD  .                   MSL : Permanent Datum
UWI .           RAJAMANDALA : Unique Well ID
ELZ .M                  0.0 : Elevation Log Zero
OS  .                       : Services
SRVC.                       : Service company
DATE.                       : Date
~Curve Information -----------------------------------------
DEPT.M    : 1  Depth
GR  .CPS  : 2  Gamma-Ray Log
NEUT.CPS  : 3  Neutron
~Params ----------------------------------------------------
~Other -----------------------------------------------------
~ASCII -----------------------------------------------------
# ...
  159.12000  118.17280  395.69880
  159.15000  118.17280  395.79660
  159.18000  117.58350  395.89440
  159.21000  116.40470  396.04110
  159.24000  116.11000  396.18780
  159.27000  115.52070  396.57870
  159.30000  114.63660  396.96960
  159.33000  114.34180  397.36080
  159.36000  114.04710  397.50720
  159.39000  113.75250  397.65390
  159.42000  113.16300  397.84950
  159.45000  111.68960  398.04510
  159.48000  111.68960  398.24040
  159.51000  110.51080  398.82690
  159.54000  111.39500  399.41340
  159.57000  112.57370  399.41340
  159.60000  114.04710  399.41340
  159.63000  116.40470  399.41340
  159.66000  106.97440  398.38710
  159.69000  107.26920  397.36080
  159.72000  111.98430  396.77430
  159.75000  119.94110  396.18780
  159.78000  119.94110  395.60130
  159.81000  116.99410  391.49550
  159.84000  114.93120  391.49550
  159.87000  113.75250  391.49550
  159.90000  112.57370  391.49550
  159.93000  111.10020  391.49550
  159.96000  110.36340  391.49550
  159.99000  109.33200  391.64220
  160.02000  108.15330  391.78890
  160.05000  107.85860  391.88670
  160.08000  109.62680  391.98450
  160.11000  109.62680  392.08200
  160.14000   97.83885  392.08200
  160.17000  110.51080  392.08200
  160.20000  109.92130  392.08200
  160.23000  109.92130  392.08200
  160.26000  109.62680  392.37540
  160.29000  114.63660  393.54840
  160.32000  114.04710  393.54840
  160.35000  112.57370  393.54840
  160.38000  112.27900  393.54840
  160.41000  111.68960  393.69510
  160.44000  110.51080  393.84150
  160.47000  105.50100  394.03710
  160.50000  106.67970  394.23270
  160.53000  109.62680  394.42830
  160.56000  115.81530  394.42830
  160.59000  115.81530  394.42830
  160.62000  115.52070  394.03710
  160.65000  114.93120  393.64620
  160.68000  113.16300  393.25500
  160.71000  112.57370  392.37540
  160.74000  106.97440  392.37540
  160.77000  105.50100  392.37540
  160.80000  105.20620  392.37540
  160.83000  105.20620  392.37540
  160.86000  107.85860  392.37540
  160.89000  108.30060  393.84150
  160.92000  109.92130  393.84150
  160.95000  111.39500  393.84150
  160.98000  110.51080  393.84150
  161.01000  107.85860  393.84150
  161.04000  107.56380  393.84150
  161.07000  106.97440  393.93930
  161.10000  105.20620  394.03710
  161.13000  104.91170  394.13490
  161.16000  104.91170  394.13490
  161.19000  110.51080  394.13490
  161.22000  111.68960  394.13490
  161.25000  111.98430  394.13490
  161.28000  112.57370  394.13490
  161.31000  114.63660  394.28160
  161.34000  114.93120  394.42830
  161.37000  116.99410  394.52580
  161.40000  116.99410  394.62360
  161.43000  114.93120  394.72140
  161.46000  112.57370  394.57470
  161.49000  109.62680  394.42830
  161.52000  108.15330  394.42830
  161.55000  107.56380  394.42830
  161.58000  107.26920  394.42830
  161.61000  104.12580  395.01480
  161.64000  100.98230  395.60130
  161.67000   97.83885  395.57010
  161.70000  100.34380  395.53890
  161.73000  102.84870  395.50770
  161.76000  103.34000  395.21490
  161.79000  103.83110  394.92180
  161.82000  104.32220  394.82430
  161.85000  109.92130  392.28510
  161.88000  110.51080  392.57820
  161.91000  109.62680  392.72460
  161.94000  108.15330  392.87100
  161.97000  107.85860  392.87100
  162.00000  106.97440  392.87100
  162.03000  106.97440  392.87100
  162.06000   99.01771  392.87100
  162.09000  100.49110  392.87100
  162.12000  100.63850  392.87100
  162.15000  102.25930  392.87100
  162.18000  107.26920  392.87100
  162.21000  107.85860  392.87100
  162.24000  109.62680  392.87100
  162.27000  113.16300  392.87100
  162.30000  113.16300  391.99230
  162.33000  113.16300  391.69920
  162.36000  111.68960  391.69920
  162.39000  109.03740  391.84560
  162.42000  109.62680  391.99230
  162.45000  109.92130  391.99230
  162.48000  110.51080  392.28510
  162.51000  112.27900  391.99230
  162.54000  113.75250  391.99230
  162.57000  112.57370  391.99230
  162.60000  111.68960  391.69920
  162.63000  105.20620  391.40640
  162.66000  103.73280  391.40640
  162.69000  103.73280  391.40640
  162.72000  110.21610  391.40640
  162.75000  111.68960  391.11330
  162.78000  111.68960  390.82020
  162.81000  109.92130  390.82020
  162.84000  109.62680  390.82020
  162.87000  109.33200  390.96690
  162.90000  109.03740  392.57820
  162.93000  107.85860  392.87100
  162.96000  108.74270  393.16410
  162.99000  109.62680  393.45690
  163.02000  116.40470  393.75000
  163.05000  116.11000  394.04310
  163.08000  113.16300  394.14060
  163.11000  107.85860  394.23840
  163.14000  107.56380  394.33590
  163.17000  108.15330  394.62900
  163.20000  109.33200  394.92180
  163.23000  109.62680  395.01960
  163.26000  113.45770  395.11710
  163.29000  114.04710  395.21490
  163.32000  113.45770  395.31480
  163.35000  113.16300  395.41470
  163.38000  112.27900  395.90250
  163.41000  111.68960  396.39030
  163.44000  110.51080  396.87810
  163.47000  101.96460  396.87810
  163.50000  102.84870  396.87810
  163.53000  103.43800  396.87810
  163.56000  106.97440  396.87810
  163.59000  106.97440  396.87810
  163.62000  107.56380  397.02450
  163.65000  107.85860  397.17060
  163.68000  108.74270  397.26840
  163.71000  111.39500  397.36590
  163.74000  111.10020  397.46340
  163.77000  111.10020  397.60980
  163.80000  111.39500  397.75620
  163.83000  114.63660  397.85370
  163.86000  114.93120  397.95120
  163.89000  109.03740  398.04870
  163.92000  109.03740  398.19510
  163.95000  109.33200  398.34150
  163.98000  109.62680  398.43900
  164.01000  110.51080  398.53650
  164.04000  111.68960  398.63400
  164.07000  111.68960  398.78040
  164.10000  104.32220  398.92680
  164.13000  113.45770  399.21960
  164.16000  113.75250  399.51210
  164.19000  113.16300  399.80490
  164.22000  112.27900  400.24380
  164.25000  111.39500  400.68300
  164.28000  111.10020  400.97550
  164.31000  105.79560  401.26830
  164.34000  107.26920  401.56110
  164.37000  112.57370  401.26830
  164.40000  112.27900  400.97550
  164.43000  111.68960  400.48770
  164.46000  110.51080  399.99990
  164.49000  108.74270  399.51210
  164.52000  108.15330  399.51210
  164.55000  107.85860  399.51210
  164.58000  107.26920  399.51210
  164.61000  111.98430  399.51210
  164.64000  113.75250  399.51210
  164.67000  106.97440  399.60990
  164.70000  107.26920  399.70740
  164.73000  107.85860  400.09770
  164.76000  109.62680  400.24380
  164.79000  109.92130  400.39020
  164.82000  110.21610  399.80490
  164.85000  110.51080  400.09770
  164.88000  109.92130  400.39020
  164.91000  109.62680  400.53660
  164.94000  103.43800  400.68300
  164.97000  103.43800  401.26830
  165.00000  103.73280  401.85360
  165.03000  103.73280  402.14640
  165.06000  103.43800  402.43890
  165.09000  103.43800  402.43890
  165.12000  102.84870  402.43890
  165.15000   99.01771  402.43890
  165.18000   99.01771  402.43890
  165.21000  103.14340  402.43890
  165.24000  103.43800  402.34140
  165.27000  103.43800  402.24390
  165.30000  103.73280  402.14640
  165.33000  104.61690  402.29280
  165.36000  110.21610  402.43890
  165.39000  111.10020  402.58530
  165.42000  111.68960  402.73170
  165.45000  106.67970  402.73170
  165.48000  104.32220  402.73170
  165.51000  103.43800  402.73170
  165.54000  103.43800  402.87810
  165.57000  103.43800  403.02450
  165.60000  103.43800  403.02450
  165.63000  103.43800  403.02450
  165.66000  105.50100  403.02450
  165.69000  106.38510  403.02450
  165.72000  107.26920  403.02450
  165.75000  110.51080  403.02450
  165.78000  110.21610  403.02450
  165.81000  109.62680  403.02450
  165.84000  108.15330  403.02450
  165.87000  100.78590  403.02450
  165.90000  100.49110  403.31700
  165.93000  100.19640  403.60980
  165.96000  102.55410  403.90230
  165.99000  105.20620  404.48790
  166.02000  103.73280  404.19510
  166.05000   99.01771  404.19510
  166.08000   98.72295  404.19510
  166.11000  101.08050  404.19510
  166.14000  101.96460  404.48790
  166.17000  102.84870  404.78040
