~Version ---------------------------------------------------
VERS. 2.0 : CWLS log ASCII Standard -VERSION 2.0
WRAP.  NO : One line per depth step
~Well ------------------------------------------------------
STRT.M                 60.0 : START
STOP.M               304.92 : STOP
STEP.M 0.030000000000001137 : STEP
NULL.               -999.25 : NULL VALUE
WELL.     Gamma_Ray_Neutron : Well Name
FLD .                       : Field
PROV.                       : Province
LOC .                       : Field Location
PD  .                   MSL : Permanent Datum
UWI .           RAJAMANDALA : Unique Well ID
ELZ .M                  0.0 : Elevation Log Zero
OS  .                       : Services
SRVC.                       : Service company
DATE.                       : Date
~Curve Information -----------------------------------------
DEPT.M    : 1  Depth
GR  .CPS  : 2  Gamma-Ray Log
NEUT.CPS  : 3  Neutron
~Params ----------------------------------------------------
~Other -----------------------------------------------------
~ASCII -----------------------------------------------------
# ...
  123.72000   95.09805  407.22660
  123.75000   94.31371  408.69150
  123.78000   93.52935  410.15640
  123.81000   93.23534  410.64450
  123.84000   92.94120  411.13290
  123.87000   92.94120  411.62100
  123.90000   84.70590  413.67180
  123.93000   82.35300  413.67180
  123.96000   79.99995  413.67180
  123.99000   78.82350  413.67180
  124.02000   79.41180  413.67180
  124.05000   80.58825  413.67180
  124.08000   82.94115  413.67180
  124.11000   86.47064  413.67180
  124.14000   85.88235  413.67180
  124.17000   85.29405  413.67180
  124.20000   85.29405  412.35360
  124.23000   84.70590  412.50000
  124.26000   81.76470  412.59780
  124.29000   71.47065  412.69530
  124.32000   70.29405  414.84390
  124.35000   65.58825  416.01570
  124.38000   66.47055  417.18750
  124.41000   67.35300  418.06650
  124.44000   69.41175  418.35930
  124.47000   69.11760  418.65240
  124.50000   69.11760  418.94520
  124.53000   69.11760  418.94520
  124.56000   69.11760  419.33580
  124.59000   67.64700  419.72670
  124.62000   66.17640  420.11730
  124.65000   65.49015  420.41010
  124.68000   64.80390  420.55650
  124.71000   64.11765  420.70320
  124.74000   62.05875  421.19130
  124.77000   65.58825  421.67970
  124.80000   67.05885  422.16810
  124.83000   70.58820  421.58190
  124.86000   69.41175  420.41010
  124.89000   68.82360  419.82420
  124.92000   68.23530  419.23830
  124.95000   69.41175  418.65240
  124.98000   69.70590  418.06650
  125.01000   70.00005  413.08590
  125.04000   65.29410  413.37900
  125.07000   65.29410  413.96490
  125.10000   64.99995  415.13670
  125.13000   65.29410  415.42980
  125.16000   71.17650  416.30850
  125.19000   70.29405  416.89440
  125.22000   70.00005  416.89440
  125.25000   69.70590  416.89440
  125.28000   69.11760  417.18750
  125.31000   71.47065  417.48060
  125.34000   71.47065  418.06650
  125.37000   71.47065  418.55460
  125.40000   71.47065  419.04300
  125.43000   71.47065  419.53140
  125.46000   78.82350  420.70320
  125.49000   78.82350  421.19130
  125.52000   69.41175  421.67970
  125.55000   68.52945  423.04680
  125.58000   63.52935  422.90040
  125.61000   63.23535  422.75400
  125.64000   64.70595  422.75400
  125.67000   64.41180  422.75400
  125.70000   64.41180  422.75400
  125.73000   64.41180  422.46090
  125.76000   64.41180  422.36340
  125.79000   62.64705  422.26560
  125.82000   60.88230  421.87500
  125.85000   61.27455  421.58190
  125.88000   61.66665  415.72260
  125.91000   62.05875  415.72260
  125.94000   84.11760  415.72260
  125.97000   84.70590  415.72260
  126.00000   82.35300  414.55080
  126.03000   64.41180  413.37900
  126.06000   61.47060  412.50000
  126.09000   61.17645  411.62100
  126.12000   59.70585  410.74230
  126.15000   55.58820  410.74230
  126.18000   56.76465  410.74230
  126.21000   57.64710  410.35170
  126.24000   58.23525  409.96080
  126.27000   59.11770  409.57020
  126.30000   60.58830  409.57020
  126.33000   61.17645  409.57020
  126.36000   61.47060  409.57020
  126.39000   62.35290  409.57020
  126.42000   64.41180  409.57020
  126.45000   64.70595  410.30280
  126.48000   64.70595  411.03510
  126.51000   60.58830  411.52350
  126.54000   64.99995  412.01160
  126.57000   65.29410  412.50000
  126.60000   65.29410  413.23230
  126.63000   65.29410  413.96490
  126.66000   63.82350  413.67180
  126.69000   63.23535  413.37900
  126.72000   62.94120  413.08590
  126.75000   68.23530  413.67180
  126.78000   69.11760  414.25770
  126.81000   69.41175  414.45300
  126.84000   69.70590  414.64830
  126.87000   70.00005  414.84390
  126.90000   70.00005  429.19920
  126.93000   68.82360  429.19920
  126.96000   66.47055  429.19920
  126.99000   67.05885  415.42980
  127.02000   67.05885  417.77340
  127.05000   67.94115  417.91980
  127.08000   72.05880  418.06650
  127.11000   72.94110  418.50600
  127.14000   75.29415  418.94520
  127.17000   74.11770  418.94520
  127.20000   73.23525  418.94520
  127.23000   72.94125  418.94520
  127.26000   72.35294  419.53140
  127.29000   72.35294  420.11730
  127.32000   72.94125  420.11730
  127.35000   74.11770  421.58190
  127.38000   75.00000  421.87500
  127.41000   75.29415  422.31450
  127.44000   72.05880  423.04680
  127.47000   72.64710  423.33990
  127.50000   73.67385  423.63270
  127.53000   73.96860  421.87500
  127.56000   76.91550  418.35930
  127.59000   76.62090  414.84390
  127.62000   76.62090  411.32820
  127.65000   76.03140  410.00970
  127.68000   71.61105  408.69150
  127.71000   71.61105  408.78900
  127.74000   71.61105  409.86330
  127.77000   71.61105  409.86330
  127.80000   71.02155  409.71690
  127.83000   70.43220  409.57020
  127.86000   70.82520  409.49700
  127.89000   71.21805  409.42380
  127.92000   71.61105  409.35060
  127.95000   72.05310  409.27740
  127.98000   72.49516  409.27740
  128.01000   66.01185  409.08210
  128.04000   66.89580  408.88680
  128.07000   69.25349  408.39840
  128.10000   71.31631  408.39840
  128.13000   71.61105  408.10560
  128.16000   71.75835  408.20310
  128.19000   72.49516  408.30090
  128.22000   73.67385  408.39840
  128.25000   73.67385  408.39840
  128.28000   73.67385  408.39840
  128.31000   77.50485  408.39840
  128.34000   76.32616  408.69150
  128.37000   76.03140  408.69150
  128.40000   75.14731  408.69150
  128.43000   74.55795  408.69150
  128.46000   75.04905  408.69150
  128.49000   75.54030  408.69150
  128.52000   76.03140  408.69150
  128.55000   76.76820  408.39840
  128.58000   77.50485  408.10560
  128.61000   77.99610  408.10560
  128.64000   78.48719  408.10560
  128.67000   78.97845  408.10560
  128.70000   77.94690  407.95890
  128.73000   76.91550  407.81250
  128.76000   75.44205  407.71470
  128.79000   73.96860  407.61720
  128.82000   78.09435  407.51940
  128.85000   78.09435  407.37300
  128.88000   78.09435  407.22660
  128.91000   78.09435  407.12880
  128.94000   78.09435  407.03130
  128.97000   59.52855  406.93350
  129.00000   60.11790  406.78710
  129.03000   78.38895  406.64070
  129.06000   78.68370  406.54290
  129.09000   80.74650  406.44540
  129.12000   82.22011  406.34760
  129.15000   78.68370  406.20120
  129.18000   78.97845  406.05480
  129.21000   79.56780  405.95700
  129.24000   80.74650  405.85950
  129.27000   85.16700  405.76170
  129.30000   84.87225  405.46890
  129.33000   84.28291  405.17580
  129.36000   82.80945  405.76170
  129.39000   78.68370  405.85950
  129.42000   78.09435  405.95700
  129.45000   78.09435  406.05480
  129.48000   70.43220  406.05480
  129.51000   68.07465  406.05480
  129.54000   68.95875  406.34760
  129.57000   70.13760  405.76170
  129.60000   70.43220  405.61530
  129.63000   70.43220  405.46890
  129.66000   70.43220  405.46890
  129.69000   70.72694  405.17580
  129.72000   70.72694  405.17580
  129.75000   76.62090  405.17580
  129.78000   76.62090  405.61530
  129.81000   76.62090  406.05480
  129.84000   76.91550  406.05480
  129.87000   77.50485  406.64070
  129.90000   80.15714  407.22660
  129.93000   80.74650  408.00780
  129.96000   82.36739  408.78900
  129.99000   83.98815  412.50000
  130.02000   84.18465  413.57430
  130.05000   84.38115  414.64830
  130.08000   84.57765  417.77340
  130.11000   83.54610  419.82420
  130.14000   82.51470  421.38660
  130.17000   81.33599  422.94930
  130.20000   80.15714  424.51170
  130.23000   78.97845  425.68350
  130.26000   76.76820  426.85560
  130.29000   74.55795  427.24620
  130.32000   73.87035  427.63680
  130.35000   73.18275  428.02740
  130.38000   72.49516  428.02740
  130.41000   71.61105  428.02740
  130.44000   70.72694  428.32020
  130.47000   70.92345  428.46690
  130.50000   71.11980  428.61330
  130.53000   71.31631  428.75970
  130.56000   71.46360  428.90640
  130.59000   71.61105  429.19920
  130.62000   73.87035  429.39450
  130.65000   76.12965  429.58980
  130.68000   78.38895  429.78510
  130.71000   79.12575  430.07820
  130.74000   79.86240  428.32020
  130.77000   79.27306  426.56250
