~Version ---------------------------------------------------
VERS. 2.0 : CWLS log ASCII Standard -VERSION 2.0
WRAP.  NO : One line per depth step
~Well ------------------------------------------------------
STRT.M                 60.0 : START
STOP.M               304.92 : STOP
STEP.M 0.030000000000001137 : STEP
NULL.               -999.25 : NULL VALUE
WELL.     Gamma_Ray_Neutron : Well Name
FLD .                       : Field
PROV.                       : Province
LOC .                       : Field Location
PD  .                   MSL : Permanent Datum
UWI .           RAJAMANDALA : Unique Well ID
ELZ .M                  0.0 : Elevation Log Zero
OS  .                       : Services
SRVC.                       : Service company
DATE.                       : Date
~Curve Information -----------------------------------------
DEPT.M    : 1  Depth
GR  .CPS  : 2  Gamma-Ray Log
NEUT.CPS  : 3  Neutron
~Params ----------------------------------------------------
~Other -----------------------------------------------------
~ASCII -----------------------------------------------------
# ...
  201.60000   92.15115  395.89440
  201.63000   91.27905  399.12030
  201.66000   90.40695  402.34590
  201.69000   89.82555  403.22580
  201.72000   89.24415  404.10570
  201.75000   88.66275  404.69220
  201.78000   87.93600  405.27870
  201.81000   87.20924  405.86520
  201.84000   86.72475  406.74480
  201.87000   86.24025  406.74480
  201.90000   85.75576  406.74480
  201.93000   78.48840  406.74480
  201.96000   79.94190  406.74480
  201.99000   80.81400  406.74480
  202.02000   81.68610  406.74480
  202.05000   82.26750  406.74480
  202.08000   82.84890  406.74480
  202.11000   83.72100  406.74480
  202.14000   84.01170  406.74480
  202.17000   84.30225  406.74480
  202.20000   85.02900  408.21120
  202.23000   88.37205  408.35790
  202.26000   85.46505  409.09080
  202.29000   85.46505  409.87290
  202.32000   85.46505  410.65500
  202.35000   85.46505  412.61010
  202.38000   84.44775  413.48970
  202.41000   83.43030  414.36960
  202.44000   83.04270  416.12910
  202.47000   82.65511  416.12910
  202.50000   82.26750  416.56890
  202.53000   77.61629  417.00870
  202.56000   75.58140  417.74190
  202.59000   75.00000  418.47510
  202.62000   74.12790  419.06160
  202.65000   75.58140  419.25720
  202.68000   76.16280  419.45250
  202.71000   72.67440  419.64810
  202.74000   71.51160  420.16140
  202.77000   71.22089  420.67440
  202.80000   70.93020  424.34010
  202.83000   70.93020  424.34010
  202.86000   70.93020  424.19370
  202.89000   70.63950  424.04700
  202.92000   69.47670  424.04700
  202.95000   69.18600  424.04700
  202.98000   68.74995  424.04700
  203.01000   68.31390  424.04700
  203.04000   61.91865  424.19370
  203.07000   61.77330  424.34010
  203.10000   61.04655  424.48680
  203.13000   60.75585  424.63350
  203.16000   59.88375  425.51310
  203.19000   59.59305  432.25800
  203.22000   59.15700  436.21710
  203.25000   57.26745  440.17590
  203.28000   56.39536  442.52190
  203.31000   55.95930  444.86790
  203.34000   52.32555  445.35690
  203.37000   52.61625  445.84560
  203.40000   53.19765  446.33430
  203.43000   53.19765  447.06750
  203.46000   53.48835  447.80070
  203.49000   53.48835  447.80070
  203.52000   50.87205  447.80070
  203.55000   51.45345  447.80070
  203.58000   51.45345  447.80070
  203.61000   52.03485  447.80070
  203.64000   52.32555  446.33430
  203.67000   52.32555  446.33430
  203.70000   51.45345  446.62770
  203.73000   44.47680  446.62770
  203.76000   45.84135  446.77110
  203.79000   45.98640  446.77110
  203.82000   47.00190  446.77110
  203.85000   47.58225  446.77110
  203.88000   49.32300  446.77110
  203.91000   49.75815  446.77110
  203.94000   50.19345  446.62440
  203.97000   51.35400  446.47740
  204.00000   51.64410  446.18400
  204.03000   51.64410  446.18400
  204.06000   51.64410  445.89030
  204.09000   51.64410  445.59690
  204.12000   52.65960  442.66140
  204.15000   53.67510  442.66140
  204.18000   55.12575  442.66140
  204.21000   56.57640  442.80810
  204.24000   57.44685  443.83560
  204.27000   58.31715  444.12930
  204.30000   59.18760  444.42270
  204.33000   60.34815  444.12930
  204.36000   61.50870  443.54220
  204.39000   62.81430  442.95510
  204.42000   64.11990  442.36800
  204.45000   65.08710  442.07430
  204.48000   66.05415  441.48720
  204.51000   67.02135  441.19380
  204.54000   76.59570  441.48720
  204.57000   75.72540  441.48720
  204.60000   75.72540  441.48720
  204.63000   75.43515  441.78090
  204.66000   75.72540  441.78090
  204.69000   79.49715  442.07430
  204.72000   79.20690  442.36800
  204.75000   77.46615  442.66140
  204.78000   76.59570  442.66140
  204.81000   76.01550  443.24850
  204.84000   75.43515  442.07430
  204.87000   74.85495  440.01960
  204.90000   74.27460  432.38760
  204.93000   73.40430  431.65350
  204.96000   72.82395  430.91970
  204.99000   70.21275  430.27410
  205.02000   70.21275  429.62820
  205.05000   63.82980  428.27790
  205.08000   63.82980  428.86500
  205.11000   64.11990  429.15840
  205.14000   65.28045  429.25650
  205.17000   65.86080  429.35430
  205.20000   66.44100  429.45210
  205.23000   67.02135  429.45210
  205.26000   70.79310  429.64770
  205.29000   71.95365  427.39740
  205.32000   73.40430  428.27790
  205.35000   72.82395  428.57130
  205.38000   71.95365  429.59880
  205.41000   71.37330  430.62630
  205.44000   70.79310  435.02940
  205.47000   69.92265  435.02940
  205.50000   68.76210  435.32280
  205.53000   69.92265  435.32280
  205.56000   75.14504  435.32280
  205.59000   74.56485  435.32280
  205.62000   73.69440  435.32280
  205.65000   72.82395  435.61650
  205.68000   72.82395  435.90990
  205.71000   77.75626  435.90990
  205.74000   80.07735  436.10580
  205.77000   75.14504  436.30140
  205.80000   74.56485  436.49700
  205.83000   75.72540  437.08410
  205.86000   78.62670  437.23080
  205.89000   80.07735  437.67120
  205.92000   77.46615  436.20360
  205.95000   73.40430  435.76320
  205.98000   71.66340  435.02940
  206.01000   70.05810  434.73570
  206.04000   73.54650  434.44230
  206.07000   73.83720  434.14860
  206.10000   75.87210  434.05080
  206.13000   77.03490  433.95300
  206.16000   80.81400  433.85520
  206.19000   80.81400  431.94720
  206.22000   80.81400  430.03920
  206.25000   80.81400  429.78780
  206.28000   81.39539  429.53640
  206.31000   81.97680  429.28500
  206.34000   84.01170  428.69730
  206.37000   84.30225  428.69730
  206.40000   85.75576  428.69730
  206.43000   86.04645  428.69730
  206.46000   87.79065  428.69730
  206.49000   87.93600  428.69730
  206.52000   88.66275  428.69730
  206.55000   88.95345  428.69730
  206.58000   89.82555  428.69730
  206.61000   97.38375  428.69730
  206.64000   96.51166  428.69730
  206.67000   96.51166  428.59950
  206.70000   96.22095  428.50140
  206.73000   95.34885  428.10960
  206.76000   95.93025  428.10960
  206.79000   97.09305  428.10960
  206.82000   97.67445  428.10960
  206.85000   98.25585  427.81590
  206.88000   99.70935  427.81590
  206.91000  100.29070  426.05280
  206.94000  102.03500  426.05280
  206.97000  101.88960  426.05280
  207.00000   97.09305  425.85690
  207.03000   98.15535  425.66100
  207.06000   98.15535  425.46510
  207.09000   98.15535  425.17140
  207.12000   94.95149  425.46510
  207.15000   94.95149  423.99600
  207.18000   95.82525  423.40830
  207.21000   96.40769  422.82090
  207.24000  102.23290  422.33100
  207.27000  102.23290  421.84140
  207.30000   95.53396  420.47010
  207.33000   96.11655  420.17640
  207.36000   96.40769  415.47510
  207.39000   98.15535  415.47510
  207.42000   98.44666  415.47510
  207.45000   98.44666  415.67100
  207.48000   98.15535  415.86690
  207.51000   97.86404  416.06280
  207.54000   97.28160  415.62180
  207.57000   95.24265  415.18110
  207.60000   94.36890  414.49560
  207.63000   87.66991  413.81010
  207.66000   86.79615  413.12430
  207.69000   87.66991  413.27130
  207.72000   88.25250  413.41830
  207.75000   88.83495  413.27130
  207.78000   90.29130  413.12430
  207.81000   90.00000  413.12430
  207.84000   87.66991  413.12430
  207.87000   78.64080  413.12430
  207.90000   78.64080  413.12430
  207.93000   78.64080  413.12430
  207.96000   78.64080  417.23790
  207.99000   78.27960  417.53190
  208.02000   65.95335  417.82560
  208.05000   66.82875  416.65020
  208.08000   66.92610  401.95890
  208.11000   67.02330  400.19580
  208.14000   67.12065  399.60810
  208.17000   67.99605  411.36150
  208.20000   68.57970  418.70700
  208.23000   69.16335  429.57870
  208.26000   70.03890  429.87270
  208.29000   70.91444  430.46040
  208.32000   71.78985  431.63580
  208.35000   73.24905  431.87070
  208.38000   73.83270  432.10590
  208.41000   81.42030  432.34080
  208.44000   74.41635  432.57600
  208.47000   72.95715  432.81090
  208.50000   71.78985  433.39860
  208.53000   71.49810  433.59450
  208.56000   71.20620  433.79040
  208.59000   69.74715  433.98630
  208.62000   69.45525  434.86770
  208.65000   67.70430  435.16170
