~Version ---------------------------------------------------
VERS. 2.0 : CWLS log ASCII Standard -VERSION 2.0
WRAP.  NO : One line per depth step
~Well ------------------------------------------------------
STRT.M                 60.0 : START
STOP.M               304.92 : STOP
STEP.M 0.030000000000001137 : STEP
NULL.               -999.25 : NULL VALUE
WELL.     Gamma_Ray_Neutron : Well Name
FLD .                       : Field
PROV.                       : Province
LOC .                       : Field Location
PD  .                   MSL : Permanent Datum
UWI .           RAJAMANDALA : Unique Well ID
ELZ .M                  0.0 : Elevation Log Zero
OS  .                       : Services
SRVC.                       : Service company
DATE.                       : Date
~Curve Information -----------------------------------------
DEPT.M    : 1  Depth
GR  .CPS  : 2  Gamma-Ray Log
NEUT.CPS  : 3  Neutron
~Params ----------------------------------------------------
~Other -----------------------------------------------------
~ASCII -----------------------------------------------------
# ...
  251.16000  100.68090  395.30790
  251.19000  100.68090  395.60130
  251.22000  100.09730  395.60130
  251.25000   99.51360  395.60130
  251.28000   99.51360  395.60130
  251.31000   99.51360  395.79660
  251.34000  100.09730  395.99220
  251.37000  100.09730  396.18780
  251.40000  100.68090  395.89440
  251.43000  106.51760  395.60130
  251.46000  107.68490  395.50350
  251.49000  107.68490  395.40570
  251.52000  103.59920  395.30790
  251.55000  103.59920  395.30790
  251.58000  104.18300  395.30790
  251.61000  107.10120  395.30790
  251.64000  100.09730  395.30790
  251.67000  100.09730  395.30790
  251.70000  101.26450  396.18780
  251.73000  101.84820  397.06740
  251.76000  103.01550  397.84950
  251.79000  103.59920  398.63160
  251.82000  105.35030  399.41340
  251.85000  107.68490  399.41340
  251.88000  108.26850  399.41340
  251.91000  106.51760  399.60900
  251.94000  104.18300  399.80460
  251.97000  103.59920  399.99990
  252.00000  101.84820  399.99990
  252.03000  100.68090  399.99990
  252.06000   91.92600  399.99990
  252.09000   91.34235  399.99990
  252.12000  101.26450  399.99990
  252.15000  101.26450  399.99990
  252.18000   97.17901  399.99990
  252.21000   96.01170  399.85350
  252.24000   96.01170  399.70680
  252.27000   96.01170  399.51120
  252.30000  101.26450  399.31560
  252.33000  104.18300  399.12030
  252.36000  103.59920  398.97360
  252.39000  100.09730  398.82690
  252.42000  100.09730  398.53380
  252.45000   97.76266  398.24040
  252.48000   97.17901  397.94730
  252.51000   96.59534  397.65390
  252.54000   96.59534  397.36080
  252.57000   97.17901  397.06740
  252.60000   97.76266  396.77430
  252.63000   98.92995  396.48090
  252.66000   99.51360  397.06740
  252.69000  100.09730  397.65390
  252.72000  102.43190  397.65390
  252.75000  103.59920  397.65390
  252.78000  104.18300  397.65390
  252.81000  105.93390  397.94730
  252.84000  103.01550  398.24040
  252.87000  100.09730  398.43600
  252.90000   99.31905  398.63160
  252.93000   98.54086  398.82690
  252.96000   97.76266  398.97360
  252.99000   97.76266  399.12030
  253.02000   97.76266  399.21810
  253.05000   97.76266  399.31560
  253.08000   87.84045  397.94730
  253.11000   93.09345  397.65390
  253.14000   93.67710  397.36080
  253.17000   94.26075  397.06740
  253.20000   94.84440  395.89440
  253.23000   97.76266  395.30790
  253.26000   97.76266  395.11230
  253.29000   98.92995  394.91700
  253.32000   99.51360  394.72140
  253.35000  100.09730  394.72140
  253.38000  100.09730  397.06740
  253.41000  101.26450  397.06740
  253.44000  101.84820  397.06740
  253.47000  102.43190  397.21410
  253.50000  101.84820  397.36080
  253.53000  101.26450  397.55610
  253.56000  100.68090  397.75170
  253.59000   99.70815  397.94730
  253.62000   98.73540  398.09370
  253.65000   97.76266  398.24040
  253.68000   96.30345  398.14260
  253.71000   94.84440  398.04510
  253.74000   94.64985  397.94730
  253.77000   94.45530  396.77430
  253.80000   94.26075  395.60130
  253.83000   94.26075  395.30790
  253.86000   94.26075  395.01480
  253.89000   94.26075  394.72140
  253.92000   94.26075  394.42830
  253.95000  115.85610  394.13490
  253.98000  115.85610  393.84150
  254.01000  115.85610  393.54840
  254.04000  100.09730  393.25500
  254.07000  101.26450  393.84150
  254.10000  101.26450  394.42830
  254.13000  101.84820  394.13490
  254.16000  101.84820  393.84150
  254.19000  101.84820  393.54840
  254.22000   99.51360  393.84150
  254.25000   99.51360  394.13490
  254.28000   99.51360  394.91700
  254.31000   99.51360  395.69880
  254.34000   99.51360  396.48090
  254.37000  103.59920  396.33420
  254.40000  103.59920  396.18780
  254.43000  103.59920  396.48090
  254.46000  103.59920  396.77430
  254.49000  104.18300  397.06740
  254.52000  104.18300  397.50720
  254.55000  104.76660  397.94730
  254.58000  105.05840  397.94730
  254.61000  105.35030  397.94730
  254.64000  105.93390  397.94730
  254.67000  107.10120  397.94730
  254.70000  103.59920  397.94730
  254.73000  100.09730  397.94730
  254.76000   99.80550  397.94730
  254.79000   99.51360  397.94730
  254.82000   99.51360  397.94730
  254.85000   99.51360  397.94730
  254.88000   99.51360  397.84950
  254.91000  103.01550  397.75170
  254.94000  101.26450  397.65390
  254.97000  100.68090  397.80060
  255.00000   98.92995  397.94730
  255.03000  103.59920  398.33880
  255.06000   91.92600  398.73060
  255.09000   94.26075  398.82810
  255.12000  105.35030  398.92590
  255.15000  105.93390  399.02340
  255.18000  106.51760  399.16980
  255.21000  110.01940  399.31650
  255.24000  109.43580  399.21870
  255.27000  105.93390  399.12120
  255.30000  105.93390  399.02340
  255.33000  104.76660  398.58390
  255.36000  104.76660  398.14440
  255.39000  104.76660  398.14440
  255.42000  104.76660  398.14440
  255.45000  104.76660  398.14440
  255.48000  104.76660  399.46290
  255.51000  104.76660  400.78140
  255.54000  101.26450  401.66010
  255.57000  101.84820  402.53910
  255.60000  102.43190  403.41810
  255.63000  105.93390  404.29680
  255.66000  105.35030  404.29680
  255.69000  105.35030  404.29680
  255.72000  105.35030  404.29680
  255.75000  105.35030  404.29680
  255.78000  107.68490  404.29680
  255.81000  107.68490  404.29680
  255.84000  104.76660  404.29680
  255.87000  104.18300  404.29680
  255.90000  101.84820  404.29680
  255.93000  101.84820  404.29680
  255.96000  101.84820  404.29680
  255.99000  102.43190  404.29680
  256.02000   80.83665  404.29680
  256.05000   81.42030  404.29680
  256.08000   82.00395  404.29680
  256.11000  101.26450  404.00400
  256.14000  100.68090  403.85730
  256.17000   98.34631  403.41810
  256.20000   97.17901  403.12500
  256.23000   95.42805  401.66010
  256.26000   95.42805  401.36730
  256.29000   95.42805  401.36730
  256.32000   95.42805  400.78140
  256.35000   99.51360  400.78140
  256.38000   99.90270  400.78140
  256.41000  104.18300  400.78140
  256.44000   98.92995  399.90240
  256.47000   98.34631  399.31650
  256.50000   98.34631  398.43750
  256.53000   98.92995  398.14440
  256.56000   99.51360  397.85160
  256.59000  101.84820  397.55850
  256.62000  103.59920  396.97260
  256.65000  103.01550  396.82620
  256.68000   98.34631  396.67980
  256.71000   93.67710  396.09390
  256.74000   91.92600  396.09390
  256.77000   91.34235  396.09390
  256.80000   92.50980  396.09390
  256.83000   93.09345  396.09390
  256.86000  100.68090  396.09390
  256.89000  101.26450  396.09390
  256.92000  100.68090  395.21490
  256.95000   99.51360  395.21490
  256.98000   98.34631  395.21490
  257.01000   92.50980  395.21490
  257.04000   90.17504  394.92180
  257.07000   86.08950  394.62900
  257.10000  108.26850  394.62900
  257.13000  104.76660  394.62900
  257.16000  103.59920  394.62900
  257.19000  103.01550  394.62900
  257.22000   99.51360  394.62900
  257.25000   98.92995  394.77540
  257.28000   98.92995  394.92180
  257.31000   97.47075  395.11710
  257.34000   96.01170  395.31240
  257.37000   97.17901  395.50770
  257.40000   98.34631  395.36130
  257.43000  100.38920  395.21490
  257.46000  102.43190  395.28150
  257.49000  101.84820  395.34810
  257.52000  101.84820  395.41470
  257.55000  103.59920  396.00000
  257.58000  103.59920  396.58530
  257.61000  103.59920  396.39030
  257.64000   95.42805  396.19500
  257.67000   94.84440  396.00000
  257.70000   94.26075  395.70720
  257.73000   94.55250  395.41470
  257.76000   94.84440  395.41470
  257.79000   94.84440  395.41470
  257.82000  100.09730  395.41470
  257.85000  100.09730  395.26830
  257.88000  100.09730  395.12190
  257.91000   99.51360  395.31720
  257.94000   99.51360  395.51220
  257.97000   93.09345  395.70720
  258.00000   93.09345  396.00000
  258.03000   93.67710  396.29280
  258.06000   98.92995  396.00000
  258.09000  100.09730  395.70720
  258.12000   98.92995  395.80500
  258.15000   98.92995  395.90250
  258.18000   97.76266  396.00000
  258.21000   97.76266  395.41470
