~Version ---------------------------------------------------
VERS. 2.0 : CWLS log ASCII Standard -VERSION 2.0
WRAP.  NO : One line per depth step
~Well ------------------------------------------------------
STRT.M                 60.0 : START
STOP.M               304.92 : STOP
STEP.M 0.030000000000001137 : STEP
NULL.               -999.25 : NULL VALUE
WELL.     Gamma_Ray_Neutron : Well Name
FLD .                       : Field
PROV.                       : Province
LOC .                       : Field Location
PD  .                   MSL : Permanent Datum
UWI .           RAJAMANDALA : Unique Well ID
ELZ .M                  0.0 : Elevation Log Zero
OS  .                       : Services
SRVC.                       : Service company
DATE.                       : Date
~Curve Information -----------------------------------------
DEPT.M    : 1  Depth
GR  .CPS  : 2  Gamma-Ray Log
NEUT.CPS  : 3  Neutron
~Params ----------------------------------------------------
~Other -----------------------------------------------------
~ASCII -----------------------------------------------------
# ...
  286.56000  100.09740  397.01580
  286.59000  101.07210  396.28170
  286.62000  102.04680  396.28170
  286.65000  103.36260  396.28170
  286.68000  104.38590  396.28170
  286.71000  100.87730  396.28170
  286.74000   99.70755  396.28170
  286.77000   98.53800  396.42870
  286.80000   98.24565  396.57540
  286.83000   97.66080  399.51090
  286.86000   97.66080  400.09770
  286.89000   98.53800  405.67500
  286.92000  101.16960  403.91400
  286.95000  101.31580  403.03320
  286.98000  102.92400  403.03320
  287.01000  101.75450  401.56560
  287.04000  100.58480  401.27190
  287.07000   99.41520  393.93360
  287.10000   98.24565  393.63990
  287.13000   97.07595  393.63990
  287.16000   95.90639  393.05280
  287.19000   96.39375  393.05280
  287.22000   96.88110  392.17230
  287.25000   97.36845  391.58520
  287.28000   97.51470  391.29150
  287.31000   90.35085  391.29150
  287.34000   89.76615  391.29150
  287.37000   89.76615  391.29150
  287.40000   98.24565  391.58520
  287.43000   98.24565  392.46570
  287.46000   98.24565  393.34650
  287.49000   98.24565  393.63990
  287.52000   97.66080  393.93360
  287.55000   97.36845  394.30050
  287.58000  102.92400  394.66740
  287.61000  103.50880  395.03430
  287.64000  104.67840  395.40120
  287.67000  104.97080  395.69460
  287.70000  103.65500  395.98830
  287.73000  102.33910  396.37950
  287.76000  101.85180  396.77100
  287.79000  101.36440  397.16250
  287.82000  106.72520  397.45590
  287.85000  106.72520  398.92380
  287.88000  107.01750  400.09770
  287.91000  107.31000  396.57540
  287.94000  107.01750  396.57540
  287.97000  100.58480  396.57540
  288.00000  101.16960  397.16700
  288.03000  102.63160  399.01620
  288.06000  104.38590  400.86510
  288.09000  100.58480  402.71430
  288.12000   99.70755  404.56350
  288.15000   97.66080  406.19070
  288.18000   97.95316  407.11530
  288.21000   98.83035  408.03960
  288.24000   99.70755  408.96420
  288.27000  100.29240  409.88880
  288.30000  100.58480  410.66550
  288.33000  100.87730  407.98440
  288.36000  102.04680  405.67290
  288.39000  102.33910  403.36170
  288.42000  102.92400  401.05020
  288.45000  103.21630  398.92380
  288.48000  102.04680  398.92380
  288.51000  102.04680  398.92380
  288.54000  102.04680  398.92380
  288.57000  102.04680  398.92380
  288.60000  101.31580  398.92380
  288.63000  100.58480  398.69280
  288.66000  100.09740  398.46150
  288.69000   93.56730  398.23050
  288.72000   93.56730  397.99920
  288.75000   93.56730  397.76820
  288.78000   93.85965  397.74960
  288.81000   94.44450  397.74960
  288.84000   95.02920  398.63010
  288.87000   95.32169  398.63010
  288.90000   95.90639  398.63010
  288.93000  100.29240  398.63010
  288.96000   99.12285  398.63010
  288.99000   98.53800  398.63010
  289.02000   98.53800  398.33670
  289.05000   93.56730  397.74960
  289.08000   93.56730  387.18210
  289.11000   80.99416  387.18210
  289.14000   82.74854  388.35630
  289.17000   83.33340  389.53020
  289.20000   95.90639  390.70440
  289.23000   96.19890  401.56560
  289.26000   96.49126  401.85900
  289.29000   96.49126  402.15270
  289.32000   96.63734  402.44610
  289.35000   97.36845  402.44610
  289.38000   97.66080  403.03320
  289.41000  101.46190  403.32690
  289.44000  100.58480  403.62030
  289.47000  100.58480  404.35410
  289.50000  100.58480  405.38160
  289.53000  100.58480  404.50110
  289.56000  100.58480  397.16250
  289.59000  100.58480  397.16250
  289.62000  101.16960  397.16250
  289.65000  101.31580  397.16250
  289.68000  101.46190  397.60260
  289.71000  108.18720  398.04300
  289.74000  103.50880  398.43450
  289.77000  101.16960  398.82570
  289.80000  101.16960  399.21720
  289.83000  101.16960  399.65760
  289.86000  102.63160  400.09770
  289.89000  106.72520  400.48920
  289.92000  105.26310  400.88070
  289.95000  104.67840  401.27190
  289.98000  100.58480  400.68480
  290.01000  100.00010  400.68480
  290.04000   99.02340  400.39140
  290.07000   99.02340  399.51090
  290.10000   99.02340  399.21720
  290.13000   99.02340  396.86880
  290.16000   98.73044  397.16250
  290.19000   96.67965  398.33670
  290.22000   97.55865  398.63010
  290.25000  100.48830  398.77680
  290.28000  100.63470  398.92380
  290.31000  101.07420  399.07050
  290.34000   97.85160  399.21720
  290.37000   97.85160  399.21720
  290.40000   97.85160  399.21720
  290.43000   98.58405  399.21720
  290.46000   99.31635  399.07050
  290.49000   99.80475  398.92380
  290.52000  100.29300  397.45590
  290.55000  100.78130  395.98830
  290.58000  101.51370  395.79270
  290.61000  102.24610  395.59680
  290.64000  102.73440  392.46570
  290.67000  103.22260  392.75940
  290.70000  103.71090  393.05280
  290.73000  104.58990  393.63990
  290.76000  102.24610  393.93360
  290.79000   98.73044  394.22700
  290.82000   97.26571  395.10750
  290.85000   96.38669  395.51850
  290.88000   95.21490  395.92950
  290.91000   94.92194  396.34050
  290.94000   93.75000  396.75150
  290.97000   93.16410  397.16250
  291.00000   89.64840  397.16250
  291.03000   89.64840  400.68480
  291.06000   89.94135  400.68480
  291.09000   90.23444  400.68480
  291.12000   90.38085  401.71230
  291.15000   90.52740  402.73980
  291.18000   89.64840  403.52250
  291.21000   88.18365  404.30520
  291.24000   87.89069  404.79450
  291.27000   87.89069  403.91400
  291.30000   87.01170  403.32690
  291.33000   86.42580  403.32690
  291.36000   86.13285  403.13100
  291.39000   86.71875  402.93540
  291.42000   88.18365  402.73980
  291.45000   99.60946  402.44610
  291.48000   99.60946  402.34830
  291.51000   99.60946  402.25050
  291.54000   99.60946  401.27190
  291.57000   99.31635  401.46780
  291.60000   92.57819  401.66340
  291.63000   92.57819  401.85900
  291.66000   92.87115  402.15270
  291.69000   93.16410  402.29940
  291.72000   93.16410  402.44610
  291.75000   95.50785  402.59310
  291.78000   95.80080  402.73980
  291.81000   96.09375  402.73980
  291.84000   95.50785  402.73980
  291.87000   89.06250  402.73980
  291.90000   89.35545  402.73980
  291.93000   89.94135  402.44610
  291.96000   91.40625  402.15270
  291.99000   91.69920  402.15270
  292.02000   92.57819  394.81410
  292.05000   94.62885  394.81410
  292.08000   93.45705  394.81410
  292.11000   92.57819  394.52040
  292.14000   92.28510  394.22700
  292.17000   91.69920  393.93360
  292.20000   91.11330  393.93360
  292.23000   90.82035  393.93360
  292.26000   90.82035  394.42260
  292.29000   90.82035  394.91190
  292.32000   92.28510  395.40120
  292.35000   92.28510  395.30340
  292.38000   92.28510  395.20560
  292.41000   92.28510  395.10750
  292.44000   93.01755  394.96080
  292.47000   93.75000  394.81410
  292.50000  102.44630  395.40120
  292.53000  102.44630  395.98830
  292.56000  102.44630  396.57540
  292.59000  102.44630  397.89630
  292.62000  102.44630  399.21720
  292.65000  102.44630  399.31500
  292.68000  103.62030  399.41280
  292.71000  106.55580  399.51090
  292.74000  106.26220  398.77680
  292.77000  105.96870  398.04300
  292.80000  105.08810  398.14080
  292.83000  104.79450  398.23890
  292.86000   98.63010  398.33670
  292.89000   98.48340  398.77680
  292.92000   97.16235  399.21720
  292.95000   96.86895  399.41280
  292.98000   96.57539  399.60870
  293.01000   95.98830  399.80430
  293.04000   95.69476  399.99990
  293.07000   95.40121  400.19580
  293.10000   94.81410  400.39140
  293.13000   94.52055  400.39140
  293.16000   93.63991  400.39140
  293.19000   93.63991  400.48920
  293.22000   92.75925  400.58700
  293.25000   92.75925  400.68480
  293.28000   91.29165  400.39140
  293.31000   89.82390  400.09770
  293.34000   89.23680  399.99990
  293.37000   88.64970  399.90210
  293.40000   88.06260  399.80430
  293.43000   88.64970  399.80430
  293.46000   89.23680  399.80430
  293.49000   88.74750  400.09770
  293.52000   88.25835  400.39140
  293.55000   87.76905  400.68480
  293.58000   96.86895  400.83180
  293.61000   99.21720  400.97850
