~Version ---------------------------------------------------
VERS. 2.0 : CWLS log ASCII Standard -VERSION 2.0
WRAP.  NO : One line per depth step
~Well ------------------------------------------------------
STRT.M                 60.0 : START
STOP.M               304.92 : STOP
STEP.M 0.030000000000001137 : STEP
NULL.               -999.25 : NULL VALUE
WELL.     Gamma_Ray_Neutron : Well Name
FLD .                       : Field
PROV.                       : Province
LOC .                       : Field Location
PD  .                   MSL : Permanent Datum
UWI .           RAJAMANDALA : Unique Well ID
ELZ .M                  0.0 : Elevation Log Zero
OS  .                       : Services
SRVC.                       : Service company
DATE.                       : Date
~Curve Information -----------------------------------------
DEPT.M    : 1  Depth
GR  .CPS  : 2  Gamma-Ray Log
NEUT.CPS  : 3  Neutron
~Params ----------------------------------------------------
~Other -----------------------------------------------------
~ASCII -----------------------------------------------------
   60.00000    -999.25    -999.25
   60.03000    -999.25    -999.25
   60.06000    -999.25    -999.25
   60.09000    -999.25    -999.25
   60.12000    -999.25    -999.25
   60.15000    -999.25    -999.25
   60.18000    -999.25    -999.25
   60.21000    -999.25    -999.25
   60.24000    -999.25    -999.25
   60.27000    -999.25    -999.25
   60.30000    -999.25    -999.25
   60.33000    -999.25    -999.25
   60.36000    -999.25    -999.25
   60.39000    -999.25    -999.25
   60.42000    -999.25    -999.25
   60.45000    -999.25    -999.25
   60.48000    0.00000  301.46060
   60.51000    0.00000  301.46060
   60.54000    0.00000  301.46060
   60.57000    0.00000  301.46060
   60.60000    0.00000  301.46060
   60.63000    0.00000  301.38240
   60.66000    0.00000  301.26740
   60.69000    0.00000  301.15230
   60.72000    0.00000  301.03740
   60.75000    0.00000  300.92230
   60.78000    0.00000  300.87630
   60.81000    0.00000  300.87660
   60.84000    0.00000  300.87680
   60.87000    0.00000  300.29240
   60.90000    0.00000  300.43860
   60.93000    0.00000  300.58480
   60.96000    0.00000  300.58480
   60.99000    0.00000  300.43860
   61.02000    0.00000  300.29240
   61.05000    0.00000  300.29240
   61.08000    0.00000  300.23390
   61.11000    0.00000  300.17540
   61.14000    0.00000  300.11700
   61.17000    0.00000  300.05850
   61.20000    0.00000  300.00000
   61.23000    0.00000  300.00000
   61.26000    0.00000  300.00000
   61.29000    0.00000  300.00000
   61.32000    0.00000  300.00000
   61.35000    0.00000  300.00000
   61.38000    0.00000  300.00000
   61.41000    0.00000  300.00000
   61.44000    0.00000  300.00000
   61.47000    0.00000  300.00000
   61.50000    0.00000  300.00000
   61.53000    0.00000  300.00000
   61.56000    0.00000  300.29240
   61.59000    0.00000  300.29240
   61.62000    0.00000  300.29240
   61.65000    0.00000  300.43860
   61.68000    0.06880  299.12190
   61.71000    0.64215  299.41460
   61.74000    1.21551  299.70730
   61.77000    1.78886  300.00000
   61.80000    2.36221  300.29270
   61.83000    2.91262  300.65850
   61.86000    2.91262  301.02440
   61.89000    2.91262  301.39030
   61.92000    2.91262  301.75610
   61.95000    2.91262  302.24390
   61.98000    2.91262  302.73170
   62.01000    2.91262  303.21950
   62.04000    2.91262  304.09760
   62.07000    2.91262  304.53660
   62.10000    2.91262  304.97560
   62.13000    2.91262  305.41460
   62.16000    2.91262  308.19510
   62.19000    2.91262  308.78050
   62.22000    2.91262  308.78050
   62.25000    2.91262  308.78050
   62.28000    2.91262  308.78050
   62.31000    2.91262  308.78050
   62.34000    2.91262  308.78050
   62.37000    2.91262  308.78050
   62.40000    2.91262  308.48780
   62.43000    2.91262  308.48780
   62.46000    2.91262  308.48780
   62.49000    2.91262  308.48780
   62.52000    2.91262  308.49190
   62.55000    2.91262  308.49610
   62.58000    2.91262  308.49610
   62.61000    2.91262  308.49610
   62.64000    2.91262  308.49610
   62.67000    2.91262  308.34960
   62.70000    2.91262  308.20310
   62.73000    2.91262  308.20310
   62.76000    2.91262  308.20310
   62.79000    2.91262  308.20310
   62.82000    2.91262  308.20310
   62.85000    2.91262  308.20310
   62.88000    2.91262  308.20310
   62.91000    2.91262  308.20310
   62.94000    2.91262  308.20310
   62.97000    2.91262  308.20310
   63.00000    2.91262  308.20310
   63.03000    2.91262  308.20310
   63.06000    2.91262  308.20310
   63.09000    2.91262  308.20310
   63.12000    2.91262  308.20310
   63.15000    2.91262  308.20310
   63.18000    2.91262  308.20310
   63.21000    2.91262  308.20310
   63.24000    2.91262  308.20310
   63.27000    2.91262  308.20310
   63.30000    2.91262  308.20310
   63.33000    2.91262  308.20580
   63.36000    2.91262  308.20850
   63.39000    2.91262  308.21120
   63.42000    2.91262  308.21120
   63.45000    2.91262  308.21120
   63.48000    2.91262  308.21120
   63.51000    2.91262  308.21120
   63.54000    2.91262  308.21120
   63.57000    2.91262  308.21120
   63.60000    2.91262  308.21120
   63.63000    2.91262  308.21120
   63.66000    2.91262  308.21120
   63.69000    2.91262  308.21120
   63.72000    2.91262  308.21120
   63.75000    2.91262  308.21120
   63.78000    2.91262  308.21120
   63.81000    2.91262  308.21120
   63.84000    2.91262  308.21120
   63.87000    2.91262  308.21120
   63.90000    2.91262  308.21120
   63.93000    2.91262  308.21120
   63.96000    2.91262  308.21120
   63.99000    2.91262  308.21120
   64.02000    2.91262  308.21120
   64.05000    2.91262  308.21120
   64.08000    2.91262  308.21120
   64.11000    2.91262  308.21120
   64.14000    2.91262  308.21120
   64.17000    2.91262  308.21520
   64.20000    2.91262  308.21920
   64.23000    2.91262  308.21920
   64.26000    2.91262  308.21920
   64.29000    2.91262  308.21920
   64.32000    2.91262  308.21920
   64.35000    2.91262  308.21920
   64.38000    2.91262  308.21920
   64.41000    2.91262  308.21920
   64.44000    2.91262  308.21920
   64.47000    2.91262  308.07240
   64.50000    2.91262  307.92560
   64.53000    2.91262  307.92560
   64.56000    2.91262  307.92560
   64.59000    2.91262  307.92560
   64.62000    2.91262  307.92560
   64.65000    2.91262  307.92560
   64.68000    2.91262  307.92560
   64.71000    2.91262  307.92560
   64.74000    2.91262  307.92560
   64.77000    2.91262  307.92560
   64.80000    2.91262  307.92560
   64.83000    2.91262  307.92560
   64.86000    2.91262  307.92560
   64.89000    2.93785  307.92560
   64.92000    2.99519  307.92560
   64.95000    3.05252  307.92560
   64.98000    3.10986  307.92950
   65.01000    3.16719  307.93340
   65.04000    3.20388  307.93340
   65.07000    3.12743  307.93340
   65.10000    3.07120  307.93340
   65.13000    3.01498  307.93340
   65.16000    2.95877  307.93340
   65.19000    2.91830  307.93340
   65.22000    2.91830  307.93340
   65.25000    2.91830  307.93340
   65.28000    2.91830  307.93340
   65.31000    2.91830  307.93340
   65.34000    2.91830  307.93340
   65.37000    2.91830  307.93340
   65.40000    2.91830  307.93340
   65.43000    2.91830  307.93340
   65.46000    2.91830  307.93340
   65.49000    2.91830  307.93340
   65.52000    2.91830  307.93340
   65.55000    2.91830  307.93340
   65.58000    2.91830  307.93340
   65.61000    2.91830  307.93340
   65.64000    2.91830  307.93340
   65.67000    2.91830  307.93340
   65.70000    2.91830  307.93340
   65.73000    2.91830  307.93340
   65.76000    2.91830  307.93340
   65.79000    2.91830  308.00680
   65.82000    2.91830  308.08030
   65.85000    2.91830  308.15370
   65.88000    2.91830  308.22720
   65.91000    2.91830  308.22720
   65.94000    2.91830  308.22720
   65.97000    2.91830  308.22720
   66.00000    2.91830  308.22720
   66.03000    2.91830  308.22720
   66.06000    2.91830  308.22720
   66.09000    2.91830  308.22720
   66.12000    2.91830  308.22720
   66.15000    2.91830  308.22720
   66.18000    2.91830  308.22720
   66.21000    2.91830  308.22720
   66.24000    2.91830  308.22720
   66.27000    2.91830  308.22720
   66.30000    2.91830  308.22720
   66.33000    2.91830  308.22720
   66.36000    2.91830  308.22720
   66.39000    2.91830  308.52110
   66.42000    2.91830  308.52110
   66.45000    2.91830  308.52110
   66.48000    2.91830  308.52110
   66.51000    2.91830  308.52110
   66.54000    2.91830  308.52110
   66.57000    2.91830  308.52110
   66.60000    2.91830  308.52110
   66.63000    2.91830  308.52110
   66.66000    2.91830  308.52110
   66.69000    2.91830  308.52110
   66.72000    2.91830  308.55040
   66.75000    2.91830  308.57980
   66.78000    2.91830  308.60920
   66.81000    2.91830  308.63860
   66.84000    2.91830  308.66800
   66.87000    2.91830  308.69740
   66.90000    2.91830  308.72670
   66.93000    2.91830  308.75610
   66.96000    2.91830  308.78550
   66.99000    2.91830  308.81490
   67.02000    2.91830  308.81490
   67.05000    2.91830  308.81490
