~Version ---------------------------------------------------
VERS. 2.0 : CWLS log ASCII Standard -VERSION 2.0
WRAP.  NO : One line per depth step
~Well ------------------------------------------------------
STRT.M                 60.0 : START
STOP.M               304.92 : STOP
STEP.M 0.030000000000001137 : STEP
NULL.               -999.25 : NULL VALUE
WELL.     Gamma_Ray_Neutron : Well Name
FLD .                       : Field
PROV.                       : Province
LOC .                       : Field Location
PD  .                   MSL : Permanent Datum
UWI .           RAJAMANDALA : Unique Well ID
ELZ .M                  0.0 : Elevation Log Zero
OS  .                       : Services
SRVC.                       : Service company
DATE.                       : Date
~Curve Information -----------------------------------------
DEPT.M    : 1  Depth
GR  .CPS  : 2  Gamma-Ray Log
NEUT.CPS  : 3  Neutron
~Params ----------------------------------------------------
~Other -----------------------------------------------------
~ASCII -----------------------------------------------------
# ...
  187.44000   97.45589  413.04780
  187.47000   97.60275  412.88940
  187.50000   97.74945  412.73130
  187.53000   98.33655  412.57320
  187.56000   98.33655  413.01180
  187.59000  102.73970  413.45040
  187.62000  102.73970  413.88900
  187.65000  102.73970  414.32760
  187.68000  102.73970  413.93760
  187.71000  103.32670  413.54790
  187.74000  103.91390  413.45040
  187.77000  104.64780  411.11100
  187.80000  105.38160  410.23380
  187.83000  105.96870  409.94160
  187.86000  106.55580  409.64910
  187.89000  107.14290  409.35660
  187.92000  112.13310  408.47940
  187.95000  110.07830  406.72530
  187.98000  109.78470  406.33530
  188.01000  107.73000  405.94530
  188.04000  107.73000  405.55560
  188.07000  107.73000  404.97090
  188.10000  107.73000  402.33930
  188.13000  107.73000  402.33930
  188.16000  107.73000  402.33930
  188.19000  107.73000  402.33930
  188.22000  107.43640  401.07210
  188.25000  107.43640  399.80520
  188.28000  105.96870  398.53800
  188.31000  105.38160  397.75980
  188.34000  105.38160  396.98160
  188.37000  100.09790  397.41960
  188.40000  100.68500  397.85790
  188.43000  112.72020  397.56570
  188.46000  112.42670  397.27350
  188.49000  112.42670  396.98160
  188.52000  111.54600  396.54330
  188.55000  110.07830  396.10530
  188.58000  109.93150  396.10530
  188.61000  105.38160  396.10530
  188.64000   99.21720  396.10530
  188.67000   98.92365  396.25110
  188.70000   98.63010  396.39720
  188.73000   98.04300  396.29790
  188.76000   96.86895  396.19890
  188.79000   95.98830  396.97860
  188.82000   95.98830  397.75830
  188.85000   91.29165  398.53800
  188.88000   90.70455  399.85380
  188.91000   89.82390  401.16960
  188.94000   88.94325  402.04680
  188.97000   87.18195  405.55560
  189.00000   88.06260  405.26310
  189.03000   88.94325  405.26310
  189.06000   89.82390  405.26310
  189.09000   89.23680  405.40950
  189.12000   88.06260  405.55560
  189.15000   87.18195  405.55560
  189.18000   86.59485  405.55560
  189.21000   84.24660  405.55560
  189.24000   84.24660  412.28070
  189.27000   83.95306  412.28070
  189.30000   83.65949  412.28070
  189.33000   83.36595  412.28070
  189.36000   81.60464  412.86540
  189.39000   78.66930  413.45040
  189.42000   78.96284  413.54790
  189.45000   79.54995  413.64510
  189.48000   79.84350  413.74260
  189.51000   85.12725  414.32760
  189.54000   85.71436  414.91230
  189.57000   85.71436  415.93560
  189.60000   81.89820  416.95920
  189.63000   81.89820  417.64140
  189.66000   80.43060  418.32360
  189.69000   79.84350  419.00580
  189.72000   78.96284  420.02910
  189.75000   76.32090  421.05270
  189.78000   76.90800  422.22210
  189.81000   77.20155  423.39180
  189.84000   78.08220  424.41510
  189.87000   79.25640  425.43870
  189.90000   72.50490  424.46400
  189.93000   71.33070  423.48930
  189.96000   70.15650  422.51460
  189.99000   68.98245  421.44240
  190.02000   69.86295  420.37050
  190.05000   73.67910  419.29830
  190.08000   74.85329  418.12860
  190.11000   75.44025  416.95920
  190.14000   76.32090  415.78950
  190.17000   77.20155  415.35090
  190.20000   77.34840  414.91230
  190.23000   77.49510  415.10730
  190.26000   75.14670  415.30200
  190.29000   75.73380  415.49700
  190.32000   74.55975  415.35090
  190.35000   74.85329  415.20480
  190.38000   75.14670  415.39950
  190.41000   75.73380  415.59450
  190.44000   76.32090  415.78950
  190.47000   71.33070  416.37420
  190.50000   68.98245  416.95920
  190.53000   67.80825  417.34890
  190.56000   65.45985  417.73890
  190.59000   65.16630  418.12860
  190.62000   65.45985  423.68430
  190.65000   66.63405  423.68430
  190.68000   67.51470  422.80710
  190.71000   68.98245  421.92990
  190.74000   69.42270  421.05270
  190.77000   75.73380  419.29830
  190.80000   76.90800  420.46770
  190.83000   77.20155  420.76020
  190.86000   77.49510  420.76020
  190.89000   78.66930  420.76020
  190.92000   79.25640  420.76020
  190.95000   79.54995  420.76020
  190.98000   81.89820  420.76020
  191.01000   81.89820  420.76020
  191.04000   81.89820  420.76020
  191.07000   81.31110  420.76020
  191.10000   81.31110  420.76020
  191.13000   81.01756  420.76020
  191.16000   79.25640  420.76020
  191.19000   78.66930  420.76020
  191.22000   76.90800  420.76020
  191.25000   75.00255  424.85370
  191.28000   73.09695  425.07300
  191.31000   71.19135  425.29230
  191.34000   70.11720  425.51160
  191.37000   69.04290  425.73090
  191.40000   67.96875  426.41340
  191.43000   66.89460  454.09350
  191.46000   65.82030  454.09350
  191.49000   64.74615  454.09350
  191.52000   60.93750  459.94140
  191.55000   61.52340  465.78960
  191.58000   62.40240  470.90640
  191.61000   63.28125  476.02350
  191.64000   63.57420  480.06060
  191.67000   62.98830  484.09770
  191.70000   60.64455  487.46340
  191.73000   60.35160  490.82940
  191.76000   60.05865  494.04870
  191.79000   60.05865  535.60980
  191.82000   60.35160  537.95130
  191.85000   60.93750  538.97550
  191.88000   62.10945  541.17060
  191.91000   62.40240  541.90230
  191.94000   62.69535  551.70720
  191.97000   63.28125  552.29280
  192.00000   62.69535  570.43890
  192.03000   61.23045  570.73170
  192.06000   57.42195  572.78040
  192.09000   56.83590  573.95130
  192.12000   58.30080  596.48790
  192.15000   61.23045  598.82940
  192.18000   60.05865  599.12190
  192.21000   59.47260  600.00000
  192.24000   57.71490  605.56200
  192.27000   57.42195  605.56200
  192.30000   56.54295  604.97700
  192.33000   58.30080  604.68300
  192.36000   59.47260  604.38900
  192.39000   59.76570  604.24500
  192.42000   60.35160  604.09800
  192.45000   60.64455  602.04900
  192.48000   60.64455  601.75500
  192.51000   60.64455  601.75500
  192.54000   60.35160  601.75500
  192.57000   60.05865  602.19300
  192.60000   59.76570  603.21600
  192.63000   52.44135  608.18700
  192.66000   52.44135  609.06300
  192.69000   53.61330  610.81800
  192.72000   54.49215  611.11200
  192.75000   55.37115  611.11200
  192.78000   58.59375  601.46100
  192.81000   58.74030  600.87600
  192.84000   58.88670  599.41530
  192.87000   59.47260  598.97670
  192.90000   60.05865  597.66090
  192.93000   60.35160  595.32150
  192.96000   60.64455  595.02930
  192.99000   61.23045  590.93580
  193.02000   61.81635  586.25730
  193.05000   62.40240  562.28070
  193.08000   68.84760  560.52630
  193.11000   68.55465  559.50300
  193.14000   68.55465  546.19890
  193.17000   62.98830  544.73670
  193.20000   62.69535  543.85980
  193.23000   61.52340  541.52040
  193.26000   60.35160  541.22820
  193.29000   60.64455  531.87150
  193.32000   60.93750  524.56140
  193.35000   61.23045  520.09770
  193.38000   62.98830  517.46340
  193.41000   63.57420  517.17060
  193.44000   63.57420  516.29280
  193.47000   64.45320  514.82940
  193.50000   64.45320  514.60980
  193.53000   62.10945  514.39020
  193.56000   60.20505  514.17060
  193.59000   58.30080  513.65850
  193.62000   57.91020  513.21960
  193.65000   57.51960  512.78040
  193.68000   57.12885  512.48790
  193.71000   56.70195  512.34150
  193.74000   53.61330  512.19510
  193.77000   53.80110  504.58530
  193.80000   53.80110  496.97550
  193.83000   54.67830  489.07320
  193.86000   54.97080  487.02450
  193.89000   55.11690  484.97550
  193.92000   58.77195  483.51210
  193.95000   58.77195  471.80490
  193.98000   57.60240  471.21960
  194.01000   57.30990  470.92680
  194.04000   54.67830  470.63400
  194.07000   45.61410  470.34150
  194.10000   45.61410  470.34150
  194.13000   45.61410  470.34150
  194.16000   45.90645  470.34150
  194.19000   53.50875  470.34150
  194.22000   53.80110  470.34150
  194.25000   53.80110  470.34150
  194.28000   54.09360  470.63400
  194.31000   54.09360  470.70720
  194.34000   53.80110  470.78040
  194.37000   58.47960  465.07320
  194.40000   58.47960  465.07320
  194.43000   58.47960  465.07320
  194.46000   58.47960  464.97570
  194.49000   58.47960  464.87820
