~Version ---------------------------------------------------
VERS. 2.0 : CWLS log ASCII Standard -VERSION 2.0
WRAP.  NO : One line per depth step
~Well ------------------------------------------------------
STRT.M                 60.0 : START
STOP.M               304.92 : STOP
STEP.M 0.030000000000001137 : STEP
NULL.               -999.25 : NULL VALUE
WELL.     Gamma_Ray_Neutron : Well Name
FLD .                       : Field
PROV.                       : Province
LOC .                       : Field Location
PD  .                   MSL : Permanent Datum
UWI .           RAJAMANDALA : Unique Well ID
ELZ .M                  0.0 : Elevation Log Zero
OS  .                       : Services
SRVC.                       : Service company
DATE.                       : Date
~Curve Information -----------------------------------------
DEPT.M    : 1  Depth
GR  .CPS  : 2  Gamma-Ray Log
NEUT.CPS  : 3  Neutron
~Params ----------------------------------------------------
~Other -----------------------------------------------------
~ASCII -----------------------------------------------------
# ...
   74.16000   76.60815  387.26730
   74.19000   73.53795  387.26730
   74.22000   70.46790  387.26730
   74.25000   70.37040  386.97360
   74.28000   70.27290  386.97360
   74.31000   70.17540  386.67960
   74.34000   70.02930  386.67960
   74.37000   69.88305  386.67960
   74.40000   72.22215  386.67960
   74.43000   72.51465  386.67960
   74.46000   72.51465  386.67960
   74.49000   72.80700  386.67960
   74.52000   67.83630  386.38590
   74.55000   66.95910  386.38590
   74.58000   66.66660  386.38590
   74.61000   66.66660  386.38590
   74.64000   66.66660  386.23890
   74.67000   66.66660  386.09220
   74.70000   65.78940  386.09220
   74.73000   65.49705  386.09220
   74.76000   60.81870  386.09220
   74.79000   60.52635  386.09220
   74.82000   58.77195  386.09220
   74.85000   58.47960  385.21050
   74.88000   57.30990  385.21050
   74.91000   57.30990  385.21050
   74.94000   37.71930  385.21050
   74.97000   57.30990  384.76980
   75.00000   57.60240  384.32910
   75.03000   38.88885  383.88840
   75.06000   60.81870  383.44770
   75.09000   61.11105  383.15370
   75.12000   61.69590  382.86000
   75.15000   62.28075  382.56600
   75.18000   64.32750  382.41930
   75.21000   64.32750  382.27230
   75.24000   64.32750  381.88050
   75.27000   63.93765  381.48870
   75.30000   63.54780  381.09690
   75.33000   63.15796  380.94990
   75.36000   63.01170  380.80320
   75.39000   62.86546  380.80320
   75.42000   54.97080  380.80320
   75.45000   61.98825  380.80320
   75.48000   61.69590  380.65620
   75.51000   60.81870  380.50920
   75.54000   59.64915  381.19500
   75.57000   58.77195  381.88050
   75.60000   55.26315  382.56600
   75.63000   55.70175  382.27230
   75.66000   56.14035  381.97860
   75.69000   62.86546  381.58680
   75.72000   59.64915  381.19500
   75.75000   58.47960  380.80320
   75.78000   58.18710  380.11740
   75.81000   57.01755  379.43190
   75.84000   56.14035  378.74640
   75.87000   54.97080  378.15870
   75.90000   54.53220  377.57100
   75.93000   54.09360  377.27730
   75.96000   52.63155  376.98330
   75.99000   57.30990  376.68960
   76.02000   57.30990  376.10190
   76.05000   57.30990  375.51420
   76.08000   57.30990  375.07350
   76.11000   57.30990  374.63280
   76.14000   57.69975  374.24100
   76.17000   58.08960  373.84920
   76.20000   58.47960  373.45740
   76.23000   59.06430  372.86970
   76.26000   59.64915  372.28200
   76.29000   62.86546  372.47790
   76.32000   62.86546  372.67380
   76.35000   61.98825  372.86970
   76.38000   61.11105  373.01670
   76.41000   60.81870  373.16370
   76.44000   59.64915  373.35960
   76.47000   58.77195  373.55520
   76.50000   57.01755  373.75110
   76.53000   54.97080  373.89810
   76.56000   54.97080  374.04510
   76.59000   54.97080  374.19210
   76.62000   58.18710  373.75110
   76.65000   58.18710  373.75110
   76.68000   58.18710  373.75110
   76.71000   52.33920  373.60440
   76.74000   52.33920  373.45740
   76.77000   52.33920  373.31040
   76.80000   52.33920  373.16370
   76.83000   50.58480  373.16370
   76.86000   48.83040  372.86970
   76.89000   48.92790  372.57600
   76.92000   49.02540  372.57600
   76.95000   49.12275  372.28200
   76.98000   49.70760  372.28200
   77.01000   50.29245  372.28200
   77.04000   49.51260  371.10690
   77.07000   48.73290  369.93150
   77.10000   47.95320  369.83340
   77.13000   47.95320  369.73560
   77.16000   47.95320  369.63750
   77.19000   48.68415  369.05010
   77.22000   53.80110  368.46240
   77.25000   52.92390  368.16840
   77.28000   51.75435  367.87470
   77.31000   50.29245  367.87470
   77.34000   47.95320  367.87470
   77.37000   48.39180  367.87470
   77.40000   55.84800  368.02140
   77.43000   55.26315  368.16840
   77.46000   49.21875  368.46240
   77.49000   49.21875  368.75610
   77.52000   49.21875  369.05010
   77.55000   49.41405  369.63750
   77.58000   49.60935  370.22520
   77.61000   49.80465  371.69430
   77.64000   50.39070  373.16370
   77.67000   50.97660  374.63280
   77.70000   54.19920  377.13030
   77.73000   56.54295  379.62780
   77.76000   60.35160  381.39090
   77.79000   54.19920  383.15370
   77.82000   54.19920  383.74140
   77.85000   54.19920  384.32910
   77.88000   54.19920  384.91680
   77.91000   54.00390  385.35750
   77.94000   53.80860  385.79820
   77.97000   53.61330  386.23890
   78.00000   55.07820  386.67960
   78.03000   56.54295  387.26730
   78.06000   58.15425  387.85500
   78.09000   59.76570  388.14900
   78.12000   60.83985  388.44270
   78.15000   61.91400  388.73640
   78.18000   62.98830  389.17740
   78.21000   64.45320  389.61810
   78.24000   65.91795  396.08220
   78.27000   67.28519  396.08220
   78.30000   68.65231  396.08220
   78.33000   70.01955  396.08220
   78.36000   72.36330  396.08220
   78.39000   73.14450  396.08220
   78.42000   73.92585  396.08220
   78.45000   80.27340  396.08220
   78.48000   79.68750  396.14100
   78.51000   76.17194  396.19980
   78.54000   82.61715  396.25860
   78.57000   82.61715  396.31740
   78.60000   79.98045  396.66990
   78.63000   79.39455  396.89040
   78.66000   79.39455  391.38090
   78.69000   83.78910  391.38090
   78.72000   83.78910  391.38090
   78.75000   84.08205  390.79320
   78.78000   84.37500  390.20580
   78.81000   84.96090  389.61810
   78.84000   87.89069  388.88340
   78.87000   82.32420  388.14900
   78.90000   81.73830  387.46320
   78.93000   77.34375  386.77770
   78.96000   78.22260  386.97360
   78.99000   79.39455  387.56130
   79.02000   79.39455  387.75720
   79.05000   62.40240  387.95310
   79.08000   62.40240  388.14900
   79.11000   84.66795  388.14900
   79.14000   83.49615  388.14900
   79.17000   83.49615  386.67960
   79.20000   83.49615  386.67960
   79.23000   83.20319  386.38590
   79.26000   92.57819  386.09220
   79.29000   92.28510  386.09220
   79.32000   86.71875  386.09220
   79.35000   86.71875  386.09220
   79.38000   91.99215  385.79820
   79.41000   91.69920  385.79820
   79.44000   91.11330  385.79820
   79.47000   89.06250  385.79820
   79.50000   88.76955  385.50450
   79.53000   92.87115  384.47610
   79.56000   92.87115  383.44770
   79.59000   92.57819  383.44770
   79.62000   92.57819  383.44770
   79.65000   91.69920  383.34960
   79.68000   91.69920  383.25180
   79.71000   91.69920  383.15370
   79.74000   91.69920  382.86000
   79.77000   91.11330  382.56600
   79.80000   89.64840  382.46820
   79.83000   89.94135  382.37010
   79.86000   89.94135  382.27230
   79.89000   89.06250  382.27230
   79.92000   88.18365  382.27230
   79.95000   87.30465  382.46820
   79.98000   87.01170  382.66410
   80.01000   86.42580  382.86000
   80.04000   86.42580  382.81950
   80.07000   83.78910  382.77900
   80.10000   83.78910  382.77900
   80.13000   84.08205  382.77900
   80.16000   86.42580  382.77900
   80.19000   86.42580  382.92000
   80.22000   91.99215  382.97760
   80.25000   91.99215  383.03550
   80.28000   91.69920  383.19720
   80.31000   91.40625  383.54400
   80.34000   90.52740  383.89050
   80.37000   88.47660  384.23730
   80.40000   84.08205  384.58410
   80.43000   83.20319  384.83370
   80.46000   83.78910  383.72430
   80.49000   86.13285  382.85760
   80.52000   86.71875  381.99090
   80.55000   87.01170  381.12390
   80.58000   87.30465  380.41890
   80.61000   89.94135  380.36130
   80.64000   90.52740  380.30340
   80.67000   91.40625  380.24550
   80.70000   94.04295  380.18790
   80.73000   95.21490  381.89820
   80.76000   97.85160  381.89820
   80.79000  100.48830  381.89820
   80.82000   99.31635  381.89820
   80.85000   98.14456  381.75150
   80.88000   96.97260  381.60480
   80.91000   95.94720  381.01770
   80.94000   91.40625  380.43060
   80.97000   89.06250  379.84350
   81.00000   89.06250  379.54980
   81.03000   89.35545  379.25640
   81.06000   89.35545  379.74570
   81.09000   89.35545  380.23470
   81.12000   89.06250  380.72400
   81.15000   89.35545  381.31110
   81.18000   89.06250  381.89820
   81.21000   88.76955  382.58310
