~Version ---------------------------------------------------
VERS. 2.0 : CWLS log ASCII Standard -VERSION 2.0
WRAP.  NO : One line per depth step
~Well ------------------------------------------------------
STRT.M                 60.0 : START
STOP.M               304.92 : STOP
STEP.M 0.030000000000001137 : STEP
NULL.               -999.25 : NULL VALUE
WELL.     Gamma_Ray_Neutron : Well Name
FLD .                       : Field
PROV.                       : Province
LOC .                       : Field Location
PD  .                   MSL : Permanent Datum
UWI .           RAJAMANDALA : Unique Well ID
ELZ .M                  0.0 : Elevation Log Zero
OS  .                       : Services
SRVC.                       : Service company
DATE.                       : Date
~Curve Information -----------------------------------------
DEPT.M    : 1  Depth
GR  .CPS  : 2  Gamma-Ray Log
NEUT.CPS  : 3  Neutron
~Params ----------------------------------------------------
~Other -----------------------------------------------------
~ASCII -----------------------------------------------------
# ...
  265.32000   97.76266  399.80520
  265.35000   98.92995  399.90270
  265.38000   96.59534  400.19460
  265.41000   96.59534  400.48680
  265.44000   96.59534  400.38960
  265.47000   96.01170  400.29210
  265.50000   95.42805  400.19460
  265.53000   94.84440  400.19460
  265.56000   94.84440  400.19460
  265.59000   94.84440  400.19460
  265.62000   94.84440  400.19460
  265.65000   96.01170  400.19460
  265.68000   97.17901  399.90270
  265.71000  100.09730  399.90270
  265.74000  101.26450  399.90270
  265.77000  100.68090  399.90270
  265.80000   98.92995  400.04880
  265.83000   97.76266  400.19460
  265.86000   97.76266  400.48680
  265.89000   97.76266  400.77900
  265.92000   97.76266  400.92510
  265.95000   98.34631  401.07120
  265.98000   98.34631  401.65530
  266.01000   98.34631  402.82380
  266.04000   97.76266  402.82380
  266.07000   94.84440  403.55400
  266.10000   94.84440  404.86860
  266.13000   95.42805  405.16080
  266.16000   99.51360  405.45270
  266.19000  100.68090  405.74490
  266.22000  101.26450  406.32900
  266.25000  101.26450  406.72530
  266.28000  100.68090  408.47940
  266.31000  100.09730  408.47940
  266.34000   97.76266  408.47940
  266.37000   97.76266  408.47940
  266.40000   97.17901  407.40750
  266.43000   97.76266  406.33530
  266.46000   97.76266  405.26310
  266.49000   97.76266  403.36260
  266.52000   98.92995  401.46210
  266.55000  100.09730  400.38990
  266.58000  101.26450  399.31770
  266.61000  101.55640  398.24550
  266.64000  101.84820  396.92970
  266.67000  100.68090  395.61390
  266.70000   99.51360  394.93170
  266.73000   98.34631  394.24950
  266.76000   97.76266  393.56730
  266.79000   97.17901  393.56730
  266.82000   96.98446  393.56730
  266.85000   90.75869  393.66480
  266.88000   91.92600  393.76230
  266.91000   95.42805  393.85980
  266.94000   95.42805  394.00590
  266.97000   94.84440  394.15200
  267.00000   94.84440  394.24950
  267.03000   94.84440  394.34700
  267.06000   94.84440  394.44450
  267.09000   95.42805  394.44450
  267.12000   97.76266  394.44450
  267.15000  108.26850  394.44450
  267.18000  108.85210  394.44450
  267.21000  109.14390  394.44450
  267.24000  110.60310  393.85950
  267.27000  111.18670  393.27480
  267.30000  113.52130  392.88510
  267.33000  112.15950  392.49510
  267.36000  110.79760  392.10540
  267.39000  109.43580  391.66680
  267.42000  107.68490  392.10540
  267.45000  105.93390  391.81290
  267.48000  104.18300  391.81290
  267.51000  102.43190  391.81290
  267.54000  100.68090  391.60980
  267.57000  100.09730  391.60980
  267.60000   99.51360  391.60980
  267.63000   98.92995  391.60980
  267.66000   97.76266  391.60980
  267.69000   96.59534  391.60980
  267.72000   97.76266  391.60980
  267.75000   98.92995  391.60980
  267.78000  100.09730  391.60980
  267.81000  100.38920  391.60980
  267.84000   94.26075  391.90230
  267.87000   94.84440  392.19510
  267.90000   96.01170  392.48790
  267.93000   96.59534  392.78040
  267.96000   97.17901  393.95130
  267.99000  104.18300  393.65850
  268.02000  104.18300  393.36600
  268.05000  107.10120  393.51210
  268.08000  105.35030  393.65850
  268.11000  104.76660  393.85380
  268.14000  101.26450  394.04880
  268.17000  101.26450  394.24380
  268.20000  100.68090  393.95130
  268.23000  100.68090  393.65850
  268.26000  100.09730  393.56100
  268.29000   99.51360  393.46350
  268.32000   97.17901  393.36600
  268.35000   93.09345  393.07320
  268.38000   92.50980  392.78040
  268.41000   90.75869  392.58540
  268.44000   91.34235  392.39010
  268.47000   94.26075  392.19510
  268.50000   94.26075  394.53660
  268.53000   94.84440  394.53660
  268.56000   94.84440  394.53660
  268.59000   94.26075  394.53660
  268.62000   94.26075  394.53660
  268.65000   93.67710  394.57290
  268.68000   89.00774  394.64880
  268.71000   89.00774  394.72470
  268.74000   89.00774  394.80060
  268.77000   90.56414  394.87620
  268.80000   92.12055  394.92180
  268.83000   93.67710  394.92180
  268.86000   94.84440  394.92180
  268.89000   96.01170  394.92180
  268.92000   96.78991  394.92180
  268.95000   97.56811  394.92180
  268.98000   98.34631  394.92180
  269.01000   99.80550  394.92180
  269.04000  101.26450  394.92180
  269.07000  102.04280  394.92180
  269.10000  106.51760  394.92180
  269.13000  106.51760  394.92180
  269.16000  106.51760  394.92180
  269.19000  105.93390  394.92180
  269.22000  103.59920  394.92180
  269.25000   98.92995  395.15250
  269.28000   99.51360  396.59430
  269.31000   99.51360  398.03610
  269.34000  101.78390  399.47790
  269.37000  101.20940  400.91970
  269.40000  100.68090  402.29220
  269.43000  102.16990  402.86880
  269.46000  108.26850  403.44570
  269.49000  108.26850  404.02230
  269.52000  106.30620  404.88270
  269.55000  107.68490  405.17580
  269.58000  107.68490  405.07800
  269.61000  105.15720  404.98050
  269.64000  103.89330  404.88270
  269.67000  102.62960  404.88270
  269.70000  101.36560  404.88270
  269.73000  101.26450  404.88270
  269.76000  104.35290  404.88270
  269.79000  105.96130  410.15640
  269.82000  107.57000  410.15640
  269.85000  109.17840  410.15640
  269.88000  109.43580  410.15640
  269.91000  107.11040  410.15640
  269.94000  105.84650  410.44920
  269.97000  104.58270  406.05480
  270.00000  103.31880  406.34760
  270.03000  102.05500  403.71090
  270.06000  100.79110  401.07420
  270.09000  103.59920  400.48830
  270.12000  104.76660  400.48830
  270.15000  107.10120  400.48830
  270.18000  107.68490  400.48830
  270.21000  107.97660  400.48830
  270.24000  103.59920  400.48830
  270.27000  103.59920  400.78140
  270.30000  103.59920  401.07420
  270.33000  103.59920  401.36730
  270.36000  102.82100  401.85540
  270.39000  102.04280  402.34380
  270.42000  101.26450  402.83190
  270.45000  103.01550  403.71090
  270.48000  104.76660  403.78410
  270.51000  106.51760  403.85730
  270.54000  108.26850  403.93080
  270.57000  115.27240  404.00400
  270.60000  114.10500  404.29680
  270.63000  111.77040  404.44350
  270.66000  112.06230  404.58990
  270.69000  112.35400  404.58990
  270.72000  112.35400  404.58990
  270.75000  112.93770  404.58990
  270.78000  112.93770  404.58990
  270.81000  113.52130  404.58990
  270.84000  113.52130  404.00400
  270.87000  112.93770  401.95320
  270.90000  103.01550  401.66010
  270.93000   97.76266  402.24600
  270.96000   98.34631  403.12500
  270.99000   98.92995  404.00400
  271.02000   99.51360  404.00400
  271.05000   99.51360  404.00400
  271.08000  100.09730  404.00400
  271.11000  100.68090  403.71090
  271.14000  101.26450  403.71090
  271.17000  101.26450  403.71090
  271.20000  101.26450  403.12500
  271.23000   97.17901  402.83190
  271.26000  100.68090  402.83190
  271.29000  101.26450  402.83190
  271.32000  101.84820  402.83190
  271.35000  104.18300  402.83190
  271.38000  103.59920  402.83190
  271.41000  101.84820  402.83190
  271.44000   97.17901  402.92970
  271.47000   97.17901  403.02720
  271.50000   97.17901  403.12500
  271.53000   98.34631  403.12500
  271.56000  101.84820  403.12500
  271.59000  100.09730  403.34460
  271.62000   98.92995  403.56450
  271.65000   98.34631  403.78410
  271.68000   91.92600  404.00400
  271.71000   94.26075  404.00400
  271.74000   97.76266  404.00400
  271.77000   97.17901  404.00400
  271.80000   97.17901  404.00400
  271.83000   96.01170  404.19930
  271.86000   95.42805  404.39460
  271.89000  101.26450  404.58990
  271.92000  101.84820  404.78520
  271.95000  101.84820  404.98050
  271.98000  103.01550  406.34760
  272.01000  105.93390  406.93350
  272.04000  105.35030  400.19520
  272.07000  103.01550  400.19520
  272.10000   97.17901  400.19520
  272.13000   97.76266  399.02340
  272.16000   97.76266  397.85160
  272.19000   97.76266  396.67980
  272.22000   98.92995  396.19140
  272.25000   98.92995  395.70300
  272.28000   99.51360  395.21490
  272.31000   92.50980  395.36130
  272.34000   91.34235  395.50770
  272.37000   90.75869  395.41020
