~Version ---------------------------------------------------
VERS. 2.0 : CWLS log ASCII Standard -VERSION 2.0
WRAP.  NO : One line per depth step
~Well ------------------------------------------------------
STRT.M                 60.0 : START
STOP.M               304.92 : STOP
STEP.M 0.030000000000001137 : STEP
NULL.               -999.25 : NULL VALUE
WELL.     Gamma_Ray_Neutron : Well Name
FLD .                       : Field
PROV.                       : Province
LOC .                       : Field Location
PD  .                   MSL : Permanent Datum
UWI .           RAJAMANDALA : Unique Well ID
ELZ .M                  0.0 : Elevation Log Zero
OS  .                       : Services
SRVC.                       : Service company
DATE.                       : Date
~Curve Information -----------------------------------------
DEPT.M    : 1  Depth
GR  .CPS  : 2  Gamma-Ray Log
NEUT.CPS  : 3  Neutron
~Params ----------------------------------------------------
~Other -----------------------------------------------------
~ASCII -----------------------------------------------------
# ...
  109.56000   52.05885  416.08200
  109.59000   55.58820  416.08200
  109.62000   54.11760  416.08200
  109.65000   53.52945  416.08200
  109.68000   53.23530  416.08200
  109.71000   53.23530  416.66670
  109.74000   53.52945  417.83640
  109.77000   54.70590  417.83640
  109.80000   57.35295  417.54390
  109.83000   58.72544  417.54390
  109.86000   60.09810  417.54390
  109.89000   61.47060  417.25140
  109.92000   62.79405  417.25140
  109.95000   64.11765  417.54390
  109.98000   65.58825  417.54390
  110.01000   67.94115  417.25140
  110.04000   50.58825  424.85370
  110.07000   51.47055  425.43870
  110.10000   69.11760  426.90060
  110.13000   70.00005  429.82470
  110.16000   71.47065  430.70190
  110.19000   71.76466  431.72520
  110.22000   71.76466  432.74850
  110.25000   71.76466  438.88890
  110.28000   72.05880  439.47360
  110.31000   67.94115  440.05860
  110.34000   63.82350  440.64330
  110.37000   60.00000  455.26320
  110.40000   58.23525  455.26320
  110.43000   59.41170  457.60230
  110.46000   60.00000  457.60230
  110.49000   60.88230  457.60230
  110.52000   65.29410  457.60230
  110.55000   64.70595  457.60230
  110.58000   64.41180  457.60230
  110.61000   64.11765  453.07020
  110.64000   61.76475  448.53810
  110.67000   57.35295  446.92980
  110.70000   51.76470  445.32150
  110.73000   52.64700  443.71350
  110.76000   53.23530  442.10520
  110.79000   54.41175  440.20470
  110.82000   60.88230  438.30420
  110.85000   60.58830  436.69590
  110.88000   60.58830  435.08760
  110.91000   57.35295  433.91820
  110.94000   57.35295  432.74850
  110.97000   57.35295  431.57880
  111.00000   57.35295  429.97080
  111.03000   57.05880  428.36250
  111.06000   57.05880  427.19310
  111.09000   57.35295  426.02340
  111.12000   57.94125  414.32760
  111.15000   60.00000  414.03510
  111.18000   61.17645  413.74260
  111.21000   61.17645  414.03510
  111.24000   61.17645  414.03510
  111.27000   57.94125  413.15790
  111.30000   62.05875  413.15790
  111.33000   62.05875  413.06040
  111.36000   64.41180  410.81880
  111.39000   66.76470  409.79520
  111.42000   65.78430  408.77190
  111.45000   64.80390  408.77190
  111.48000   63.82350  408.77190
  111.51000   64.85295  408.77190
  111.54000   65.88240  409.06440
  111.57000   68.23530  409.35660
  111.60000   70.58820  409.35660
  111.63000   72.64710  409.35660
  111.66000   78.82350  409.55160
  111.69000   78.82350  409.74660
  111.72000   78.82350  409.94160
  111.75000   78.82350  411.11100
  111.78000   75.88230  412.28070
  111.81000   75.00000  412.57320
  111.84000   75.29415  412.86540
  111.87000   77.64706  413.15790
  111.90000   77.64706  413.15790
  111.93000   78.23535  411.98820
  111.96000   78.23535  411.98820
  111.99000   86.47064  411.98820
  112.02000   87.05880  411.98820
  112.05000   71.17650  411.98820
  112.08000   71.17650  411.98820
  112.11000   71.17650  411.98820
  112.14000   70.58820  411.98820
  112.17000   69.70590  411.98820
  112.20000   68.23530  411.98820
  112.23000   67.64700  411.98820
  112.26000   65.88240  411.98820
  112.29000   65.88240  416.66670
  112.32000   65.88240  416.66670
  112.35000   65.88240  416.66670
  112.38000   67.94115  420.02910
  112.41000   70.00005  423.39180
  112.44000   70.73534  425.24370
  112.47000   75.29415  427.09560
  112.50000   75.29415  428.94750
  112.53000   75.14670  430.99410
  112.56000   75.44025  433.04100
  112.59000   75.44025  434.79540
  112.62000   75.73380  436.54980
  112.65000   75.73380  437.42700
  112.68000   76.90800  438.01170
  112.71000   83.36595  438.01170
  112.74000   84.54015  438.01170
  112.77000   84.83370  436.54980
  112.80000   86.30130  434.79540
  112.83000   95.98830  434.35680
  112.86000   96.28185  430.70190
  112.89000   96.86895  429.09360
  112.92000   97.45589  427.48530
  112.95000   98.33655  426.60810
  112.98000  102.15270  425.73090
  113.01000  101.56560  422.66070
  113.04000  101.56560  417.83640
  113.07000  113.89440  406.72530
  113.10000  113.30730  404.09370
  113.13000  113.16040  398.53800
  113.16000  103.03320  391.81290
  113.19000   95.69476  391.81290
  113.22000   93.63991  391.81290
  113.25000   89.82390  391.81290
  113.28000   89.82390  391.81290
  113.31000   89.53035  391.81290
  113.34000   90.99810  391.81290
  113.37000   90.99810  391.81290
  113.40000   91.29165  392.10540
  113.43000   91.29165  392.10540
  113.46000   90.70455  393.85980
  113.49000   74.85329  396.19890
  113.52000   74.85329  398.53800
  113.55000   79.54995  399.51270
  113.58000   80.43060  400.48740
  113.61000   81.01756  401.46210
  113.64000   81.31110  401.75430
  113.67000   81.01756  402.04680
  113.70000   79.54995  403.80120
  113.73000   78.96284  405.55560
  113.76000   77.20155  406.43280
  113.79000   76.90800  407.31000
  113.82000   77.78865  408.18720
  113.85000   84.83370  408.47940
  113.88000   84.39330  408.77190
  113.91000   83.95306  408.96690
  113.94000   84.05086  409.16190
  113.97000   84.14880  409.35660
  114.00000   88.94325  409.64910
  114.03000   86.59485  409.94160
  114.06000   70.45005  410.13660
  114.09000   71.03716  410.33130
  114.12000   72.50490  410.52630
  114.15000   73.97265  410.52630
  114.18000   84.24660  410.52630
  114.21000   84.54015  410.67240
  114.24000   90.99810  410.81880
  114.27000   90.99810  410.81880
  114.30000   86.00790  410.81880
  114.33000   86.00790  410.81880
  114.36000   86.59485  410.96490
  114.39000   86.59485  411.11100
  114.42000   88.06260  411.11100
  114.45000   88.20945  411.11100
  114.48000   78.66930  411.11100
  114.51000   78.66930  411.69600
  114.54000   78.08220  412.28070
  114.57000   77.49510  412.28070
  114.60000   77.49510  412.28070
  114.63000   78.08220  411.69600
  114.66000   78.08220  411.11100
  114.69000   78.08220  410.52630
  114.72000   77.20155  410.52630
  114.75000   77.05485  410.52630
  114.78000   76.32090  414.61980
  114.81000   75.73380  414.61980
  114.84000   79.54995  415.49700
  114.87000   81.01756  417.54390
  114.90000   82.48531  419.59050
  114.93000   84.24660  419.59050
  114.96000   84.24660  421.05270
  114.99000   91.29165  422.22210
  115.02000   92.17216  422.22210
  115.05000   92.17216  422.22210
  115.08000   92.17216  422.36850
  115.11000   88.06260  422.51460
  115.14000   88.35615  422.51460
  115.17000   88.35615  421.34490
  115.20000   97.45589  420.46770
  115.23000   96.86895  419.59050
  115.26000   96.28185  416.08200
  115.29000   90.99810  416.08200
  115.32000   91.58520  416.08200
  115.35000   93.34634  415.64340
  115.38000   94.22701  415.20480
  115.41000   94.52055  414.76620
  115.44000   94.22701  414.32760
  115.47000   93.93345  413.30400
  115.50000   89.53035  412.28070
  115.53000   89.53035  411.98820
  115.56000   89.53035  411.69600
  115.59000   89.23680  411.40350
  115.62000   88.94325  410.96490
  115.65000   88.94325  410.52630
  115.68000   88.06260  410.72130
  115.71000   84.24660  410.91630
  115.74000   84.24660  411.11100
  115.77000   91.58520  410.96490
  115.80000   93.63991  410.81880
  115.83000   94.52055  410.81880
  115.86000   95.98830  410.81880
  115.89000   94.22701  410.81880
  115.92000   93.63991  410.81880
  115.95000   93.63991  410.81880
  115.98000   93.34634  410.72130
  116.01000   92.17216  410.62380
  116.04000   82.77885  410.52630
  116.07000   82.48531  410.42880
  116.10000   88.06260  410.33130
  116.13000   98.63010  410.23380
  116.16000   98.63010  409.94160
  116.19000   98.63010  409.64910
  116.22000   98.63010  410.03910
  116.25000   95.69476  410.42880
  116.28000   95.98830  410.81880
  116.31000   96.28185  410.67240
  116.34000   96.57539  410.52630
  116.37000   98.33655  410.33130
  116.40000   98.63010  410.13660
  116.43000   98.92365  409.94160
  116.46000  100.97850  409.79520
  116.49000  100.68500  409.64910
  116.52000   98.04300  410.03910
  116.55000   98.04300  410.42880
  116.58000   98.04300  410.81880
  116.61000   98.04300  410.67240
