~Version ---------------------------------------------------
VERS. 2.0 : CWLS log ASCII Standard -VERSION 2.0
WRAP.  NO : One line per depth step
~Well ------------------------------------------------------
STRT.M                 60.0 : START
STOP.M               304.92 : STOP
STEP.M 0.030000000000001137 : STEP
NULL.               -999.25 : NULL VALUE
WELL.     Gamma_Ray_Neutron : Well Name
FLD .                       : Field
PROV.                       : Province
LOC .                       : Field Location
PD  .                   MSL : Permanent Datum
UWI .           RAJAMANDALA : Unique Well ID
ELZ .M                  0.0 : Elevation Log Zero
OS  .                       : Services
SRVC.                       : Service company
DATE.                       : Date
~Curve Information -----------------------------------------
DEPT.M    : 1  Depth
GR  .CPS  : 2  Gamma-Ray Log
NEUT.CPS  : 3  Neutron
~Params ----------------------------------------------------
~Other -----------------------------------------------------
~ASCII -----------------------------------------------------
# ...
  173.28000   96.86895  419.64900
  173.31000   97.74945  419.47380
  173.34000   98.04300  419.47410
  173.37000   94.52055  419.18220
  173.40000   93.34634  418.89000
  173.43000   91.87859  418.59780
  173.46000   92.75925  417.13740
  173.49000   95.10765  417.13740
  173.52000   95.98830  417.13740
  173.55000   95.98830  417.13740
  173.58000   96.57539  417.13740
  173.61000  102.73970  417.13740
  173.64000  100.39140  417.23460
  173.67000   98.92365  417.33210
  173.70000   95.98830  417.42930
  173.73000   95.40121  417.50250
  173.76000   95.25436  417.57540
  173.79000   95.10765  417.64860
  173.82000   94.22701  419.47410
  173.85000   91.58520  420.05850
  173.88000   89.92170  420.64260
  173.91000   88.25835  421.22700
  173.94000   86.59485  421.81110
  173.97000   85.71436  422.39520
  174.00000   84.83370  434.66400
  174.03000   84.54015  434.66400
  174.06000   84.24660  434.66400
  174.09000   84.24660  433.49550
  174.12000   84.24660  433.49550
  174.15000   84.24660  433.49550
  174.18000   84.01785  433.49550
  174.21000   83.78910  433.49550
  174.24000   83.59380  433.34970
  174.27000   83.39850  433.20360
  174.30000   83.20319  433.20360
  174.33000   75.00000  433.20360
  174.36000   75.58590  433.20360
  174.39000   81.44535  433.20360
  174.42000   80.56635  434.66400
  174.45000   80.27340  434.66400
  174.48000   77.34375  434.95620
  174.51000   80.27340  435.54030
  174.54000   81.73830  435.54030
  174.57000   84.08205  435.54030
  174.60000   84.37500  435.54030
  174.63000   84.96090  434.37210
  174.66000   84.96090  433.78770
  174.69000   84.96090  433.78770
  174.72000   74.41410  430.28250
  174.75000   76.17194  430.28250
  174.78000   77.63670  430.28250
  174.81000   82.03125  430.28250
  174.84000   82.32420  430.57440
  174.87000   81.44535  430.86660
  174.90000   80.85944  430.86660
  174.93000   80.27340  430.86660
  174.96000   73.82820  441.38280
  174.99000   75.29295  442.55100
  175.02000   75.43950  443.03790
  175.05000   75.87885  447.22500
  175.08000   76.17194  446.93280
  175.11000   73.24215  442.55100
  175.14000   72.65625  443.42760
  175.17000   72.36330  444.15780
  175.20000   70.01955  444.88800
  175.23000   68.55465  445.18020
  175.26000   68.55465  445.47210
  175.29000   69.14070  446.05650
  175.32000   69.28709  444.88800
  175.35000   69.43365  444.88800
  175.38000   72.36330  444.88800
  175.41000   74.41410  444.98550
  175.44000   76.17194  445.08270
  175.47000   76.61130  445.18020
  175.50000   77.05080  445.61820
  175.53000   77.78325  446.05650
  175.56000   78.80865  446.05650
  175.59000   79.98045  446.05650
  175.62000   84.08205  446.05650
  175.65000   83.78910  446.05650
  175.68000   83.20319  446.05650
  175.71000   80.56635  446.05650
  175.74000   79.39455  446.05650
  175.77000   79.68750  444.88800
  175.80000   80.27340  444.88800
  175.83000   82.03125  444.30390
  175.86000   81.44535  443.71950
  175.89000   81.15240  443.42760
  175.92000   80.27340  442.91640
  175.95000   78.80865  442.40520
  175.98000   78.22260  441.89400
  176.01000   89.94135  441.38280
  176.04000   90.23444  441.28530
  176.07000   90.23444  441.18780
  176.10000   90.23444  441.09060
  176.13000   75.43950  442.84320
  176.16000   76.17194  442.25910
  176.19000   77.34375  441.96690
  176.22000   77.92965  440.79840
  176.25000   79.98045  437.87730
  176.28000   81.15240  437.58510
  176.31000   82.61715  437.00100
  176.34000   83.20319  436.41660
  176.37000   84.08205  436.41660
  176.40000   84.66795  435.83250
  176.43000   84.08205  435.54030
  176.46000   84.08205  435.39450
  176.49000   84.08205  435.24840
  176.52000   84.27735  434.95620
  176.55000   84.47265  434.66400
  176.58000   84.66795  434.66400
  176.61000   90.82035  434.37210
  176.64000   90.52740  434.07990
  176.67000   89.94135  434.03640
  176.70000   88.64970  433.99290
  176.73000   88.35615  433.94940
  176.76000   91.58520  433.94940
  176.79000   91.58520  433.94940
  176.82000   91.87859  433.36590
  176.85000   91.29165  432.78210
  176.88000   77.49510  432.19830
  176.91000   68.68890  431.76060
  176.94000   66.63405  431.32290
  176.97000   65.45985  431.12850
  177.00000   65.45985  430.93380
  177.03000   82.48531  430.73940
  177.06000   83.65949  430.44750
  177.09000   83.95306  430.15560
  177.12000   85.12725  429.86370
  177.15000   79.54995  429.13410
  177.18000   77.49510  428.40480
  177.21000   77.20155  428.59920
  177.24000   79.84350  428.79390
  177.27000   81.89820  428.98830
  177.30000   82.77885  429.18300
  177.33000   84.83370  429.37740
  177.36000   85.61639  426.06990
  177.39000   86.39925  426.06990
  177.42000   89.53035  426.06990
  177.45000   91.58520  425.87550
  177.48000   94.22701  425.68080
  177.51000   95.40121  425.48640
  177.54000   96.67965  424.44000
  177.57000   93.16410  420.05850
  177.60000   93.16410  420.05850
  177.63000   93.16410  420.05850
  177.66000   93.16410  419.96100
  177.69000   92.38275  419.86380
  177.72000   91.60155  419.76630
  177.75000   90.82035  419.76630
  177.78000   90.13664  419.76630
  177.81000   89.45310  419.76630
  177.84000   88.76955  419.66880
  177.87000   87.98836  419.57160
  177.90000   87.20700  419.18220
  177.93000   86.42580  418.01370
  177.96000   85.40040  417.42930
  177.99000   84.37500  416.84520
  178.02000   83.59380  416.69910
  178.05000   82.81245  416.55300
  178.08000   82.03125  415.67670
  178.11000   81.25005  415.38450
  178.14000   77.92965  414.50820
  178.17000   78.80865  415.38450
  178.20000   79.68750  421.81110
  178.23000   80.56635  421.81110
  178.26000   81.15240  421.81110
  178.29000   81.59175  421.81110
  178.32000   91.69920  421.81110
  178.35000   94.52055  421.69260
  178.38000   94.52055  421.69260
  178.41000   94.52055  421.69260
  178.44000   94.52055  421.69260
  178.47000   93.93345  421.69260
  178.50000   91.29165  421.69260
  178.53000   83.95306  421.69260
  178.56000   84.24660  421.69260
  178.59000   89.53035  420.52530
  178.62000   89.53035  420.81720
  178.65000   89.53035  420.96300
  178.68000   89.53035  421.10880
  178.71000   89.53035  421.40070
  178.74000   89.82390  421.40070
  178.77000   88.94325  421.40070
  178.80000   86.88840  421.40070
  178.83000   84.24660  421.69260
  178.86000   85.71436  422.85990
  178.89000   86.59485  427.62660
  178.92000   87.47550  427.82100
  178.95000   88.35615  428.40480
  178.98000   90.41100  428.98830
  179.01000   90.41100  429.28020
  179.04000   90.70455  429.57210
  179.07000   77.78865  429.86370
  179.10000   77.78865  430.05840
  179.13000   78.08220  430.25280
  179.16000   78.66930  430.44750
  179.19000   79.25640  430.73940
  179.22000   79.54995  430.44750
  179.25000   80.13705  430.15560
  179.28000   80.43060  429.86370
  179.31000   81.89820  429.66930
  179.34000   76.90800  429.47460
  179.37000   77.20155  429.28020
  179.40000   78.08220  429.13410
  179.43000   79.25640  428.98830
  179.46000   80.43060  428.59920
  179.49000   81.31110  428.21010
  179.52000   77.78865  427.82100
  179.55000   74.85329  427.82100
  179.58000   77.78865  427.82100
  179.61000   79.25640  427.72380
  179.64000   81.31110  427.62660
  179.67000   81.89820  427.52910
  179.70000   81.89820  427.82100
  179.73000   78.08220  428.11290
  179.76000   77.78865  428.11290
  179.79000   76.90800  428.11290
  179.82000   73.38554  428.11290
  179.85000   71.33070  428.11290
  179.88000   75.73380  428.11290
  179.91000   75.73380  428.11290
  179.94000   74.85329  427.96680
  179.97000   72.79845  427.82100
  180.00000   72.50490  428.98830
  180.03000   72.21135  429.13410
  180.06000   71.33070  429.28020
  180.09000   71.03716  429.57210
  180.12000   80.13705  427.52910
  180.15000   79.54995  427.52910
  180.18000   78.08220  427.52910
  180.21000   75.73380  427.14000
  180.24000   74.85329  426.75090
  180.27000   73.97265  426.36180
  180.30000   73.38554  426.06990
  180.33000   71.62425  425.77830
