~Version ---------------------------------------------------
VERS. 2.0 : CWLS log ASCII Standard -VERSION 2.0
WRAP.  NO : One line per depth step
~Well ------------------------------------------------------
STRT.M                 60.0 : START
STOP.M               304.92 : STOP
STEP.M 0.030000000000001137 : STEP
NULL.               -999.25 : NULL VALUE
WELL.     Gamma_Ray_Neutron : Well Name
FLD .                       : Field
PROV.                       : Province
LOC .                       : Field Location
PD  .                   MSL : Permanent Datum
UWI .           RAJAMANDALA : Unique Well ID
ELZ .M                  0.0 : Elevation Log Zero
OS  .                       : Services
SRVC.                       : Service company
DATE.                       : Date
~Curve Information -----------------------------------------
DEPT.M    : 1  Depth
GR  .CPS  : 2  Gamma-Ray Log
NEUT.CPS  : 3  Neutron
~Params ----------------------------------------------------
~Other -----------------------------------------------------
~ASCII -----------------------------------------------------
# ...
  237.00000   99.60946  397.06470
  237.03000   97.85160  397.26030
  237.06000   97.55865  397.45590
  237.09000   96.67965  397.30920
  237.12000   95.80080  397.16250
  237.15000   95.50785  396.96660
  237.18000   95.80080  396.77100
  237.21000   97.26571  396.57540
  237.24000   97.26571  396.42870
  237.27000   97.26571  396.28170
  237.30000   97.26571  396.28170
  237.33000   97.41210  396.28170
  237.36000   89.35545  396.28170
  237.39000   91.99215  396.28170
  237.42000   92.38275  396.28170
  237.45000   92.77350  396.37950
  237.48000   93.16410  396.47760
  237.51000   94.62885  396.57540
  237.54000   95.90639  396.47580
  237.57000   96.63734  396.37620
  237.60000  100.87730  396.37620
  237.63000  100.29240  396.37620
  237.66000  100.00010  396.37620
  237.69000  100.00010  396.81690
  237.72000   98.53800  397.25760
  237.75000   98.83035  397.35540
  237.78000   99.12285  397.45350
  237.81000   99.56145  397.55130
  237.84000  100.29240  396.37620
  237.87000  100.43870  395.20080
  237.90000  100.58480  394.61310
  237.93000  101.16960  394.02540
  237.96000  105.26310  393.43770
  237.99000  104.38590  393.43770
  238.02000  102.33910  393.73170
  238.05000  102.04680  393.87870
  238.08000  102.04680  394.02540
  238.11000  102.04680  394.02540
  238.14000  102.04680  394.61310
  238.17000   95.32169  394.61310
  238.20000   93.27480  394.61310
  238.23000   93.56730  394.76010
  238.26000   99.12285  394.90710
  238.29000   99.12285  394.96560
  238.32000   98.83035  395.02440
  238.35000   98.53800  395.08320
  238.38000   98.53800  395.14200
  238.41000   98.53800  395.20080
  238.44000   98.83035  395.42130
  238.47000   98.83035  395.64150
  238.50000   99.12285  395.86200
  238.53000  102.33910  396.08220
  238.56000  100.87730  396.66990
  238.59000  100.87730  396.81690
  238.62000  100.87730  396.96390
  238.65000  100.97460  397.40460
  238.68000  101.07210  397.84530
  238.71000  101.16960  398.13900
  238.74000  100.00010  399.31440
  238.77000   98.83035  401.07750
  238.80000   98.63551  402.25260
  238.83000   98.44050  402.25260
  238.86000   98.24565  402.25260
  238.89000   98.39175  402.25260
  238.92000   98.53800  402.25260
  238.95000   98.63551  402.25260
  238.98000   98.73300  402.25260
  239.01000   98.83035  402.25260
  239.04000   95.32169  402.25260
  239.07000   95.90639  402.25260
  239.10000   96.49126  402.25260
  239.13000   97.95316  402.44850
  239.16000   98.24565  402.84030
  239.19000  103.21630  402.84030
  239.22000  103.50880  402.84030
  239.25000  103.65500  402.84030
  239.28000  104.67840  402.84030
  239.31000  104.82450  402.84030
  239.34000  105.26310  402.84030
  239.37000  105.40940  402.84030
  239.40000  105.55560  402.84030
  239.43000  105.84800  402.84030
  239.46000   98.24565  402.84030
  239.49000   99.70755  402.84030
  239.52000   94.15200  402.84030
  239.55000   94.15200  402.84030
  239.58000   94.15200  402.91380
  239.61000   94.15200  402.98730
  239.64000   94.29826  403.06080
  239.67000   94.44450  403.13430
  239.70000   98.24565  403.42800
  239.73000   98.24565  403.86870
  239.76000   96.49126  404.30940
  239.79000   95.32169  404.60340
  239.82000   95.90639  404.89710
  239.85000   95.90639  404.89710
  239.88000   95.90639  405.04410
  239.91000   95.90639  405.19110
  239.94000   96.49126  405.33780
  239.97000  100.29240  405.48480
  240.00000  100.43870  405.68070
  240.03000  102.92400  405.87660
  240.06000  107.89470  406.07250
  240.09000  108.47960  406.07250
  240.12000  109.94140  406.07250
  240.15000  111.98830  406.07250
  240.18000  112.86550  405.92550
  240.21000  114.32750  405.77850
  240.24000  107.60230  405.48480
  240.27000  107.60230  405.19110
  240.30000  107.60230  404.89710
  240.33000  105.55560  404.89710
  240.36000  105.84800  404.89710
  240.39000  106.14030  404.60340
  240.42000  107.60230  400.19580
  240.45000  107.60230  400.19580
  240.48000  107.89470  400.19580
  240.51000  109.06430  400.19580
  240.54000  102.92400  398.72670
  240.57000  101.46190  397.25760
  240.60000  100.58480  396.27810
  240.63000   97.36845  395.29860
  240.66000   95.90639  394.31940
  240.69000   95.90639  393.58470
  240.72000   97.66080  392.85000
  240.75000  104.38590  392.75220
  240.78000  102.04680  393.43770
  240.81000  101.16960  393.73170
  240.84000  101.16960  394.46610
  240.87000  101.16960  396.08220
  240.90000  101.16960  396.27810
  240.93000  101.16960  396.47400
  240.96000   88.59645  396.66990
  240.99000   89.76615  396.96390
  241.02000   90.05850  396.08220
  241.05000   98.24565  396.08220
  241.08000   98.24565  394.90710
  241.11000   95.32169  394.61310
  241.14000   94.44450  390.49950
  241.17000   93.56730  390.49950
  241.20000   93.56730  390.49950
  241.23000   93.56730  390.49950
  241.26000   94.15200  390.79320
  241.29000   95.02920  390.94020
  241.32000   95.90639  391.08720
  241.35000   96.49126  391.08720
  241.38000  101.46190  391.08720
  241.41000  101.46190  391.08720
  241.44000  101.46190  391.08720
  241.47000  101.46190  391.38090
  241.50000  102.92400  391.38090
  241.53000  104.38590  391.38090
  241.56000  102.82650  391.38090
  241.59000  101.26710  391.52790
  241.62000   99.70755  394.61310
  241.65000   97.66080  394.46610
  241.68000   95.61404  394.31940
  241.71000   95.22420  394.31940
  241.74000   94.83436  394.31940
  241.77000   95.02920  394.31940
  241.80000   96.78360  394.31940
  241.83000   97.95316  394.31940
  241.86000   98.53800  394.71120
  241.89000   99.70755  395.10270
  241.92000  101.46190  395.49450
  241.95000  101.90060  396.22920
  241.98000  103.50880  396.96390
  242.01000  105.84800  397.35540
  242.04000  109.94140  397.74720
  242.07000  106.82270  398.13900
  242.10000  103.70370  398.72670
  242.13000  100.58480  399.31440
  242.16000   99.41520  399.41220
  242.19000   98.24565  399.51030
  242.22000   97.95316  399.60810
  242.25000   97.66080  398.72670
  242.28000   97.36845  397.84530
  242.31000   99.70755  397.45350
  242.34000  102.04680  397.06170
  242.37000  101.55940  396.66990
  242.40000  101.07210  396.52290
  242.43000  100.58480  396.37620
  242.46000   98.24565  395.88630
  242.49000   99.12285  395.39670
  242.52000  102.33910  394.90710
  242.55000  104.38590  394.02540
  242.58000  105.26310  393.14400
  242.61000  105.26310  392.75220
  242.64000  101.16960  392.36040
  242.67000  101.02330  391.96860
  242.70000   96.78360  391.67490
  242.73000   96.49126  391.38090
  242.76000   95.90639  390.98910
  242.79000   95.61404  390.59760
  242.82000   95.32169  391.08720
  242.85000   95.32169  391.16070
  242.88000   86.54970  391.23420
  242.91000   85.08765  391.30740
  242.94000   84.21060  391.38090
  242.97000  104.67840  391.38090
  243.00000  105.26310  391.52790
  243.03000  105.55560  391.67490
  243.06000  105.84800  391.77270
  243.09000  105.84800  391.87080
  243.12000  104.67840  391.96860
  243.15000  103.80120  392.06670
  243.18000  100.29240  392.16450
  243.21000   99.70755  392.26260
  243.24000   99.12285  392.40930
  243.27000   99.12285  392.55630
  243.30000   99.12285  392.62980
  243.33000   99.12285  392.55630
  243.36000   97.66080  392.55630
  243.39000   96.19890  392.55630
  243.42000   96.19890  392.55630
  243.45000  101.16960  392.70330
  243.48000  102.33910  392.85000
  243.51000  102.48540  392.85000
  243.54000  102.92400  392.85000
  243.57000  103.21630  392.85000
  243.60000  104.38590  392.85000
  243.63000  104.38590  392.85000
  243.66000  105.26310  392.85000
  243.69000   99.70755  392.85000
  243.72000   99.70755  392.85000
  243.75000   99.70755  392.85000
  243.78000   98.53800  392.85000
  243.81000   97.36845  392.75220
  243.84000   96.19890  392.65440
  243.87000   96.49126  392.55630
  243.90000   96.78360  392.55630
  243.93000   97.07595  392.55630
  243.96000   97.36845  392.40930
  243.99000  103.50880  392.26260
  244.02000  102.63160  393.24180
  244.05000  102.33910  394.22130
