~Version ---------------------------------------------------
VERS. 2.0 : CWLS log ASCII Standard -VERSION 2.0
WRAP.  NO : One line per depth step
~Well ------------------------------------------------------
STRT.M                 60.0 : START
STOP.M               304.92 : STOP
STEP.M 0.030000000000001137 : STEP
NULL.               -999.25 : NULL VALUE
WELL.     Gamma_Ray_Neutron : Well Name
FLD .                       : Field
PROV.                       : Province
LOC .                       : Field Location
PD  .                   MSL : Permanent Datum
UWI .           RAJAMANDALA : Unique Well ID
ELZ .M                  0.0 : Elevation Log Zero
OS  .                       : Services
SRVC.                       : Service company
DATE.                       : Date
~Curve Information -----------------------------------------
DEPT.M    : 1  Depth
GR  .CPS  : 2  Gamma-Ray Log
NEUT.CPS  : 3  Neutron
~Params ----------------------------------------------------
~Other -----------------------------------------------------
~ASCII -----------------------------------------------------
# ...
  300.72000   91.17645  403.65510
  300.75000   98.23530  404.09370
  300.78000   98.23530  404.38590
  300.81000   92.35290  404.67840
  300.84000   89.41170  404.97090
  300.87000   90.00000  405.40950
  300.90000   91.17645  405.84780
  300.93000   91.76475  406.28640
  300.96000   90.00000  408.77190
  300.99000   88.23525  409.64910
  301.02000   88.23525  411.40350
  301.05000   88.82355  411.25740
  301.08000   88.82355  410.81880
  301.11000   71.47065  410.81880
  301.14000   69.70590  410.67240
  301.17000   77.05875  410.52630
  301.20000   85.88235  410.52630
  301.23000   89.41170  411.11100
  301.26000   90.00000  411.69600
  301.29000   91.17645  411.69600
  301.32000   91.17645  411.69600
  301.35000   88.82355  411.59850
  301.38000   88.23525  411.50100
  301.41000   81.76470  411.40350
  301.44000   88.82355  411.40350
  301.47000   89.41170  411.40350
  301.50000   89.41170  411.98820
  301.53000   89.41170  412.57320
  301.56000   85.29405  413.15790
  301.59000   84.70590  412.71930
  301.62000   88.23525  412.28070
  301.65000   88.23525  411.40350
  301.68000   88.23525  410.52630
  301.71000   88.23525  409.64910
  301.74000   89.11770  410.23380
  301.77000   90.00000  410.81880
  301.80000   90.88230  411.40350
  301.83000   91.76475  411.98820
  301.86000   92.35290  411.98820
  301.89000   92.94120  411.98820
  301.92000   97.05885  411.98820
  301.95000   97.05885  411.98820
  301.98000   95.88240  411.98820
  302.01000   95.29411  411.98820
  302.04000   94.99995  411.98820
  302.07000   90.58830  411.98820
  302.10000   91.76475  411.84210
  302.13000   92.35290  411.69600
  302.16000   93.52935  411.59850
  302.19000   95.88240  411.50100
  302.22000   96.47055  411.40350
  302.25000   94.41180  411.25740
  302.28000   92.35290  411.11100
  302.31000   91.47060  410.67240
  302.34000   90.58830  410.23380
  302.37000   90.00000  410.42880
  302.40000   89.41170  410.62380
  302.43000   88.82355  410.81880
  302.46000   88.23525  411.05700
  302.49000   90.00000  411.29490
  302.52000   94.70595  411.48990
  302.55000   94.70595  411.68460
  302.58000   94.11765  411.87930
  302.61000   93.52935  412.46340
  302.64000   87.64709  413.04780
  302.67000   86.66671  413.04780
  302.70000   85.68629  413.04780
  302.73000   84.70590  413.04780
  302.76000   84.70590  412.60950
  302.79000   84.70590  412.17150
  302.82000   84.70590  412.60950
  302.85000   84.70590  413.04780
  302.88000   85.68629  412.75560
  302.91000   86.66671  412.46340
  302.94000   87.64709  412.17150
  302.97000   90.00000  411.44100
  303.00000   92.35290  410.71080
  303.03000   93.92160  410.32140
  303.06000   95.49014  409.93170
  303.09000   97.05885  409.54230
  303.12000   97.94115  408.81210
  303.15000   98.82360  408.08190
  303.18000   98.82360  411.00300
  303.21000   98.82360  411.29490
  303.24000   98.82360  412.46340
  303.27000   95.29411  413.04780
  303.30000   90.58830  413.63190
  303.33000   91.17645  415.67670
  303.36000   91.76475  417.42930
  303.39000   92.35290  418.11090
  303.42000   92.35290  418.79250
  303.45000   92.94120  419.47410
  303.48000   89.70586  420.05850
  303.51000   86.47064  420.64260
  303.54000   85.88235  421.03200
  303.57000   85.29405  421.42170
  303.60000   84.70590  421.81110
  303.63000   84.70590  421.81110
  303.66000   84.70590  421.81110
  303.69000   84.70590  420.93480
  303.72000   84.70590  420.05850
  303.75000   84.70590  419.18220
  303.78000   85.58820  418.89000
  303.81000   86.47064  418.59780
  303.84000   87.64709  418.45170
  303.87000   88.82355  418.30560
  303.90000   89.80396  418.11090
  303.93000   90.78436  417.91620
  303.96000   91.76475  417.72150
  303.99000   91.47060  417.42930
  304.02000   89.41170  417.13740
  304.05000   90.00000  417.72150
  304.08000   90.00000  418.30560
  304.11000   90.00000  418.89000
  304.14000   90.58830  419.62020
  304.17000   90.58830  420.35040
  304.20000   90.58830  420.35040
  304.23000   90.58830  420.35040
  304.26000   91.17645  420.35040
  304.29000   91.17645  420.35040
  304.32000   91.17645  420.35040
  304.35000   91.17645  418.74390
  304.38000   91.17645  417.13740
  304.41000   91.17645  415.87140
  304.44000   91.17645  414.60570
  304.47000   91.17645  413.33970
  304.50000   91.17645  411.58710
  304.53000   91.17645  409.83450
  304.56000   91.17645  407.98440
  304.59000   91.17645  406.13430
  304.62000   91.17645  402.53160
  304.65000   91.17645  402.53160
  304.68000   91.17645  402.53160
  304.71000   91.17645  402.53160
  304.74000   90.88230  402.53160
  304.77000   91.17645  402.53160
  304.80000   91.17645  402.53160
  304.83000   91.17645  402.53160
  304.86000   91.17645  402.67770
  304.89000   91.17645  402.82380
  304.92000    -999.25    -999.25
