~Version ---------------------------------------------------
VERS. 2.0 : CWLS log ASCII Standard -VERSION 2.0
WRAP.  NO : One line per depth step
~Well ------------------------------------------------------
STRT.M                 60.0 : START
STOP.M               304.92 : STOP
STEP.M 0.030000000000001137 : STEP
NULL.               -999.25 : NULL VALUE
WELL.     Gamma_Ray_Neutron : Well Name
FLD .                       : Field
PROV.                       : Province
LOC .                       : Field Location
PD  .                   MSL : Permanent Datum
UWI .           RAJAMANDALA : Unique Well ID
ELZ .M                  0.0 : Elevation Log Zero
OS  .                       : Services
SRVC.                       : Service company
DATE.                       : Date
~Curve Information -----------------------------------------
DEPT.M    : 1  Depth
GR  .CPS  : 2  Gamma-Ray Log
NEUT.CPS  : 3  Neutron
~Params ----------------------------------------------------
~Other -----------------------------------------------------
~ASCII -----------------------------------------------------
# ...
  222.84000   92.50980  415.94910
  222.87000   91.92600  416.53620
  222.90000   91.92600  416.73180
  222.93000   91.34235  416.92770
  222.96000   85.50584  417.12330
  222.99000   86.08950  417.71040
  223.02000   86.67315  418.15080
  223.05000   86.67315  418.59090
  223.08000   87.25680  419.03130
  223.11000   87.84045  419.47170
  223.14000   88.42410  420.05880
  223.17000   89.00774  420.64590
  223.20000   85.50584  421.23300
  223.23000   84.33855  422.40690
  223.26000   84.33855  422.99400
  223.29000   84.92220  423.58110
  223.32000   85.50584  423.77700
  223.35000   90.17504  423.97260
  223.38000   90.75869  424.16820
  223.41000   97.76266  425.19570
  223.44000   98.34631  426.22320
  223.47000   99.51360  427.25040
  223.50000  100.68090  428.27790
  223.53000  101.26450  427.69080
  223.56000  101.84820  427.10370
  223.59000  101.26450  426.51660
  223.62000   89.59139  425.04900
  223.65000   85.50584  423.58110
  223.68000   84.33855  423.28770
  223.71000   84.92220  422.99400
  223.74000   84.92220  422.70060
  223.77000   84.92220  422.40690
  223.80000   85.50584  422.11350
  223.83000   85.50584  421.72200
  223.86000   85.50584  421.33080
  223.89000   85.50584  420.93930
  223.92000   85.50584  421.08600
  223.95000   85.50584  421.23300
  223.98000   85.50584  421.23300
  224.01000   85.50584  421.23300
  224.04000   85.50584  421.33080
  224.07000   86.08950  421.42860
  224.10000   87.25680  421.52640
  224.13000   87.25680  421.52640
  224.16000   89.59139  421.52640
  224.19000   90.75869  421.72200
  224.22000   91.34235  421.91790
  224.25000   93.09345  422.11350
  224.28000   93.09345  422.11350
  224.31000   94.26075  422.11350
  224.34000   96.01170  422.21130
  224.37000   96.01170  422.30910
  224.40000   96.01170  422.40690
  224.43000   94.84440  422.40690
  224.46000   91.34235  422.40690
  224.49000   89.59139  422.40690
  224.52000   87.84045  422.40690
  224.55000   87.84045  422.40690
  224.58000   88.13235  422.40690
  224.61000   88.42410  422.40690
  224.64000   89.00774  423.58110
  224.67000   89.59139  424.75530
  224.70000   90.17504  425.73390
  224.73000   90.17504  426.71220
  224.76000   90.17504  427.69080
  224.79000   90.17504  428.13120
  224.82000   90.17504  428.57130
  224.85000   90.17504  427.49520
  224.88000   90.17504  426.41880
  224.91000   90.17504  425.34240
  224.94000   89.59139  423.87480
  224.97000   89.59139  422.40690
  225.00000   90.17504  421.33080
  225.03000   90.64320  420.25440
  225.06000   91.52039  419.17800
  225.09000   91.52039  418.10190
  225.12000   92.10526  417.02550
  225.15000   92.10526  413.60070
  225.18000   92.69010  413.60070
  225.21000   92.69010  413.60070
  225.24000   92.69010  413.30730
  225.27000   92.69010  413.01360
  225.30000   95.76030  412.72020
  225.33000   98.83035  412.42650
  225.36000   97.66080  412.27980
  225.39000   96.49126  412.13310
  225.42000   95.32169  411.83940
  225.45000   93.42105  410.66550
  225.48000   91.52039  410.66550
  225.51000   90.64320  410.46960
  225.54000   89.76615  410.27400
  225.57000   88.88895  410.07840
  225.60000   88.30410  409.78470
  225.63000   87.71925  409.63800
  225.66000   87.13454  409.49130
  225.69000   90.35085  409.19760
  225.72000   90.35085  404.79450
  225.75000   90.35085  404.64780
  225.78000   90.35085  403.91400
  225.81000   89.76615  403.62030
  225.84000   89.18130  402.44610
  225.87000   88.88895  402.15270
  225.90000   87.42690  401.85900
  225.93000   86.25735  401.85900
  225.96000   86.25735  400.97850
  225.99000   85.96484  400.97850
  226.02000   83.33340  401.27190
  226.05000   83.91811  402.44610
  226.08000   84.50295  408.61050
  226.11000   84.64905  409.78470
  226.14000   85.38015  413.89440
  226.17000   87.13454  414.48150
  226.20000   88.88895  415.06860
  226.23000   88.88895  417.41670
  226.26000   88.59645  417.41670
  226.29000   88.01176  417.41670
  226.32000   88.01176  417.41670
  226.35000   87.71925  417.71040
  226.38000   84.79530  418.00380
  226.41000   85.67250  418.10190
  226.44000   86.84205  418.19970
  226.47000   87.71925  418.29750
  226.50000   87.71925  418.29750
  226.53000   87.71925  418.29750
  226.56000   87.42690  417.61260
  226.59000   86.25735  416.92770
  226.62000   87.71925  416.24280
  226.65000   88.01176  415.80240
  226.68000   83.62576  415.36200
  226.71000   84.50295  415.26420
  226.74000   84.94155  415.16640
  226.77000   86.84205  415.06860
  226.80000   88.88895  415.21530
  226.83000   95.02920  415.36200
  226.86000   96.78360  415.65570
  226.89000   98.83035  415.94910
  226.92000   99.41520  416.04690
  226.95000   99.70755  416.14470
  226.98000   99.70755  416.24280
  227.01000  100.00010  416.38950
  227.04000  102.04680  416.53620
  227.07000  102.04680  416.73180
  227.10000  102.63160  418.00380
  227.13000  104.09350  418.00380
  227.16000  102.33910  419.17800
  227.19000  101.75450  419.17800
  227.22000  101.46190  419.17800
  227.25000  101.46190  419.17800
  227.28000  100.87730  419.17800
  227.31000  100.58480  419.76510
  227.34000  100.00010  419.86290
  227.37000   99.41520  419.96100
  227.40000   92.98245  420.05880
  227.43000   93.27480  420.05880
  227.46000   94.44450  419.47170
  227.49000   96.49126  419.47170
  227.52000   96.49126  419.47170
  227.55000   96.49126  419.47170
  227.58000   95.90639  418.59090
  227.61000   94.73685  417.71040
  227.64000   94.15200  416.82960
  227.67000   93.85965  415.50870
  227.70000   91.81290  414.18780
  227.73000   93.85965  414.09000
  227.76000   94.73685  413.99220
  227.79000   97.66080  413.89440
  227.82000   97.66080  413.74770
  227.85000   96.19890  413.60070
  227.88000   95.32169  413.99220
  227.91000   93.27480  414.38370
  227.94000   92.69010  414.77490
  227.97000   93.56730  414.62820
  228.00000   94.44450  414.48150
  228.03000   95.61404  414.48150
  228.06000   96.19890  414.48150
  228.09000   98.53800  414.48150
  228.12000  101.16960  414.48150
  228.15000  102.04680  414.48150
  228.18000  102.33910  412.57350
  228.21000  102.92400  410.66550
  228.24000  102.92400  410.17620
  228.27000  103.21630  409.68690
  228.30000   98.53800  409.19760
  228.33000   97.80704  408.31710
  228.36000   97.07595  408.31710
  228.39000   96.34500  408.31710
  228.42000   95.61404  408.02340
  228.45000   91.81290  408.02340
  228.48000   91.52039  408.02340
  228.51000   91.52039  408.02340
  228.54000   90.93570  408.02340
  228.57000   83.33340  408.02340
  228.60000   83.62576  408.02340
  228.63000   93.56730  408.02340
  228.66000   92.98245  408.02340
  228.69000   91.52039  408.02340
  228.72000   91.22804  408.02340
  228.75000   89.76615  408.02340
  228.78000   87.13454  408.02340
  228.81000   96.78360  408.02340
  228.84000   96.49126  408.02340
  228.87000   95.32169  408.02340
  228.90000   94.15200  408.02340
  228.93000   91.52039  408.02340
  228.96000   90.35085  408.02340
  228.99000   97.07595  408.02340
  229.02000   97.95316  408.02340
  229.05000   97.95316  408.02340
  229.08000   97.95316  408.02340
  229.11000   92.39761  408.02340
  229.14000   93.27480  408.02340
  229.17000   93.85965  408.31710
  229.20000   94.00590  408.31710
  229.23000   94.44450  408.02340
  229.26000   95.02920  408.02340
  229.29000   98.53800  408.02340
  229.32000   99.12285  408.90420
  229.35000   98.53800  408.90420
  229.38000   92.98245  408.90420
  229.41000   93.56730  409.49130
  229.44000   93.71341  410.07840
  229.47000   93.85965  410.66550
  229.50000   96.49126  411.39930
  229.53000  103.50880  412.13310
  229.56000  102.92400  412.23090
  229.59000   98.53800  412.32870
  229.62000   97.66080  412.42650
  229.65000   96.19890  412.42650
  229.68000   96.49126  412.42650
  229.71000   97.07595  412.23090
  229.74000   97.66080  412.03530
  229.77000  103.21630  411.83940
  229.80000   99.70755  411.54600
  229.83000   99.12285  410.07840
  229.86000   98.68424  409.49130
  229.89000   97.95316  408.31710
