~Version ---------------------------------------------------
VERS. 2.0 : CWLS log ASCII Standard -VERSION 2.0
WRAP.  NO : One line per depth step
~Well ------------------------------------------------------
STRT.M                 60.0 : START
STOP.M               304.92 : STOP
STEP.M 0.030000000000001137 : STEP
NULL.               -999.25 : NULL VALUE
WELL.     Gamma_Ray_Neutron : Well Name
FLD .                       : Field
PROV.                       : Province
LOC .                       : Field Location
PD  .                   MSL : Permanent Datum
UWI .           RAJAMANDALA : Unique Well ID
ELZ .M                  0.0 : Elevation Log Zero
OS  .                       : Services
SRVC.                       : Service company
DATE.                       : Date
~Curve Information -----------------------------------------
DEPT.M    : 1  Depth
GR  .CPS  : 2  Gamma-Ray Log
NEUT.CPS  : 3  Neutron
~Params ----------------------------------------------------
~Other -----------------------------------------------------
~ASCII -----------------------------------------------------
# ...
   95.40000   57.09390  370.53210
   95.43000   59.88255  371.48430
   95.46000   66.63405  371.77740
   95.49000   66.63405  372.16800
   95.52000   66.63405  372.55860
   95.55000   65.16630  372.94920
   95.58000   60.76320  373.24230
   95.61000   59.58900  373.53510
   95.64000   59.88255  377.92980
   95.67000   60.76320  377.92980
   95.70000   61.64385  377.92980
   95.73000   62.81805  377.92980
   95.76000   62.81805  377.92980
   95.79000   62.81805  377.92980
   95.82000   60.86100  378.51570
   95.85000   58.90410  379.10160
   95.88000   56.94720  379.39440
   95.91000   56.36010  379.68750
   95.94000   57.24075  379.98060
   95.97000   57.24075  379.98060
   96.00000   57.38745  379.98060
   96.03000   57.53430  379.98060
   96.06000   72.50490  379.98060
   96.09000   52.25055  379.98060
   96.12000   51.66345  379.98060
   96.15000   52.25055  379.98060
   96.18000   56.06655  379.98060
   96.21000   56.36010  379.98060
   96.24000   56.94720  379.98060
   96.27000   57.24075  379.98060
   96.30000   65.45985  379.98060
   96.33000   66.63405  379.68750
   96.36000   68.98245  379.39440
   96.39000   73.67910  379.10160
   96.42000   77.20155  379.83390
   96.45000   77.20155  380.56650
   96.48000   75.14670  380.95710
   96.51000   71.03716  381.34770
   96.54000   70.45005  381.73830
   96.57000   70.15650  381.29880
   96.60000   68.98245  380.85930
   96.63000   66.34050  380.85930
   96.66000   65.45985  380.85930
   96.69000   65.45985  381.64050
   96.72000   70.45005  382.42200
   96.75000   72.50490  383.20320
   96.78000   72.50490  384.22860
   96.81000   72.50490  385.25400
   96.84000   72.50490  385.44930
   96.87000   72.50490  385.64460
   96.90000   73.97265  385.83990
   96.93000   72.50490  386.13270
   96.96000   72.21135  386.42580
   96.99000   70.45005  386.62110
   97.02000   70.15650  386.71890
   97.05000   69.86295  386.71890
   97.08000   68.98245  386.71890
   97.11000   68.98245  387.01170
   97.14000   68.98245  387.01170
   97.17000   70.15650  387.01170
   97.20000   73.38554  387.01170
   97.23000   73.67910  387.01170
   97.26000   76.32090  387.30480
   97.29000   76.32090  387.30480
   97.32000   76.32090  389.35560
   97.35000   76.32090  389.35560
   97.38000   76.76130  388.76940
   97.41000   77.20155  388.76940
   97.44000   77.69085  388.76940
   97.47000   78.18000  388.76940
   97.50000   78.66930  388.76940
   97.53000   79.10954  388.76940
   97.56000   79.54995  388.67190
   97.59000   83.95306  388.57410
   97.62000   81.60464  388.47660
   97.65000   81.31110  388.47660
   97.68000   81.31110  388.18350
   97.71000   81.01756  388.18350
   97.74000   81.01756  388.18350
   97.77000   81.31110  388.18350
   97.80000   86.59485  391.69920
   97.83000   86.59485  391.99230
   97.86000   87.47550  392.65140
   97.89000   93.34634  393.31050
   97.92000   93.34634  393.96960
   97.95000   93.24855  394.62900
   97.98000   93.15075  397.85160
   98.01000   87.18195  397.85160
   98.04000   86.88840  397.85160
   98.07000   84.54015  397.85160
   98.10000   83.65949  397.85160
   98.13000   89.23680  397.26570
   98.16000   88.94325  396.58200
   98.19000   88.94325  395.89830
   98.22000   88.94325  395.21490
   98.25000   88.94325  395.36130
   98.28000   88.94325  395.50770
   98.31000   88.94325  395.80080
   98.34000   88.94325  396.09390
   98.37000   88.94325  396.09390
   98.40000   88.94325  396.09390
   98.43000   93.63991  396.09390
   98.46000   94.52055  396.09390
   98.49000   95.40121  396.09390
   98.52000   96.28185  395.80080
   98.55000   97.16235  395.50770
   98.58000   98.04300  395.21490
   98.61000   98.14095  395.21490
   98.64000   98.23875  395.21490
   98.67000   93.63991  395.21490
   98.70000   94.52055  395.65440
   98.73000   95.69476  396.09390
   98.76000   95.98830  396.53310
   98.79000   95.40121  396.97260
   98.82000   91.87859  397.46100
   98.85000   93.63991  397.94910
   98.88000   95.40121  398.43750
   98.91000   95.69476  398.43750
   98.94000   95.98830  398.43750
   98.97000   93.34634  398.73060
   99.00000   90.70455  399.31650
   99.03000   89.82390  399.60930
   99.06000   86.88840  399.90240
   99.09000   84.83370  400.09770
   99.12000   89.53035  400.29300
   99.15000   89.23680  400.48830
   99.18000   88.64970  401.07420
   99.21000   88.06260  402.83190
   99.24000   87.76905  403.12500
   99.27000   86.88840  403.41810
   99.30000   86.88840  404.00400
   99.33000   87.18195  404.00400
   99.36000   87.47550  404.00400
   99.39000   88.64970  403.12500
   99.42000   95.98830  403.12500
   99.45000  102.73970  403.12500
   99.48000  105.67520  402.92970
   99.51000  105.38160  402.73440
   99.54000  101.56560  402.53910
   99.57000  100.68500  402.53910
   99.60000  100.68500  402.53910
   99.63000  100.68500  402.14850
   99.66000  100.39140  401.75790
   99.69000   99.21720  401.36730
   99.72000   98.33655  400.78140
   99.75000   98.04300  400.19520
   99.78000   97.45589  400.19520
   99.81000   95.40121  400.19520
   99.84000  100.68500  403.41810
   99.87000   99.21720  403.71090
   99.90000   98.63010  404.00400
   99.93000   97.45589  404.29680
   99.96000   95.98830  404.78370
   99.99000   95.69476  407.51940
  100.02000   95.10765  407.41470
  100.05000   94.22701  407.51220
  100.08000   93.93345  407.60970
  100.11000   92.75925  407.70720
  100.14000   92.17216  407.70720
  100.17000   91.58520  407.90250
  100.20000   88.64970  408.29280
  100.23000   88.64970  408.29280
  100.26000   88.35615  408.29280
  100.29000   88.35615  408.68280
  100.32000   87.47550  409.07310
  100.35000   87.18195  409.46340
  100.38000   86.88840  410.48790
  100.41000   84.24660  411.51210
  100.44000   84.54015  411.80490
  100.47000   85.71436  412.09770
  100.50000   87.47550  412.39020
  100.53000   87.47550  412.53660
  100.56000   88.94325  412.68300
  100.59000   88.94325  412.78050
  100.62000   88.64970  412.87800
  100.65000   88.64970  412.97550
  100.68000   88.64970  413.56110
  100.71000   88.35615  414.14640
  100.74000   88.06260  414.14640
  100.77000   87.76905  414.14640
  100.80000   87.47550  414.14640
  100.83000   78.08220  413.85360
  100.86000   77.49510  413.56110
  100.89000   75.73380  410.14620
  100.92000   68.98245  406.73160
  100.95000   68.98245  403.31700
  100.98000   68.98245  401.85360
  101.01000   71.03716  400.39020
  101.04000   71.03716  399.60990
  101.07000   67.80825  398.82930
  101.10000   63.11161  398.04870
  101.13000   64.28565  397.17060
  101.16000   64.28565  396.29280
  101.19000   63.99210  395.70720
  101.22000   62.23095  395.12190
  101.25000   58.41480  394.53660
  101.28000   58.41480  393.85380
  101.31000   57.53430  393.17070
  101.34000   57.24075  392.48790
  101.37000   56.94720  391.46340
  101.40000   58.70835  390.43890
  101.43000   58.41480  389.75610
  101.46000   54.89235  389.07330
  101.49000   54.89235  388.39020
  101.52000   54.89235  387.95130
  101.55000   54.89235  387.51210
  101.58000   58.41480  387.41460
  101.61000   58.26810  387.31710
  101.64000   57.24075  387.21960
  101.67000   56.06655  386.48790
  101.70000   54.89235  385.75620
  101.73000   53.71815  385.75620
  101.76000   53.71815  385.75620
  101.79000   52.54410  385.75620
  101.82000   57.53430  385.75620
  101.85000   58.41480  385.75620
  101.88000   58.41480  385.75620
  101.91000   58.26810  385.75620
  101.94000   56.06655  385.75620
  101.97000   56.36010  385.75620
  102.00000   57.24075  385.75620
  102.03000   57.53430  385.75620
  102.06000   60.76320  385.75620
  102.09000   58.12140  385.75620
  102.12000   57.53430  386.19510
  102.15000   57.24075  386.63400
  102.18000   60.76320  386.53650
  102.21000   60.76320  386.43900
  102.24000   60.61650  386.34150
  102.27000   59.58900  386.34150
  102.30000   57.24075  386.34150
  102.33000   60.76320  386.34150
  102.36000   60.76320  386.34150
  102.39000   60.76320  386.34150
  102.42000   60.76320  386.19510
  102.45000   60.76320  386.04870
