~Version ---------------------------------------------------
VERS. 2.0 : CWLS log ASCII Standard -VERSION 2.0
WRAP.  NO : One line per depth step
~Well ------------------------------------------------------
STRT.M                 60.0 : START
STOP.M               304.92 : STOP
STEP.M 0.030000000000001137 : STEP
NULL.               -999.25 : NULL VALUE
WELL.     Gamma_Ray_Neutron : Well Name
FLD .                       : Field
PROV.                       : Province
LOC .                       : Field Location
PD  .                   MSL : Permanent Datum
UWI .           RAJAMANDALA : Unique Well ID
ELZ .M                  0.0 : Elevation Log Zero
OS  .                       : Services
SRVC.                       : Service company
DATE.                       : Date
~Curve Information -----------------------------------------
DEPT.M    : 1  Depth
GR  .CPS  : 2  Gamma-Ray Log
NEUT.CPS  : 3  Neutron
~Params ----------------------------------------------------
~Other -----------------------------------------------------
~ASCII -----------------------------------------------------
# ...
  137.88000   77.36220  423.63270
  137.91000   77.06700  423.63270
  137.94000   76.77165  424.36530
  137.97000   76.77165  425.09760
  138.00000   75.59055  425.58600
  138.03000   73.22836  426.07410
  138.06000   70.86615  426.56250
  138.09000   68.50395  427.14840
  138.12000   68.60235  427.73430
  138.15000   68.70074  428.22270
  138.18000   68.79915  428.71080
  138.21000   67.17525  429.19920
  138.24000   65.55120  431.68950
  138.27000   64.86225  434.17980
  138.30000   64.17330  436.52340
  138.33000   63.48420  438.86730
  138.36000   63.04140  441.06450
  138.39000   62.59845  443.26170
  138.42000   62.10630  444.33600
  138.45000   61.61415  445.41030
  138.48000   61.12200  446.48430
  138.51000   61.31895  448.68150
  138.54000   61.51575  450.87900
  138.57000   61.71255  452.34390
  138.60000   63.18900  453.80850
  138.63000   64.66530  455.27340
  138.66000   65.10825  455.85930
  138.69000   65.55120  456.44520
  138.72000   66.24015  456.05460
  138.75000   66.92910  455.66400
  138.78000   71.16135  455.27340
  138.81000   71.16135  454.68750
  138.84000   70.86615  454.10160
  138.87000   70.57079  454.49220
  138.90000   64.96065  454.88280
  138.93000   65.55120  455.27340
  138.96000   65.84640  455.85930
  138.99000   67.61805  456.44520
  139.02000   67.61805  457.03140
  139.05000   67.61805  456.44520
  139.08000   67.61805  456.44520
  139.11000   66.58470  455.85930
  139.14000   65.55120  455.56650
  139.17000   64.07475  454.83390
  139.20000   62.59845  453.22260
  139.23000   61.12200  452.63670
  139.26000   61.12200  452.05080
  139.29000   61.12200  451.46490
  139.32000   61.12200  450.87900
  139.35000   61.12200  446.77740
  139.38000   61.12200  446.77740
  139.41000   58.61220  446.77740
  139.44000   56.10240  446.77740
  139.47000   56.10240  445.89840
  139.50000   56.10240  445.01940
  139.53000   56.10240  443.55480
  139.56000   58.02165  442.08990
  139.59000   59.94090  440.62500
  139.62000   60.62985  439.84380
  139.65000   61.31895  439.06260
  139.68000   62.00790  438.28140
  139.71000   64.22250  438.72060
  139.74000   66.43695  439.16010
  139.77000   66.53550  439.35540
  139.80000   66.63390  439.55070
  139.83000   66.73230  439.74600
  139.86000   66.87991  439.16010
  139.89000   63.77955  438.28140
  139.92000   63.48420  437.69520
  139.95000   63.18900  436.96290
  139.98000   63.48420  436.23060
  140.01000   64.07475  436.23060
  140.04000   64.96065  435.64440
  140.07000   65.40360  433.88670
  140.10000   65.84640  434.17980
  140.13000   66.43695  433.30080
  140.16000   67.02750  429.78510
  140.19000   73.22836  429.19920
  140.22000   74.11425  428.61330
  140.25000   72.34245  427.58790
  140.28000   71.45670  426.56250
  140.31000   71.16135  426.46470
  140.34000   67.02750  426.36720
  140.37000   66.43695  426.26940
  140.40000   66.43695  425.53710
  140.43000   66.43695  424.80480
  140.46000   66.73230  424.51170
  140.49000   66.87991  424.21890
  140.52000   67.91341  423.92580
  140.55000   68.20860  423.82800
  140.58000   65.55120  423.73050
  140.61000   65.55120  423.63270
  140.64000   65.55120  423.43740
  140.67000   65.55120  423.24210
  140.70000   65.99416  423.04680
  140.73000   66.43695  423.04680
  140.76000   67.51965  423.04680
  140.79000   68.60235  423.24210
  140.82000   69.68505  423.43740
  140.85000   73.22836  423.63270
  140.88000   74.21265  423.92580
  140.91000   75.19680  424.21890
  140.94000   76.18110  423.92580
  140.97000   77.26380  423.63270
  141.00000   78.34650  423.33990
  141.03000   79.42921  422.85150
  141.06000   81.05310  422.36340
  141.09000   82.67715  421.87500
  141.12000   83.85825  421.87500
  141.15000   85.03936  421.87500
  141.18000   86.22045  421.58190
  141.21000   89.46855  421.28910
  141.24000   92.42130  420.99600
  141.27000   94.19295  420.41010
  141.30000   94.19295  419.82420
  141.33000   94.19295  419.43360
  141.36000   94.19295  419.04300
  141.39000   94.19295  418.65240
  141.42000   94.19295  418.26180
  141.45000   94.34055  417.87120
  141.48000   95.07870  417.48060
  141.51000   96.25980  416.74800
  141.54000   93.01185  416.01570
  141.57000   90.64965  414.84390
  141.60000   88.87800  413.67180
  141.63000   88.28745  412.50000
  141.66000   88.28745  410.44920
  141.69000   88.28745  408.39840
  141.72000   87.69690  408.20310
  141.75000   87.69690  408.00780
  141.78000   86.22045  407.81250
  141.81000   85.33470  407.81250
  141.84000   83.26769  407.81250
  141.87000   82.67715  407.22660
  141.90000   82.67715  407.22660
  141.93000   82.08660  406.64070
  141.96000   84.44880  406.25010
  141.99000   84.74416  405.85950
  142.02000   87.10635  405.46890
  142.05000   90.64965  405.46890
  142.08000   90.64965  403.71090
  142.11000   89.76375  404.58990
  142.14000   89.17319  404.58990
  142.17000   86.51579  403.12500
  142.20000   86.22045  403.12500
  142.23000   86.22045  403.12500
  142.26000   85.33470  403.12500
  142.29000   84.74416  403.12500
  142.32000   83.85825  403.41810
  142.35000   90.05910  403.41810
  142.38000   90.94485  403.71090
  142.41000   91.53540  404.29680
  142.44000   91.68300  404.00400
  142.47000   92.42130  404.00400
  142.50000  103.64170  404.29680
  142.53000  102.16530  404.29680
  142.56000  101.27950  404.29680
  142.59000   98.91735  404.29680
  142.62000   98.32681  404.29680
  142.65000   98.03145  404.29680
  142.68000   98.32681  404.29680
  142.71000  101.57470  404.29680
  142.74000  100.09840  404.29680
  142.77000   99.21255  404.29680
  142.80000   95.37405  404.29680
  142.83000   94.78350  404.29680
  142.86000  103.93700  404.88270
  142.89000  102.75580  406.34760
  142.92000  101.57470  406.64070
  142.95000  100.98420  407.22660
  142.98000   98.32681  407.66610
  143.01000   98.03145  408.10560
  143.04000   97.44090  408.10560
  143.07000   97.14571  408.10560
  143.10000   95.07870  408.10560
  143.13000   94.48815  407.51940
  143.16000   95.66924  406.93350
  143.19000   96.11220  406.25010
  143.22000   96.85036  405.56640
  143.25000  100.09840  404.88270
  143.28000   97.44090  403.90620
  143.31000   97.44090  402.92970
  143.34000   97.44090  401.95320
  143.37000   97.04729  401.66010
  143.40000   96.65354  401.36730
  143.43000   96.25980  401.26950
  143.46000   97.14571  401.17200
  143.49000  100.09840  401.07420
  143.52000  100.09840  401.36730
  143.55000   99.50790  401.66010
  143.58000   98.62200  401.17200
  143.61000   98.62200  400.68360
  143.64000   99.80310  400.19520
  143.67000   99.80310  398.73060
  143.70000   93.89760  397.26570
  143.73000   93.89760  395.80080
  143.76000   94.19295  395.41020
  143.79000   94.78350  395.01960
  143.82000   98.32681  394.62900
  143.85000  100.98420  395.21490
  143.88000  101.27950  395.80080
  143.91000   99.50790  395.89830
  143.94000   99.36030  395.99610
  143.97000   96.55515  396.09390
  144.00000   95.96460  396.09390
  144.03000   97.14571  396.09390
  144.06000   97.14571  396.09390
  144.09000   97.14571  395.80080
  144.12000   97.14571  395.50770
  144.15000   99.36030  395.70300
  144.18000  101.57470  395.89830
  144.21000  102.36230  396.09390
  144.24000  103.14960  395.50770
  144.27000  103.93700  394.92180
  144.30000  103.05120  394.82430
  144.33000  102.16530  394.72650
  144.36000  100.98420  394.62900
  144.39000   99.80310  394.62900
  144.42000   98.62200  394.62900
  144.45000   98.03145  395.01960
  144.48000   97.44090  395.41020
  144.51000   97.73625  395.80080
  144.54000   98.03145  395.70300
  144.57000   98.32681  395.60550
  144.60000   98.03145  395.50770
  144.63000   97.73625  396.09390
  144.66000   96.94875  396.67980
  144.69000   96.16139  397.07040
  144.72000   95.37405  397.46100
  144.75000   93.60240  397.85160
  144.78000   91.83076  397.85160
  144.81000   90.94485  397.85160
  144.84000   90.64965  397.85160
  144.87000   92.42130  397.85160
  144.90000   94.19295  397.85160
  144.93000   94.78350  397.85160
