~Version ---------------------------------------------------
VERS. 2.0 : CWLS log ASCII Standard -VERSION 2.0
WRAP.  NO : One line per depth step
~Well ------------------------------------------------------
STRT.FT                                    0.0 : START
STOP.FT                                  600.0 : STOP
STEP.FT                                    0.1 : STEP
NULL.                                  -999.25 : NULL VALUE
COMP.                              RAJAMANDALA : Company
WELL.                              RAJAMANDALA : Well Name
FLD .                                          : Field
CTRY.                              RAJAMANDALA : Country
STAT.                              RAJAMANDALA : State
PROV.                                          : Province
LOC .                                          : Field Location
LATI.                 000 01' 09.000" S    DMS : Latitude
LONG.                 000 10' 39.000" E    DMS : Longitude
PD  .                                      MSL : Permanent Datum
UWI .                              RAJAMANDALA : Unique Well ID
ELZ .FT                                    0.0 : Elevation Log Zero
OS  .                                  NEUTRON : Services
SRVC.                                          : Service company
DATE.                                          : Date
~Curve Information -----------------------------------------
DEPT.FT    : 1  Depth
GR  .GAPI  : 2  Gamma-Ray Log
NEUT.%     : 3  Neutron Log Porosity
~Params ----------------------------------------------------
~Other -----------------------------------------------------
~ASCII -----------------------------------------------------
# ...
  236.00000   22.98210 1577.70000
  236.10000   22.78540 1574.68000
  236.20000   22.58870 1571.66000
  236.30000   22.39200 1568.64000
  236.40000   22.19530 1564.31000
  236.50000   21.99870 1556.54000
  236.60000   21.44940 1548.76000
  236.70000   20.88720 1541.28000
  236.80000   20.67530 1534.81000
  236.90000   20.42090 1530.16000
  237.00000   20.19770 1526.39000
  237.10000   21.48300 1523.15000
  237.20000   23.44570 1519.92000
  237.30000   25.60270 1516.77000
  237.40000   26.02630 1514.18000
  237.50000   26.26600 1501.35000
  237.60000   28.49800 1482.57000
  237.70000   28.59030 1470.92000
  237.80000   28.68250 1464.70000
  237.90000   28.68250 1462.76000
  238.00000   28.68250 1460.82000
  238.10000   28.77470 1459.43000
  238.20000   28.77470 1458.56000
  238.30000   20.93540 1457.70000
  238.40000   20.93540 1457.24000
  238.50000   20.88930 1526.13000
  238.60000   20.84320 1528.95000
  238.70000   20.79710 1528.95000
  238.80000   20.75100 1528.95000
  238.90000   20.75100 1537.03000
  239.00000   20.75100 1561.35000
  239.10000   20.75100 1611.86000
  239.20000   20.75100 1619.74000
  239.30000   20.75100 1616.10000
  239.40000   26.28460 1610.93000
  239.50000   26.33070 1599.56000
  239.60000   26.37680 1578.15000
  239.70000   26.42290 1534.13000
  239.80000   26.56130 1521.09000
  239.90000   23.05670 1518.79000
  240.00000   23.01050 1517.50000
  240.10000   22.96440 1516.20000
  240.20000   22.96440 1514.90000
  240.30000   22.96440 1513.61000
  240.40000   23.05670 1513.16000
  240.50000   23.05670 1512.83000
  240.60000   23.05670 1510.24000
  240.70000   23.05670 1508.43000
  240.80000   23.42560 1507.24000
  240.90000   27.57580 1553.40000
  241.00000   27.62190 1572.37000
  241.10000   27.76020 1571.36000
  241.20000   27.76020 1570.71000
  241.30000   27.76020 1569.08000
  241.40000   27.76020 1566.49000
  241.50000   27.57580 1566.45000
  241.60000   27.57580 1566.45000
  241.70000   27.48350 1566.45000
  241.80000   22.35080 1566.45000
  241.90000   20.63870 1566.45000
  242.00000   19.24680 1566.45000
  242.10000   18.98340 1567.60000
  242.20000   18.81830 1574.55000
  242.30000   18.57620 1591.39000
  242.40000   18.48670 1594.63000
  242.50000   18.41990 1595.27000
  242.60000   18.33920 1595.92000
  242.70000   18.25850 1596.05000
  242.80000   18.19940 1592.58000
  242.90000   18.78760 1579.63000
  243.00000   20.57230 1569.57000
  243.10000   22.31890 1561.08000
  243.20000   22.31890 1554.60000
  243.30000   22.65580 1548.12000
  243.40000   23.10870 1540.98000
  243.50000   23.41130 1530.62000
  243.60000   23.71390 1521.10000
  243.70000   23.99770 1512.36000
  243.80000   24.14900 1505.88000
  243.90000   25.63900 1502.77000
  244.00000   25.86960 1501.90000
  244.10000   26.28460 1501.05000
  244.20000   26.46900 1500.18000
  244.30000   26.46900 1499.23000
  244.40000   26.46900 1495.35000
  244.50000   26.46900 1493.42000
  244.60000   26.46900 1493.42000
  244.70000   23.83390 1493.42000
  244.80000   23.48140 1494.31000
  244.90000   22.99730 1496.25000
  245.00000   22.56960 1539.23000
  245.10000   21.30660 1568.92000
  245.20000   18.82530 1574.96000
  245.30000   18.10950 1581.00000
  245.40000   17.73430 1606.63000
  245.50000   17.55280 1667.06000
  245.60000   17.42180 1680.40000
  245.70000   17.26310 1684.50000
  245.80000   17.02100 1688.60000
  245.90000   16.82660 1729.95000
  246.00000   23.88670 1768.27000
  246.10000   23.95590 1770.21000
  246.20000   24.02500 1772.16000
  246.30000   24.09420 1773.68000
  246.40000   24.16340 1746.91000
  246.50000   24.16340 1740.13000
  246.60000   22.90850 1739.37000
  246.70000   18.73290 1734.83000
  246.80000   16.42800 1729.47000
  246.90000   15.26600 1724.03000
  247.00000   14.90300 1721.44000
  247.10000   14.39560 1716.53000
  247.20000   13.83400 1710.53000
  247.30000   13.83400 1710.53000
  247.40000   13.93350 1731.11000
  247.50000   14.12810 1768.01000
  247.60000   14.85430 1778.37000
  247.70000   15.42920 1787.43000
  247.80000   15.85280 1795.20000
  247.90000   15.98110 1802.98000
  248.00000   16.04740 1810.17000
  248.10000   16.04740 1816.64000
  248.20000   16.04740 1823.11000
  248.30000   16.09630 1829.59000
  248.40000   16.21740 1836.06000
  248.50000   16.23190 1844.82000
  248.60000   15.02010 1853.89000
  248.70000   13.46510 1862.95000
  248.80000   13.28060 1864.47000
  248.90000   13.28060 1875.24000
  249.00000   13.09620 1910.21000
  249.10000   13.09620 1917.76000
  249.20000   13.09620 1917.76000
  249.30000   13.28060 1917.76000
  249.40000   13.37290 1917.76000
  249.50000   14.29510 1908.43000
  249.60000   17.43080 1864.40000
  249.70000   17.43080 1850.66000
  249.80000   17.43080 1862.02000
  249.90000   17.43080 1871.08000
  250.00000   17.43080 1875.88000
  250.10000   17.43080 1878.28000
  250.20000   17.43080 1880.68000
  250.30000   21.30430 1882.43000
  250.40000   21.30430 1883.67000
  250.50000   21.30430 1884.32000
  250.60000   21.39660 1884.97000
  250.70000   21.48880 1885.61000
  250.80000   21.48880 1886.26000
  250.90000   21.48880 1886.91000
  251.00000   21.48880 1887.55000
  251.10000   21.39660 1887.57000
  251.20000   17.06190 1887.57000
  251.30000   17.06190 1887.57000
  251.40000   17.09880 1887.57000
  251.50000   17.13570 1871.01000
  251.60000   17.17260 1829.59000
  251.70000   17.20950 1823.33000
  251.80000   17.24640 1822.49000
  251.90000   17.47690 1822.49000
  252.00000   18.53750 1826.77000
  252.10000   18.81420 1830.76000
  252.20000   18.90650 1832.06000
  252.30000   19.09090 1833.36000
  252.40000   19.09090 1836.64000
  252.50000   19.09090 1845.70000
  252.60000   19.45980 1850.97000
  252.70000   18.70310 1854.04000
  252.80000   18.61240 1854.04000
  252.90000   18.52160 1854.04000
  253.00000   18.44540 1852.38000
  253.10000   18.44540 1842.03000
  253.20000   18.29150 1833.32000
  253.30000   18.04940 1826.29000
  253.40000   17.80730 1824.99000
  253.50000   16.99580 1798.59000
  253.60000   15.86300 1757.40000
  253.70000   16.12060 1757.40000
  253.80000   16.42790 1757.40000
  253.90000   16.78680 1757.40000
  254.00000   16.88770 1757.40000
  254.10000   21.58100 1757.56000
  254.20000   21.58100 1757.88000
  254.30000   21.67330 1766.34000
  254.40000   21.67330 1772.35000
  254.50000   21.67330 1774.94000
  254.60000   21.67330 1776.34000
  254.70000   21.67330 1778.15000
  254.80000   15.30960 1780.74000
  254.90000   15.17130 1783.32000
  255.00000   15.03290 1785.01000
  255.10000   15.03290 1671.61000
  255.20000   15.03290 1656.80000
  255.30000   15.03290 1635.84000
  255.40000   15.03290 1565.95000
  255.50000   15.03290 1546.28000
  255.60000   15.03290 1541.11000
  255.70000   15.03290 1535.93000
  255.80000   15.03290 1531.69000
  255.90000   15.03290 1528.07000
  256.00000   15.14820 1525.48000
  256.10000   16.78520 1524.65000
  256.20000   16.78520 1536.97000
  256.30000   16.78520 1615.92000
  256.40000   16.60080 1645.38000
  256.50000   25.19380 1646.03000
  256.60000   29.61150 1646.67000
  256.70000   31.44930 1646.94000
  256.80000   31.54150 1646.94000
  256.90000   31.44930 1646.94000
  257.00000   31.47230 1637.92000
  257.10000   31.49540 1621.29000
  257.20000   31.51840 1620.65000
  257.30000   31.54150 1620.00000
  257.40000   31.72600 1619.35000
  257.50000   31.72600 1618.70000
  257.60000   31.72600 1618.06000
  257.70000   26.70570 1617.41000
  257.80000   26.83790 1617.36000
  257.90000   25.93650 1693.40000
  258.00000   23.63680 1882.36000
  258.10000   23.33330 1907.30000
  258.20000   22.95860 1907.30000
  258.30000   21.86940 1907.30000
  258.40000   20.63120 1879.71000
  258.50000   19.67380 1854.87000
  258.60000   19.46200 1850.99000
  258.70000   20.10540 1847.10000
  258.80000   19.96710 1843.54000
  258.90000   19.82870 1840.95000
  259.00000   19.78260 1839.77000
  259.10000   19.73650 1839.25000
  259.20000   19.64430 1880.41000
  259.30000   19.55200 1891.95000
  259.40000   19.55200 1892.60000
  259.50000   19.55200 1893.25000
