~Version ---------------------------------------------------
VERS. 2.0 : CWLS log ASCII Standard -VERSION 2.0
WRAP.  NO : One line per depth step
~Well ------------------------------------------------------
STRT.FT                                    0.0 : START
STOP.FT                                  600.0 : STOP
STEP.FT                                    0.1 : STEP
NULL.                                  -999.25 : NULL VALUE
COMP.                              RAJAMANDALA : Company
WELL.                              RAJAMANDALA : Well Name
FLD .                                          : Field
CTRY.                              RAJAMANDALA : Country
STAT.                              RAJAMANDALA : State
PROV.                                          : Province
LOC .                                          : Field Location
LATI.                 000 01' 09.000" S    DMS : Latitude
LONG.                 000 10' 39.000" E    DMS : Longitude
PD  .                                      MSL : Permanent Datum
UWI .                              RAJAMANDALA : Unique Well ID
ELZ .FT                                    0.0 : Elevation Log Zero
OS  .                                  NEUTRON : Services
SRVC.                                          : Service company
DATE.                                          : Date
~Curve Information -----------------------------------------
DEPT.FT    : 1  Depth
GR  .GAPI  : 2  Gamma-Ray Log
NEUT.%     : 3  Neutron Log Porosity
~Params ----------------------------------------------------
~Other -----------------------------------------------------
~ASCII -----------------------------------------------------
# ...
  306.80000   24.80900 2458.81000
  306.90000   24.99340 2465.28000
  307.00000   29.42030 2471.76000
  307.10000   29.69700 2479.49000
  307.20000   29.74310 2495.03000
  307.30000   29.78920 2504.98000
  307.40000   29.88140 2510.85000
  307.50000   30.06590 2510.85000
  307.60000   30.06590 2510.85000
  307.70000   19.50460 2510.85000
  307.80000   19.47430 2510.85000
  307.90000   19.33390 2502.77000
  308.00000   19.09190 2487.24000
  308.10000   19.09090 2404.68000
  308.20000   19.34800 2359.12000
  308.30000   19.89260 2355.23000
  308.40000   20.07870 2355.03000
  308.50000   20.24520 2395.58000
  308.60000   20.41160 2398.16000
  308.70000   20.57800 2398.42000
  308.80000   21.67740 2377.01000
  308.90000   24.32490 2320.07000
  309.00000   24.71670 2306.13000
  309.10000   24.28000 2301.78000
  309.20000   22.94870 2339.59000
  309.30000   22.15260 2353.49000
  309.40000   21.67330 2361.67000
  309.50000   21.67330 2364.26000
  309.60000   21.67330 2374.68000
  309.70000   21.72950 2385.52000
  309.80000   21.97150 2389.40000
  309.90000   22.21360 2394.20000
  310.00000   22.73400 2399.61000
  310.10000   24.48890 2406.08000
  310.20000   25.08560 2408.28000
  310.30000   25.08560 2407.75000
  310.40000   25.08560 2403.87000
  310.50000   25.08560 2389.70000
  310.60000   24.79800 2370.13000
  310.70000   21.53020 2362.36000
  310.80000   19.90060 2357.51000
  310.90000   19.55200 2354.93000
  311.00000   22.44710 2352.33000
  311.10000   23.82570 2351.08000
  311.20000   23.88620 2351.08000
  311.30000   23.94670 2351.08000
  311.40000   23.97890 2351.08000
  311.50000   23.89010 2351.08000
  311.60000   23.77240 2398.73000
  311.70000   23.09220 2438.88000
  311.80000   21.63980 2464.77000
  311.90000   20.94660 2467.46000
  312.00000   20.47660 2448.20000
  312.10000   15.86300 2396.43000
  312.20000   15.86300 2388.56000
  312.30000   15.86300 2388.56000
  312.40000   15.86300 2388.56000
  312.50000   15.86300 2388.56000
  312.60000   15.67850 2385.58000
  312.70000   15.67850 2374.80000
  312.80000   15.58630 2364.01000
  312.90000   15.49410 2350.57000
  313.00000   15.49410 2328.14000
  313.10000   15.49410 2316.95000
  313.20000   15.49410 2311.64000
  313.30000   21.35200 2311.64000
  313.40000   21.68030 2311.64000
  313.50000   21.91140 2311.64000
  313.60000   22.66790 2311.64000
  313.70000   22.96440 2327.12000
  313.80000   22.59550 2352.57000
  313.90000   24.89150 2378.02000
  314.00000   25.82340 2403.47000
  314.10000   25.57170 2428.55000
  314.20000   25.41030 2443.65000
  314.30000   25.24900 2473.11000
  314.40000   25.08750 2516.25000
  314.50000   24.84640 2516.77000
  314.60000   24.71670 2512.91000
  314.70000   24.71670 2510.97000
  314.80000   23.18080 2510.85000
  314.90000   21.54690 2510.04000
  315.00000   19.91300 2508.10000
  315.10000   18.27900 2506.16000
  315.20000   17.20740 2504.29000
  315.30000   17.10150 2502.57000
  315.40000   16.99560 2500.84000
  315.50000   16.88960 2499.12000
  315.60000   16.78380 2497.39000
  315.70000   16.67790 2495.49000
  315.80000   16.60080 2493.55000
  315.90000   16.88310 2491.61000
  316.00000   17.10490 2486.28000
  316.10000   17.32680 2475.56000
  316.20000   17.54870 2450.11000
  316.30000   18.08130 2424.65000
  316.40000   18.74690 2399.20000
  316.50000   19.41260 2373.75000
  316.60000   20.07830 2361.23000
  316.70000   20.70530 2354.24000
  316.80000   21.06830 2337.85000
  316.90000   21.43140 2329.01000
  317.00000   22.00260 2324.40000
  317.10000   24.96800 2311.47000
  317.20000   26.28460 2305.72000
  317.30000   26.25330 2305.72000
  317.40000   26.23300 2305.72000
  317.50000   26.21290 2345.17000
  317.60000   26.19270 2422.82000
  317.70000   26.01370 2424.06000
  317.80000   25.80440 2424.06000
  317.90000   25.56230 2424.06000
  318.00000   25.26350 2424.06000
  318.10000   24.91110 2429.22000
  318.20000   24.48750 2441.73000
  318.30000   24.38630 2454.24000
  318.40000   22.91600 2466.75000
  318.50000   18.98250 2479.26000
  318.60000   18.35310 2487.42000
  318.70000   18.72200 2503.21000
  318.80000   18.72200 2537.29000
  318.90000   18.72200 2545.40000
  319.00000   18.66050 2546.70000
  319.10000   18.59900 2547.99000
  319.20000   18.53750 2549.29000
  319.30000   18.53750 2550.87000
  319.40000   18.53750 2553.45000
  319.50000   18.53750 2554.24000
  319.60000   18.49140 2550.46000
  319.70000   18.44530 2528.45000
  319.80000   24.71380 2506.45000
  319.90000   25.27860 2484.45000
  320.00000   25.84350 2462.45000
  320.10000   26.40830 2448.21000
  320.20000   26.96390 2439.15000
  320.30000   27.40770 2430.10000
  320.40000   28.76450 2421.04000
  320.50000   30.80370 2411.90000
  320.60000   30.80370 2400.26000
  320.70000   30.74270 2388.61000
  320.80000   30.62170 2376.96000
  320.90000   30.26340 2365.31000
  321.00000   30.02450 2356.91000
  321.10000   29.93370 2352.38000
  321.20000   27.58690 2347.85000
  321.30000   26.02600 2343.32000
  321.40000   25.84450 2338.79000
  321.50000   25.74320 2334.26000
  321.60000   25.54350 2329.34000
  321.70000   25.15010 2323.73000
  321.80000   24.93390 2318.13000
  321.90000   24.79010 2312.52000
  322.00000   24.72950 2306.91000
  322.10000   24.66900 2305.04000
  322.20000   24.59260 2304.18000
  322.30000   24.47160 2303.32000
  322.40000   24.44010 2302.45000
  322.50000   24.44010 2301.78000
  322.60000   24.44010 2309.25000
  322.70000   25.06820 2315.39000
  322.80000   25.84370 2321.54000
  322.90000   25.96480 2327.69000
  323.00000   26.08590 2333.84000
  323.10000   26.35940 2340.44000
  323.20000   27.75130 2350.36000
  323.30000   28.31360 2360.28000
  323.40000   28.31360 2370.20000
  323.50000   28.31360 2380.13000
  323.60000   28.31360 2390.53000
  323.70000   28.49800 2401.31000
  323.80000   28.59030 2412.10000
  323.90000   28.59030 2422.88000
  324.00000   28.59030 2433.67000
  324.10000   28.59030 2455.82000
  324.20000   28.59030 2478.25000
  324.30000   28.59030 2500.68000
  324.40000   28.45190 2523.12000
  324.50000   26.19240 2537.80000
  324.60000   26.00790 2541.03000
  324.70000   25.82350 2577.30000
  324.80000   25.82350 2603.86000
  324.90000   25.82350 2604.72000
  325.00000   25.82350 2604.87000
  325.10000   25.82350 2519.87000
  325.20000   25.82350 2504.34000
  325.30000   25.91570 2488.81000
  325.40000   25.91570 2469.92000
  325.50000   26.46900 2441.45000
  325.60000   27.07640 2433.93000
  325.70000   26.83790 2433.93000
  325.80000   26.83790 2433.93000
  325.90000   26.96280 2422.35000
  326.00000   27.43220 2408.28000
  326.10000   29.36870 2408.28000
  326.20000   30.33700 2408.28000
  326.30000   30.78870 2407.98000
  326.40000   31.45440 2405.39000
  326.50000   32.15590 2404.34000
  326.60000   32.83270 2404.45000
  326.70000   32.83270 2406.06000
  326.80000   32.78880 2407.68000
  326.90000   32.70810 2409.30000
  327.00000   32.62740 2410.92000
  327.10000   32.54680 2412.54000
  327.20000   32.46610 2414.15000
  327.30000   30.28740 2416.72000
  327.40000   28.91580 2419.02000
  327.50000   28.61320 2420.95000
  327.60000   28.59020 2422.89000
  327.70000   28.69920 2424.06000
  327.80000   28.97150 2424.06000
  327.90000   29.40280 2386.65000
  328.00000   31.72600 2358.97000
  328.10000   31.72600 2358.97000
  328.20000   31.77210 2358.97000
  328.30000   31.81820 2358.97000
  328.40000   31.86430 2358.97000
  328.50000   31.91040 2358.97000
  328.60000   17.24640 2359.14000
  328.70000   17.15420 2359.79000
  328.80000   17.06190 2364.23000
  328.90000   17.06190 2372.34000
  329.00000   17.06190 2389.16000
  329.10000   17.06190 2396.25000
  329.20000   17.06190 2407.32000
  329.30000   17.06190 2462.97000
  329.40000   17.15420 2487.35000
  329.50000   17.24640 2493.61000
  329.60000   17.61530 2498.13000
  329.70000   17.70750 2502.66000
  329.80000   17.79970 2507.07000
  329.90000   17.89200 2509.66000
  330.00000   25.36230 2512.02000
  330.10000   25.73120 2514.17000
  330.20000   25.96180 2516.33000
  330.30000   27.94470 2517.42000
