~Version ---------------------------------------------------
VERS. 2.0 : CWLS log ASCII Standard -VERSION 2.0
WRAP.  NO : One line per depth step
~Well ------------------------------------------------------
STRT.FT                                    0.0 : START
STOP.FT                                  600.0 : STOP
STEP.FT                                    0.1 : STEP
NULL.                                  -999.25 : NULL VALUE
COMP.                              RAJAMANDALA : Company
WELL.                              RAJAMANDALA : Well Name
FLD .                                          : Field
CTRY.                              RAJAMANDALA : Country
STAT.                              RAJAMANDALA : State
PROV.                                          : Province
LOC .                                          : Field Location
LATI.                 000 01' 09.000" S    DMS : Latitude
LONG.                 000 10' 39.000" E    DMS : Longitude
PD  .                                      MSL : Permanent Datum
UWI .                              RAJAMANDALA : Unique Well ID
ELZ .FT                                    0.0 : Elevation Log Zero
OS  .                                  NEUTRON : Services
SRVC.                                          : Service company
DATE.                                          : Date
~Curve Information -----------------------------------------
DEPT.FT    : 1  Depth
GR  .GAPI  : 2  Gamma-Ray Log
NEUT.%     : 3  Neutron Log Porosity
~Params ----------------------------------------------------
~Other -----------------------------------------------------
~ASCII -----------------------------------------------------
# ...
  354.00000   47.28230 2160.97000
  354.10000   47.22080 2161.94000
  354.20000   47.15920 2164.10000
  354.30000   45.43540 2169.28000
  354.40000   45.43540 2175.35000
  354.50000   45.43540 2183.18000
  354.60000   45.43540 2197.42000
  354.70000   45.48150 2205.74000
  354.80000   45.52770 2210.83000
  354.90000   45.55850 2215.36000
  355.00000   45.58930 2225.35000
  355.10000   45.62010 2238.05000
  355.20000   45.74320 2240.64000
  355.30000   48.75990 2241.79000
  355.40000   48.79070 2178.67000
  355.50000   48.82150 2177.38000
  355.60000   48.85220 2175.59000
  355.70000   48.85220 2173.33000
  355.80000   48.85220 2171.06000
  355.90000   44.23480 2168.80000
  356.00000   44.18870 2166.53000
  356.10000   43.49600 2163.06000
  356.20000   43.44990 2160.44000
  356.30000   43.40370 2159.14000
  356.40000   42.75730 2150.96000
  356.50000   42.75730 2145.20000
  356.60000   42.57260 2148.74000
  356.70000   42.52640 2153.86000
  356.80000   42.48020 2159.46000
  356.90000   41.92610 2165.06000
  357.00000   41.92610 2170.67000
  357.10000   41.83380 2176.27000
  357.20000   38.94140 2181.88000
  357.30000   37.79440 2252.27000
  357.40000   36.72790 2324.57000
  357.50000   36.60670 2324.57000
  357.60000   36.40120 2323.67000
  357.70000   36.20050 2322.49000
  357.80000   36.37810 2321.85000
  357.90000   36.52960 2321.20000
  358.00000   36.74490 2313.25000
  358.10000   37.41150 2253.76000
  358.20000   37.89630 2229.96000
  358.30000   38.25980 2230.16000
  358.40000   38.62340 2232.74000
  358.50000   39.89010 2237.47000
  358.60000   41.83550 2245.14000
  358.70000   41.89610 2294.28000
  358.80000   41.95670 2327.13000
  358.90000   42.01730 2343.94000
  359.00000   42.01850 2345.55000
  359.10000   41.67750 2346.25000
  359.20000   41.13210 2346.25000
  359.30000   41.03850 2332.99000
  359.40000   40.72450 2310.85000
  359.50000   40.04280 2277.22000
  359.60000   39.36110 2258.46000
  359.70000   38.67940 2247.54000
  359.80000   37.99770 2247.11000
  359.90000   37.31600 2246.68000
  360.00000   36.80290 2246.25000
  360.10000   36.66150 2245.82000
  360.20000   36.52010 2245.73000
  360.30000   36.37870 2250.35000
  360.40000   36.23730 2252.94000
  360.50000   35.75210 2255.53000
  360.60000   35.14620 2258.33000
  360.70000   34.54020 2261.88000
  360.80000   33.93420 2265.44000
  360.90000   33.43010 2275.24000
  361.00000   34.09070 2315.99000
  361.10000   34.65620 2330.49000
  361.20000   35.22180 2330.49000
  361.30000   35.78730 2330.49000
  361.40000   36.20540 2325.09000
  361.50000   36.52360 2315.20000
  361.60000   36.84170 2294.50000
  361.70000   37.15980 2284.80000
  361.80000   37.47790 2284.12000
  361.90000   37.79600 2282.18000
  362.00000   38.15710 2266.33000
  362.10000   38.56110 2236.58000
  362.20000   40.71970 2235.87000
  362.30000   42.17270 2300.35000
  362.40000   42.71800 2333.98000
  362.50000   42.75730 2336.40000
  362.60000   40.53750 2335.88000
  362.70000   42.38790 2334.58000
  362.80000   38.23480 2331.02000
  362.90000   37.19140 2325.76000
  363.00000   36.34300 2317.99000
  363.10000   35.49470 2303.78000
  363.20000   34.64640 2268.34000
  363.30000   33.79800 2188.15000
  363.40000   33.27030 2170.32000
  363.50000   32.83100 2169.67000
  363.60000   32.39170 2169.03000
  363.70000   31.95240 2168.86000
  363.80000   31.51310 2168.86000
  363.90000   31.07380 2168.86000
  364.00000   30.93670 2266.74000
  364.10000   31.39840 2386.32000
  364.20000   29.98780 2390.19000
  364.30000   29.47390 2397.39000
  364.40000   29.36680 2405.69000
  364.50000   29.36680 2408.28000
  364.60000   29.94070 2416.22000
  364.70000   38.13980 2446.42000
  364.80000   38.23220 2730.96000
  364.90000   38.32450 2892.37000
  365.00000   38.41690 2952.70000
  365.10000   38.46310 3116.95000
  365.20000   38.41690 3199.74000
  365.30000   31.80280 3199.74000
  365.40000   29.49620 3258.83000
  365.50000   27.93280 3292.38000
  365.60000   27.20570 3150.05000
  365.70000   26.89840 3142.58000
  365.80000   26.62570 3142.58000
  365.90000   26.35300 3142.58000
  366.00000   23.08130 3142.58000
  366.10000   20.67540 3142.58000
  366.20000   20.64510 3142.58000
  366.30000   20.61470 3116.16000
  366.40000   20.59360 3084.26000
  366.50000   20.98870 3052.35000
  366.60000   21.38620 3020.45000
  366.70000   21.73280 2988.76000
  366.80000   21.85410 2957.73000
  366.90000   21.97530 2926.69000
  367.00000   22.18460 2895.64000
  367.10000   22.73010 2864.61000
  367.20000   33.15300 2837.70000
  367.30000   33.33770 2812.69000
  367.40000   33.33770 2787.68000
  367.50000   33.33770 2762.68000
  367.60000   33.38390 2738.19000
  367.70000   33.43010 2717.82000
  367.80000   33.46090 2697.45000
  367.90000   33.49160 2677.08000
  368.00000   33.52240 2656.71000
  368.10000   25.58050 2636.34000
  368.20000   25.58050 2616.12000
  368.30000   25.58050 2605.34000
  368.40000   24.95440 2570.17000
  368.50000   23.68190 2509.81000
  368.60000   20.59100 2506.63000
  368.70000   18.48920 2505.91000
  368.80000   16.53030 2530.19000
  368.90000   16.53030 2535.11000
  369.00000   16.34560 2537.96000
  369.10000   16.34560 2539.25000
  369.20000   16.34560 2542.81000
  369.30000   16.25330 2545.79000
  369.40000   16.45930 2547.08000
  369.50000   16.43800 2547.31000
  369.60000   17.85050 2535.09000
  369.70000   17.94130 2533.80000
  369.80000   26.59630 2500.39000
  369.90000   26.64250 2468.13000
  370.00000   26.68870 2466.84000
  370.10000   24.19280 2466.49000
  370.20000   26.44870 2471.22000
  370.30000   26.63040 2475.11000
  370.40000   26.68860 2477.23000
  370.50000   23.62230 2478.93000
  370.60000   23.50100 2482.80000
  370.70000   22.92030 2485.86000
  370.80000   22.09820 2488.45000
  370.90000   21.49220 2491.04000
  371.00000   21.16930 2492.88000
  371.10000   21.04810 2494.25000
  371.20000   20.92690 2496.83000
  371.30000   20.87070 2535.47000
  371.40000   21.31290 2604.69000
  371.50000   21.60060 2622.79000
  371.60000   21.88850 2633.80000
  371.70000   22.17630 2637.35000
  371.80000   22.46410 2640.91000
  371.90000   22.76750 2644.46000
  372.00000   23.09070 2648.02000
  372.10000   23.41390 2706.08000
  372.20000   23.73710 2744.42000
  372.30000   24.06020 2730.02000
  372.40000   24.97950 2728.65000
  372.50000   25.98940 2817.35000
  372.60000   26.99940 2815.60000
  372.70000   28.00930 2814.31000
  372.80000   29.07310 2813.02000
  372.90000   30.26480 2811.72000
  373.00000   31.45650 2777.49000
  373.10000   32.64830 2721.33000
  373.20000   33.84000 2628.20000
  373.30000   34.80500 2601.56000
  373.40000   35.68360 2600.53000
  373.50000   36.56230 2600.53000
  373.60000   37.44100 2601.11000
  373.70000   38.31960 2601.97000
  373.80000   39.19830 2602.83000
  373.90000   40.05780 2603.69000
  374.00000   40.90610 2608.51000
  374.10000   41.75450 2647.30000
  374.20000   42.60290 2666.60000
  374.30000   43.46250 2673.58000
  374.40000   44.51280 2711.09000
  374.50000   45.56320 2728.65000
  374.60000   46.61350 2726.46000
  374.70000   47.66380 2699.30000
  374.80000   48.54800 2682.46000
  374.90000   49.25490 2676.64000
  375.00000   52.03670 2670.82000
  375.10000   53.68080 2662.46000
  375.20000   53.74140 2650.82000
  375.30000   53.74670 2646.86000
  375.40000   50.22970 2643.62000
  375.50000   50.20940 2640.39000
  375.60000   50.18920 2638.83000
  375.70000   50.16900 2637.54000
  375.80000   50.14880 2636.25000
  375.90000   55.77840 2633.90000
  376.00000   55.87070 2628.28000
  376.10000   55.96310 2615.35000
  376.20000   56.05540 2609.87000
  376.30000   56.10160 2607.42000
  376.40000   56.14780 2622.71000
  376.50000   56.17850 2655.95000
  376.60000   56.20930 2696.57000
  376.70000   56.24010 2734.09000
  376.80000   56.24010 2747.26000
  376.90000   50.51450 2748.36000
  377.00000   50.46830 2746.88000
  377.10000   49.96040 2741.55000
  377.20000   49.86810 2733.91000
  377.30000   49.86810 2727.44000
  377.40000   49.86810 2720.23000
  377.50000   49.23110 2712.61000
