~Version ---------------------------------------------------
VERS. 2.0 : CWLS log ASCII Standard -VERSION 2.0
WRAP.  NO : One line per depth step
~Well ------------------------------------------------------
STRT.FT                                    0.0 : START
STOP.FT                                  600.0 : STOP
STEP.FT                                    0.1 : STEP
NULL.                                  -999.25 : NULL VALUE
COMP.                              RAJAMANDALA : Company
WELL.                              RAJAMANDALA : Well Name
FLD .                                          : Field
CTRY.                              RAJAMANDALA : Country
STAT.                              RAJAMANDALA : State
PROV.                                          : Province
LOC .                                          : Field Location
LATI.                 000 01' 09.000" S    DMS : Latitude
LONG.                 000 10' 39.000" E    DMS : Longitude
PD  .                                      MSL : Permanent Datum
UWI .                              RAJAMANDALA : Unique Well ID
ELZ .FT                                    0.0 : Elevation Log Zero
OS  .                                  NEUTRON : Services
SRVC.                                          : Service company
DATE.                                          : Date
~Curve Information -----------------------------------------
DEPT.FT    : 1  Depth
GR  .GAPI  : 2  Gamma-Ray Log
NEUT.%     : 3  Neutron Log Porosity
~Params ----------------------------------------------------
~Other -----------------------------------------------------
~ASCII -----------------------------------------------------
# ...
   23.60000    6.83769    -999.25
   23.70000    6.79790    -999.25
   23.80000    6.77475 1312.25000
   23.90000    6.68434 1311.71000
   24.00000    6.59392 1311.28000
   24.10000    6.49723 1310.85000
   24.20000    6.37668 1310.42000
   24.30000    6.33858 1309.75000
   24.40000    6.33858 1306.93000
   24.50000    6.33858 1293.45000
   24.60000    6.33858 1288.54000
   24.70000    6.33858 1288.39000
   24.80000    6.33858 1287.10000
   24.90000    6.26769 1286.18000
   25.00000    6.14971 1285.53000
   25.10000    6.06934 1284.88000
   25.20000    5.98897 1284.23000
   25.30000    5.90859 1283.59000
   25.40000    5.82823 1282.94000
   25.50000    5.75774 1281.97000
   25.60000    5.69747 1280.67000
   25.70000    5.69554 1280.63000
   25.80000    5.84274 1280.63000
   25.90000    6.17427 1280.63000
   26.00000    6.50580 1280.63000
   26.10000    6.89103 1280.63000
   26.20000    7.35818 1280.63000
   26.30000    7.82534 1280.63000
   26.40000    8.29250 1280.63000
   26.50000    8.75963 1280.63000
   26.60000    8.84184 1280.63000
   26.70000    8.54329 1280.63000
   26.80000    8.75228 1280.63000
   26.90000    8.91300 1280.63000
   27.00000    9.07373 1280.63000
   27.10000    9.23449 1280.63000
   27.20000    9.39522 1281.10000
   27.30000    9.55595 1284.66000
   27.40000    9.71671 1299.58000
   27.50000    9.87745 1304.35000
   27.60000   10.02880 1302.27000
   27.70000   10.12920 1301.62000
   27.80000   10.22970 1300.97000
   27.90000   10.33010 1300.26000
   28.00000   10.43060 1298.96000
   28.10000   10.53400 1296.15000
   28.20000   10.63950 1292.33000
   28.30000   10.74500 1289.74000
   28.40000   10.85050 1286.45000
   28.50000   10.95600 1282.53000
   28.60000   11.06150 1276.05000
   28.70000   11.16700 1272.10000
   28.80000   11.27240 1270.80000
   28.90000   11.37790 1270.75000
   29.00000   11.48340 1280.45000
   29.10000   11.58880 1302.50000
   29.20000   11.69430 1304.35000
   29.30000   11.79990 1303.84000
   29.40000   11.90540 1302.54000
   29.50000   12.01080 1301.25000
   29.60000   12.11630 1300.18000
   29.70000   12.22180 1299.53000
   29.80000   12.32730 1297.81000
   29.90000   12.42740 1296.06000
   30.00000   12.51440 1294.76000
   30.10000   12.60150 1289.46000
   30.20000   12.66700 1284.26000
   30.30000   12.44970 1282.97000
   30.40000   12.40160 1281.67000
   30.50000   12.40160 1280.63000
   30.60000   12.21780 1280.63000
   30.70000   12.17190 1299.92000
   30.80000   11.75850 1324.60000
   30.90000   11.71260 1327.84000
   31.00000   11.48290 1331.90000
   31.10000   11.48290 1336.10000
   31.20000   11.48290 1337.40000
   31.30000   11.48290 1338.69000
   31.40000   11.48290 1339.92000
   31.50000   11.48290 1339.92000
   31.60000   11.48290 1339.92000
   31.70000   11.48290 1339.92000
   31.80000   11.48290 1339.92000
   31.90000   11.48290 1339.92000
   32.00000   11.66670 1339.92000
   32.10000   11.94230 1310.04000
   32.20000   11.94230 1291.92000
   32.30000   12.12600 1290.62000
   32.40000   12.26380 1290.51000
   32.50000   12.67720 1302.59000
   32.60000   13.22830 1333.71000
   32.70000   13.22830 1343.55000
   32.80000   13.22830 1348.27000
   32.90000   13.59580 1349.56000
   33.00000   13.64170 1351.92000
   33.10000   13.68770 1364.94000
   33.20000   13.68770 1359.64400
   33.30000   13.68770 1346.18000
   33.40000   13.59580 1346.18000
   33.50000   13.50390 1346.18000
   33.60000   10.28870 1346.18000
   33.70000   10.28870 1346.18000
   33.80000   10.28870 1346.18000
   33.90000   10.28870 1354.63500
   34.00000   10.33460 1352.86300
   34.10000   10.38060 1350.21500
   34.20000   10.42650 1347.56700
   34.30000   13.13650 1346.18000
   34.40000   14.33070 1346.18000
   34.50000   14.39960 1346.18000
   34.60000   14.46850 1389.20800
   34.70000   14.53740 1391.85700
   34.80000   14.88190 1394.50500
   34.90000   15.15750 1396.91200
   35.00000   15.15750 1396.91200
   35.10000   15.15750 1396.91200
   35.20000   15.11150 1396.91200
   35.30000   12.86090 1405.36700
   35.40000   12.49340 1405.36700
   35.50000   12.21780 1431.76000
   35.60000   10.93180 1434.76000
   35.70000   10.93180 1436.76000
   35.80000   10.47240 1436.76000
   35.90000   10.47240 1440.11000
   36.00000   10.47240 1443.12000
   36.10000   10.28870 1444.42000
   36.20000   10.64690 1444.66000
   36.30000   10.69210 1401.19000
   36.40000   10.73730 1401.19000
   36.50000   12.45200 1401.19000
   36.60000   14.19040 1401.81000
   36.70000   14.37120 1404.40000
   36.80000   14.42260 1407.00000
   36.90000   14.42260 1409.34000
   37.00000   14.42260 1410.64000
   37.10000   13.89910 1418.00000
   37.20000   13.18920 1427.00000
   37.30000   12.91810 1427.86000
   37.40000   12.57210 1428.73000
   37.50000   12.19480 1429.84000
   37.60000   11.95360 1433.30000
   37.70000   11.67800 1436.27000
   37.80000   11.37660 1439.11000
   37.90000   11.07530 1446.89000
   38.00000   10.83700 1451.27000
   38.10000   10.65620 1452.57000
   38.20000   10.65620 1452.57000
   38.30000   10.59880 1448.25000
   38.40000   10.47820 1439.18000
   38.50000   10.12810 1386.89000
   38.60000    9.86966 1355.17000
   38.70000    9.74913 1353.87000
   38.80000    9.73756 1353.75000
   38.90000   15.34120 1383.32000
   39.00000   15.34120 1461.13000
   39.10000   15.34120 1472.33000
   39.20000   15.30780 1472.33000
   39.30000   15.20740 1472.33000
   39.40000   15.10690 1453.47000
   39.50000   15.00650 1431.97000
   39.60000   14.90600 1415.12000
   39.70000   14.88190 1408.11000
   39.80000   14.83920 1404.83000
   39.90000   14.65840 1403.53000
   40.00000   14.47750 1402.24000
   40.10000   14.30800 1400.95000
   40.20000   14.18750 1399.65000
   40.30000   14.14700 1397.49000
   40.40000   14.17230 1395.08000
   40.50000   14.35320 1393.78000
   40.60000   14.45970 1393.28000
   40.70000   14.51990 1394.83000
   40.80000   14.58020 1411.69000
   40.90000   14.60630 1425.60000
   41.00000   14.42260 1436.85000
   41.10000   14.42260 1439.01000
   41.20000   13.59580 1441.18000
   41.30000   13.48100 1443.34000
   41.40000   13.36610 1470.04000
   41.50000   13.25130 1484.80000
   41.60000   13.13650 1486.10000
   41.70000   13.13650 1487.40000
   41.80000   13.13650 1488.14000
   41.90000   13.13650 1488.14000
   42.00000   14.69670 1486.98000
   42.10000   14.79720 1485.19000
   42.20000   14.89760 1482.59000
   42.30000   14.99810 1480.00000
   42.40000   15.06560 1477.83000
   42.50000   15.06560 1476.53000
   42.60000   15.06560 1474.20000
   42.70000   15.06560 1471.42000
   42.80000   15.06560 1468.18000
   42.90000   15.03520 1464.94000
   43.00000   14.99510 1461.70000
   43.10000   14.95480 1458.46000
   43.20000   14.91470 1455.21000
   43.30000   14.82640 1452.17000
   43.40000   14.52510 1450.01000
   43.50000   14.30320 1447.85000
   43.60000   14.14700 1445.69000
   43.70000   14.14700 1443.53000
   43.80000   14.14700 1442.69000
   43.90000   14.14700 1444.09000
   44.00000   14.14700 1444.95000
   44.10000   15.50690 1445.81000
   44.20000   17.82150 1446.76000
   44.30000   17.82150 1449.79000
   44.40000   17.82150 1452.81000
   44.50000   17.82150 1455.84000
   44.60000   17.82150 1458.86000
   44.70000   17.91320 1466.54000
   44.80000   18.10910 1479.51000
   44.90000   18.61800 1481.46000
   45.00000   18.98970 1482.21000
   45.10000   19.14640 1480.99000
   45.20000   19.30320 1480.12000
   45.30000   19.45990 1478.29000
   45.40000   19.61660 1474.84000
   45.50000   19.77330 1458.91000
   45.60000   19.93010 1445.80000
   45.70000   20.08680 1443.21000
   45.80000   20.55210 1442.69000
   45.90000   20.96150 1443.05000
   46.00000   21.02180 1444.34000
   46.10000   21.12740 1445.64000
   46.20000   21.22050 1448.12000
   46.30000   21.10950 1454.60000
   46.40000   21.01900 1458.34000
   46.50000   20.92860 1461.64000
   46.60000   20.83820 1468.13000
   46.70000   19.99650 1471.21000
   46.80000   18.91200 1472.33000
   46.90000   18.82150 1472.33000
   47.00000   18.73110 1472.33000
   47.10000   18.63310 1472.33000
