~Version ---------------------------------------------------
VERS. 2.0 : CWLS log ASCII Standard -VERSION 2.0
WRAP.  NO : One line per depth step
~Well ------------------------------------------------------
STRT.FT                                    0.0 : START
STOP.FT                                  600.0 : STOP
STEP.FT                                    0.1 : STEP
NULL.                                  -999.25 : NULL VALUE
COMP.                              RAJAMANDALA : Company
WELL.                              RAJAMANDALA : Well Name
FLD .                                          : Field
CTRY.                              RAJAMANDALA : Country
STAT.                              RAJAMANDALA : State
PROV.                                          : Province
LOC .                                          : Field Location
LATI.                 000 01' 09.000" S    DMS : Latitude
LONG.                 000 10' 39.000" E    DMS : Longitude
PD  .                                      MSL : Permanent Datum
UWI .                              RAJAMANDALA : Unique Well ID
ELZ .FT                                    0.0 : Elevation Log Zero
OS  .                                  NEUTRON : Services
SRVC.                                          : Service company
DATE.                                          : Date
~Curve Information -----------------------------------------
DEPT.FT    : 1  Depth
GR  .GAPI  : 2  Gamma-Ray Log
NEUT.%     : 3  Neutron Log Porosity
~Params ----------------------------------------------------
~Other -----------------------------------------------------
~ASCII -----------------------------------------------------
# ...
  495.60000   30.89280 2921.50000
  495.70000   29.77020 3078.79000
  495.80000   28.95500 3183.75000
  495.90000   28.55050 3209.60000
  496.00000   28.14600 3212.08000
  496.10000   27.74150 3207.16000
  496.20000   27.33700 3204.57000
  496.30000   26.84590 3203.09000
  496.40000   26.34030 3200.51000
  496.50000   25.83460 3195.34000
  496.60000   25.32900 3191.22000
  496.70000   24.60510 3185.14000
  496.80000   23.33090 3173.51000
  496.90000   22.84060 3166.79000
  497.00000   22.64090 3162.08000
  497.10000   22.58020 3158.84000
  497.20000   22.51950 3155.61000
  497.30000   22.47030 3152.42000
  497.40000   22.61440 3149.40000
  497.50000   22.73580 3146.39000
  497.60000   23.17150 3143.38000
  497.70000   25.53780 3140.36000
  497.80000   26.74550 3121.68000
  497.90000   27.19740 3095.27000
  498.00000   27.31880 3088.80000
  498.10000   27.37120 2971.49000
  498.20000   27.37120 2775.37000
  498.30000   27.37120 2699.11000
  498.40000   27.37120 2661.17000
  498.50000   27.37120 2658.58000
  498.60000   27.67330 2658.57000
  498.70000   28.69270 2659.79000
  498.80000   30.51290 2662.38000
  498.90000   30.60760 2664.96000
  499.00000   29.93870 2671.38000
  499.10000   28.36120 2683.02000
  499.20000   28.03960 2698.13000
  499.30000   27.92600 2709.11000
  499.40000   27.92600 2712.56000
  499.50000   27.92600 2716.01000
  499.60000   28.06530 2719.45000
  499.70000   28.49010 2722.89000
  499.80000   28.91480 2726.69000
  499.90000   29.27160 2730.57000
  500.00000   29.45360 2734.44000
  500.10000   29.62250 2759.82000
  500.20000   29.84360 2788.24000
  500.30000   30.25130 2803.74000
  500.40000   30.49940 2818.34000
  500.50000   30.64820 2830.42000
  500.60000   28.92180 2833.00000
  500.70000   28.34580 2844.97000
  500.80000   28.20770 2859.49000
  500.90000   27.96470 2859.49000
  501.00000   27.84560 2858.70000
  501.10000   27.80500 2857.46000
  501.20000   27.76460 2856.81000
  501.30000   27.65550 2850.33000
  501.40000   27.46600 2839.07000
  501.50000   26.61540 2820.97000
  501.60000   26.20370 2798.43000
  501.70000   26.43390 2771.71000
  501.80000   26.76670 2745.00000
  501.90000   27.11510 2718.29000
  502.00000   27.47960 2691.59000
  502.10000   27.90140 2680.73000
  502.20000   28.22470 2670.82000
  502.30000   28.40700 2660.91000
  502.40000   28.56200 2651.00000
  502.50000   28.93990 2644.78000
  502.60000   29.69940 2650.69000
  502.70000   29.91790 2655.00000
  502.80000   30.03940 2659.31000
  502.90000   30.16090 2663.62000
  503.00000   30.18520 2682.32000
  503.10000   24.85780 2704.61000
  503.20000   24.00720 2726.91000
  503.30000   23.75060 2749.21000
  503.40000   23.68980 2771.50000
  503.50000   24.25930 2793.79000
  503.60000   24.16670 2818.90000
  503.70000   24.12040 2845.18000
  503.80000   24.07410 2871.46000
  503.90000   24.01230 2897.74000
  504.00000   23.95060 2922.09000
  504.10000   23.88890 2933.72000
  504.20000   23.88890 2976.00000
  504.30000   23.88890 3032.83000
  504.40000   23.88890 3032.83000
  504.50000   23.88890 2993.02000
  504.60000   23.88890 2924.30000
  504.70000   30.74760 2919.13000
  504.80000   31.66670 2890.80000
  504.90000   31.39110 2840.40000
  505.00000   31.26880 2820.63000
  505.10000   31.57410 2810.24000
  505.20000   31.57410 2810.24000
  505.30000   31.57410 2810.24000
  505.40000   31.57410 2813.47000
  505.50000   31.57410 2821.22000
  505.60000   31.57410 2825.52000
  505.70000   31.57410 2829.16000
  505.80000   31.48150 2832.40000
  505.90000   31.29630 2839.99000
  506.00000   31.20370 2847.15000
  506.10000   31.11110 2851.67000
  506.20000   30.87960 2858.25000
  506.30000   30.64810 2864.31000
  506.40000   30.55560 2867.54000
  506.50000   30.50930 2876.57000
  506.60000   30.46300 2885.82000
  506.70000   30.46300 2889.05000
  506.80000   33.61110 2971.00000
  506.90000   33.05560 3066.32000
  507.00000   32.96300 3066.32000
  507.10000   32.87040 3066.32000
  507.20000   32.87040 3066.32000
  507.30000   32.87040 3066.32000
  507.40000   32.87040 3066.32000
  507.50000   28.79630 3067.73000
  507.60000   28.79630 3085.40000
  507.70000   28.54860 3103.06000
  507.80000   28.10300 3120.73000
  507.90000   27.65740 3138.39000
  508.00000   27.21190 3157.37000
  508.10000   26.76640 3177.62000
  508.20000   26.40060 3197.87000
  508.30000   26.03600 3218.11000
  508.40000   25.67140 3238.36000
  508.50000   25.30690 3315.88000
  508.60000   24.95080 3366.42000
  508.70000   24.60650 3372.88000
  508.80000   24.26220 3373.60000
  508.90000   23.91790 3343.02000
  509.00000   23.57360 3259.01000
  509.10000   23.51850 3237.97000
  509.20000   23.82590 3230.96000
  509.30000   23.99300 3228.38000
  509.40000   24.16010 3225.79000
  509.50000   24.32720 3223.21000
  509.60000   24.49420 3220.62000
  509.70000   24.80820 3219.96000
  509.80000   25.17280 3338.23000
  509.90000   25.53730 3374.42000
  510.00000   25.90180 3385.42000
  510.10000   26.27340 3384.75000
  510.20000   26.67840 3380.88000
  510.30000   27.08340 3354.39000
  510.40000   27.48840 3319.14000
  510.50000   27.89360 3308.80000
  510.60000   28.43230 3296.90000
  510.70000   29.06000 3284.37000
  510.80000   29.68780 3276.62000
  510.90000   30.31570 3211.08000
  511.00000   30.93230 3101.60000
  511.10000   31.16010 3095.57000
  511.20000   31.38800 3089.54000
  511.30000   31.61580 3083.51000
  511.40000   31.84370 3077.48000
  511.50000   32.07150 3071.06000
  511.60000   35.09260 3064.16000
  511.70000   35.12350 3057.26000
  511.80000   35.15430 3050.37000
  511.90000   35.18520 3043.48000
  512.00000   35.21600 3017.16000
  512.10000   35.24690 2988.30000
  512.20000   35.46300 2959.42000
  512.30000   28.69470 2930.56000
  512.40000   28.57320 2908.42000
  512.50000   28.45170 2901.09000
  512.60000   28.42600 2893.77000
  512.70000   28.45810 2876.89000
  512.80000   28.57950 2833.37000
  512.90000   28.70100 2822.06000
  513.00000   28.82250 2824.87000
  513.10000   28.94410 2828.75000
  513.20000   29.06560 2830.53000
  513.30000   29.18710 2831.40000
  513.40000   29.30860 2832.26000
  513.50000   30.40820 2834.79000
  513.60000   32.36220 2837.98000
  513.70000   36.61510 2839.27000
  513.80000   38.33330 2841.33000
  513.90000   38.32460 2843.82000
  514.00000   38.20310 2845.12000
  514.10000   38.11490 2847.12000
  514.20000   38.02500 2849.67000
  514.30000   36.74910 2850.96000
  514.40000   36.11110 2854.20000
  514.50000   36.11110 2859.37000
  514.60000   37.29710 2859.49000
  514.70000   38.12780 2858.91000
  514.80000   38.49230 2857.61000
  514.90000   38.85680 2853.92000
  515.00000   39.09860 2804.09000
  515.10000   39.15940 2686.47000
  515.20000   39.16670 2671.22000
  515.30000   38.56110 2669.93000
  515.40000   36.85990 2668.64000
  515.50000   36.27080 2668.42000
  515.60000   35.99980 2677.52000
  515.70000   35.93910 2691.09000
  515.80000   35.78300 2707.19000
  515.90000   35.61650 2719.63000
  516.00000   35.49510 2719.63000
  516.10000   35.46300 2719.63000
  516.20000   38.70370 2719.49000
  516.30000   38.70370 2718.85000
  516.40000   38.70370 2718.20000
  516.50000   38.79630 2713.63000
  516.60000   38.79630 2689.08000
  516.70000   38.79630 2675.28000
  516.80000   38.88890 2664.97000
  516.90000   38.93520 2635.24000
  517.00000   38.98150 2617.75000
  517.10000   38.98150 2609.29000
  517.20000   38.98150 2608.86000
  517.30000   37.17320 2608.43000
  517.40000   35.00000 2607.98000
  517.50000   35.00000 2606.25000
  517.60000   34.93970 2604.74000
  517.70000   34.81820 2603.45000
  517.80000   34.81480 2598.39000
  517.90000   34.81480 2592.64000
  518.00000   34.81480 2586.18000
  518.10000   34.95520 2579.72000
  518.20000   35.10710 2573.25000
  518.30000   35.25900 2566.79000
  518.40000   37.19380 2560.33000
  518.50000   38.84640 2552.95000
  518.60000   39.51470 2543.91000
  518.70000   40.08240 2531.65000
  518.80000   40.49990 2515.87000
  518.90000   40.62150 2493.58000
  519.00000   40.74290 2471.28000
  519.10000   40.87220 2448.98000
