~Version ---------------------------------------------------
VERS. 2.0 : CWLS log ASCII Standard -VERSION 2.0
WRAP.  NO : One line per depth step
~Well ------------------------------------------------------
STRT.FT                                    0.0 : START
STOP.FT                                  600.0 : STOP
STEP.FT                                    0.1 : STEP
NULL.                                  -999.25 : NULL VALUE
COMP.                              RAJAMANDALA : Company
WELL.                              RAJAMANDALA : Well Name
FLD .                                          : Field
CTRY.                              RAJAMANDALA : Country
STAT.                              RAJAMANDALA : State
PROV.                                          : Province
LOC .                                          : Field Location
LATI.                 000 01' 09.000" S    DMS : Latitude
LONG.                 000 10' 39.000" E    DMS : Longitude
PD  .                                      MSL : Permanent Datum
UWI .                              RAJAMANDALA : Unique Well ID
ELZ .FT                                    0.0 : Elevation Log Zero
OS  .                                  NEUTRON : Services
SRVC.                                          : Service company
DATE.                                          : Date
~Curve Information -----------------------------------------
DEPT.FT    : 1  Depth
GR  .GAPI  : 2  Gamma-Ray Log
NEUT.%     : 3  Neutron Log Porosity
~Params ----------------------------------------------------
~Other -----------------------------------------------------
~ASCII -----------------------------------------------------
# ...
  283.20000   20.35130 1566.21000
  283.30000   20.19760 1571.39000
  283.40000   20.05930 1576.57000
  283.50000   19.82870 1581.74000
  283.60000   19.70580 1586.92000
  283.70000   19.58280 1591.02000
  283.80000   19.09090 1594.09000
  283.90000   19.09090 1595.39000
  284.00000   19.09090 1595.66000
  284.10000   19.22920 1595.66000
  284.20000   19.36760 1595.66000
  284.30000   19.39830 1594.22000
  284.40000   19.42910 1592.28000
  284.50000   21.30430 1590.34000
  284.60000   21.44270 1558.40000
  284.70000   21.58100 1520.71000
  284.80000   21.58100 1531.29000
  284.90000   21.58100 1537.85000
  285.00000   21.58100 1542.41000
  285.10000   21.48880 1542.41000
  285.20000   21.41960 1542.41000
  285.30000   21.35050 1542.32000
  285.40000   21.28130 1541.02000
  285.50000   19.18310 1539.72000
  285.60000   22.68770 1538.21000
  285.70000   22.41110 1527.86000
  285.80000   22.41110 1520.09000
  285.90000   22.27270 1514.91000
  286.00000   22.22660 1514.79000
  286.10000   22.22660 1514.79000
  286.20000   21.94990 1514.79000
  286.30000   21.94990 1515.19000
  286.40000   21.25820 1515.62000
  286.50000   21.21210 1516.06000
  286.60000   19.82870 1516.49000
  286.70000   19.82870 1517.92000
  286.80000   19.82870 1521.16000
  286.90000   19.82870 1542.70000
  287.00000   19.77280 1561.55000
  287.10000   19.59120 1566.08000
  287.20000   19.26740 1585.83000
  287.30000   18.99870 1608.93000
  287.40000   19.37990 1629.64000
  287.50000   19.45980 1637.97000
  287.60000   19.54960 1641.03000
  287.70000   19.97320 1601.81000
  287.80000   20.18870 1591.72000
  287.90000   20.30480 1591.72000
  288.00000   20.39550 1591.72000
  288.10000   20.79620 1591.72000
  288.20000   21.31490 1591.57000
  288.30000   21.40570 1590.27000
  288.40000   21.63970 1589.74000
  288.50000   22.01300 1600.23000
  288.60000   22.94090 1609.28000
  288.70000   23.86880 1613.41000
  288.80000   24.79680 1612.39000
  288.90000   25.72470 1610.45000
  289.00000   26.53260 1608.83000
  289.10000   27.21840 1607.54000
  289.20000   27.90420 1604.98000
  289.30000   29.34920 1603.55000
  289.40000   31.72950 1603.55000
  289.50000   32.30180 1608.33000
  289.60000   32.62860 1617.14000
  289.70000   32.81020 1631.37000
  289.80000   33.20380 1633.14000
  289.90000   33.47830 1633.14000
  290.00000   33.39640 1633.14000
  290.10000   33.33590 1633.14000
  290.20000   32.15320 1633.14000
  290.30000   28.40110 1633.14000
  290.40000   25.78210 1636.16000
  290.50000   24.00920 1640.04000
  290.60000   23.76710 1643.93000
  290.70000   23.65790 1647.81000
  290.80000   23.56600 1651.79000
  290.90000   23.35420 1656.10000
  291.00000   22.85270 1660.41000
  291.10000   22.29310 1668.46000
  291.20000   22.13170 1696.06000
  291.30000   21.97030 1706.11000
  291.40000   21.80890 1704.00000
  291.50000   21.64750 1702.70000
  291.60000   21.08290 1701.41000
  291.70000   20.23950 1698.63000
  291.80000   19.45280 1674.03000
  291.90000   13.55730 1660.62000
  292.00000   13.46510 1656.12000
  292.10000   13.37290 1613.41000
  292.20000   13.37290 1590.44000
  292.30000   13.28060 1587.85000
  292.40000   13.18840 1587.77000
  292.50000   13.14230 1587.77000
  292.60000   12.91170 1587.77000
  292.70000   12.91170 1590.15000
  292.80000   12.91170 1592.74000
  292.90000   12.91170 1595.33000
  293.00000   12.91170 1603.56000
  293.10000   12.91170 1610.60000
  293.20000   12.91170 1613.83000
  293.30000   13.02700 1620.27000
  293.40000   15.49410 1636.12000
  293.50000   15.67850 1672.35000
  293.60000   15.86300 1681.48000
  293.70000   15.86300 1684.73000
  293.80000   15.90910 1693.79000
  293.90000   14.47960 1696.25000
  294.00000   14.38740 1696.25000
  294.10000   14.29510 1696.25000
  294.20000   14.29510 1695.37000
  294.30000   14.29510 1693.88000
  294.40000   14.29510 1691.29000
  294.50000   14.29510 1688.70000
  294.60000   14.29510 1685.69000
  294.70000   14.47960 1679.22000
  294.80000   14.47960 1632.69000
  294.90000   14.47960 1561.97000
  295.00000   20.28990 1559.39000
  295.10000   20.28990 1558.19000
  295.20000   20.28990 1558.19000
  295.30000   20.28990 1558.19000
  295.40000   19.45980 1559.45000
  295.50000   19.18310 1562.04000
  295.60000   19.18310 1624.51000
  295.70000   18.16860 1673.28000
  295.80000   18.12250 1701.75000
  295.90000   17.70750 1705.92000
  296.00000   17.43080 1712.43000
  296.10000   17.33860 1726.02000
  296.20000   17.24640 1730.06000
  296.30000   17.15420 1741.11000
  296.40000   17.06190 1768.29000
  296.50000   17.06190 1779.55000
  296.60000   17.06190 1791.52000
  296.70000   17.06190 1813.52000
  296.80000   17.06190 1866.50000
  296.90000   27.48350 1934.07000
  297.00000   27.85240 2018.20000
  297.10000   28.08300 2054.54000
  297.20000   30.06590 2071.36000
  297.30000   30.25030 2083.01000
  297.40000   31.35700 2140.15000
  297.50000   34.21610 2207.10000
  297.60000   34.21610 2207.10000
  297.70000   39.65740 2206.56000
  297.80000   39.65740 2205.70000
  297.90000   39.65740 2204.83000
  298.00000   39.65740 2197.97000
  298.10000   39.65740 2186.29000
  298.20000   39.65740 2166.88000
  298.30000   39.47300 2157.62000
  298.40000   33.93750 2157.30000
  298.50000   33.69540 2156.97000
  298.60000   33.10190 2156.64000
  298.70000   32.13360 2156.32000
  298.80000   29.24820 2156.31000
  298.90000   27.39100 2158.07000
  299.00000   26.96750 2158.72000
  299.10000   26.48870 2161.73000
  299.20000   26.00450 2164.71000
  299.30000   25.52030 2167.30000
  299.40000   24.46110 2167.65000
  299.50000   23.55820 2160.17000
  299.60000   23.13460 2138.17000
  299.70000   23.05670 2134.12000
  299.80000   23.64540 2134.12000
  299.90000   23.76640 2134.12000
  300.00000   23.88740 2135.11000
  300.10000   24.15610 2155.35000
  300.20000   24.88230 2234.30000
  300.30000   25.39060 2256.41000
  300.40000   25.77860 2255.40000
  300.50000   26.02070 2250.22000
  300.60000   26.62880 2241.56000
  300.70000   27.31250 2232.36000
  300.80000   27.40330 2229.77000
  300.90000   27.53180 2227.59000
  301.00000   27.69220 2225.39000
  301.10000   27.93430 2220.85000
  301.20000   28.03690 2216.70000
  301.30000   27.79040 2213.02000
  301.40000   24.82520 2213.02000
  301.50000   23.07410 2213.02000
  301.60000   22.40410 2213.02000
  301.70000   20.64910 2213.02000
  301.80000   19.73650 2213.02000
  301.90000   19.73650 2213.02000
  302.00000   19.56290 2213.02000
  302.10000   19.42060 2227.00000
  302.20000   19.32980 2259.35000
  302.30000   19.23900 2265.85000
  302.40000   19.17150 2268.24000
  302.50000   19.14120 2262.87000
  302.60000   19.11100 2259.55000
  302.70000   19.09090 2235.87000
  302.80000   26.20560 2171.80000
  302.90000   27.20680 2159.76000
  303.00000   27.48350 2160.51000
  303.10000   27.57580 2163.10000
  303.20000   27.57580 2164.70000
  303.30000   27.57580 2172.20000
  303.40000   27.57580 2199.38000
  303.50000   27.57580 2207.10000
  303.60000   27.48350 2199.89000
  303.70000   22.32710 2162.36000
  303.80000   22.18620 2149.90000
  303.90000   22.12570 2149.90000
  304.00000   22.06520 2149.90000
  304.10000   22.04220 2149.90000
  304.20000   22.29630 2152.39000
  304.30000   23.02250 2178.27000
  304.40000   23.43720 2224.14000
  304.50000   23.68840 2282.42000
  304.60000   25.32240 2290.19000
  304.70000   26.32210 2297.96000
  304.80000   30.71150 2305.72000
  304.90000   30.75760 2312.19000
  305.00000   30.80370 2318.66000
  305.10000   31.17260 2325.13000
  305.20000   31.17260 2335.71000
  305.30000   31.17260 2346.50000
  305.40000   31.26480 2357.28000
  305.50000   31.35700 2368.07000
  305.60000   31.35700 2377.09000
  305.70000   26.49510 2383.23000
  305.80000   26.26180 2389.38000
  305.90000   25.05540 2395.53000
  306.00000   21.90860 2401.68000
  306.10000   21.58100 2407.83000
  306.20000   21.58100 2414.43000
  306.30000   21.58100 2422.20000
  306.40000   21.53490 2429.96000
  306.50000   21.48880 2437.73000
  306.60000   21.48880 2445.49000
  306.70000   21.48880 2452.34000
