~Version ---------------------------------------------------
VERS. 2.0 : CWLS log ASCII Standard -VERSION 2.0
WRAP.  NO : One line per depth step
~Well ------------------------------------------------------
STRT.FT                                    0.0 : START
STOP.FT                                  600.0 : STOP
STEP.FT                                    0.1 : STEP
NULL.                                  -999.25 : NULL VALUE
COMP.                              RAJAMANDALA : Company
WELL.                              RAJAMANDALA : Well Name
FLD .                                          : Field
CTRY.                              RAJAMANDALA : Country
STAT.                              RAJAMANDALA : State
PROV.                                          : Province
LOC .                                          : Field Location
LATI.                 000 01' 09.000" S    DMS : Latitude
LONG.                 000 10' 39.000" E    DMS : Longitude
PD  .                                      MSL : Permanent Datum
UWI .                              RAJAMANDALA : Unique Well ID
ELZ .FT                                    0.0 : Elevation Log Zero
OS  .                                  NEUTRON : Services
SRVC.                                          : Service company
DATE.                                          : Date
~Curve Information -----------------------------------------
DEPT.FT    : 1  Depth
GR  .GAPI  : 2  Gamma-Ray Log
NEUT.%     : 3  Neutron Log Porosity
~Params ----------------------------------------------------
~Other -----------------------------------------------------
~ASCII -----------------------------------------------------
# ...
  141.60000   17.19600 1473.21000
  141.70000   18.52380 1469.32000
  141.80000   18.94870 1468.07000
  141.90000   18.88280 1468.07000
  142.00000   18.46040 1468.07000
  142.10000   18.07600 1467.25000
  142.20000   17.74650 1465.82000
  142.30000   17.68610 1463.23000
  142.40000   17.63750 1462.15000
  142.50000   17.59730 1462.15000
  142.60000   17.55710 1462.15000
  142.70000   17.53840 1462.15000
  142.80000   17.66750 1462.15000
  142.90000   18.21070 1462.15000
  143.00000   18.48880 1485.55000
  143.10000   18.48880 1533.49000
  143.20000   18.48880 1535.22000
  143.30000   18.48880 1461.96000
  143.40000   18.48880 1461.53000
  143.50000   18.37830 1461.09000
  143.60000   18.21020 1460.15000
  143.70000   17.96880 1458.43000
  143.80000   17.62260 1458.20000
  143.90000   17.13580 1463.99000
  144.00000   16.41160 1480.84000
  144.10000   16.28120 1484.94000
  144.20000   16.26340 1487.38000
  144.30000   16.20300 1492.57000
  144.40000   16.18930 1494.25000
  144.50000   16.23420 1495.21000
  144.60000   16.41520 1497.16000
  144.70000   16.53080 1504.27000
  144.80000   16.64540 1511.78000
  144.90000   16.85670 1513.08000
  145.00000   17.74110 1515.25000
  145.10000   18.76480 1517.45000
  145.20000   18.76480 1517.45000
  145.30000   18.76480 1515.01000
  145.40000   18.67690 1509.77000
  145.50000   17.83190 1492.92000
  145.60000   17.47700 1485.85000
  145.70000   18.12090 1485.81000
  145.80000   16.20880 1485.16000
  145.90000   15.00820 1484.51000
  146.00000   14.34850 1483.87000
  146.10000   14.22780 1483.87000
  146.20000   14.13630 1492.03000
  146.30000   14.07600 1508.88000
  146.40000   14.07360 1509.55000
  146.50000   14.07360 1507.85000
  146.60000   14.07360 1506.99000
  146.70000   15.17450 1506.13000
  146.80000   16.05370 1505.10000
  146.90000   16.41590 1503.80000
  147.00000   16.67380 1500.26000
  147.10000   17.16150 1497.70000
  147.20000   18.12720 1553.27000
  147.30000   18.30490 1560.90000
  147.40000   18.30490 1561.66000
  147.50000   18.30490 1564.25000
  147.60000   18.30490 1568.83000
  147.70000   18.38340 1573.07000
  147.80000   18.70530 1574.36000
  147.90000   20.78840 1576.59000
  148.00000   20.78840 1579.43000
  148.10000   20.78840 1583.32000
  148.20000   20.78840 1598.53000
  148.30000   20.78840 1616.19000
  148.40000   20.78840 1616.19000
  148.50000   17.66100 1616.19000
  148.60000   17.53830 1616.06000
  148.70000   17.41570 1614.77000
  148.80000   17.29300 1611.98000
  148.90000   17.20110 1607.48000
  149.00000   17.10910 1591.94000
  149.10000   17.10910 1581.18000
  149.20000   17.10910 1574.57000
  149.30000   17.10910 1536.99000
  149.40000   17.20110 1516.83000
  149.50000   17.29300 1515.53000
  149.60000   17.29300 1514.23000
  149.70000   19.40870 1512.94000
  149.80000   19.59260 1511.64000
  149.90000   19.86860 1502.11000
  150.00000   20.14450 1489.17000
  150.10000   20.33760 1472.13000
  150.20000   20.53060 1469.74000
  150.30000   20.72370 1560.75000
  150.40000   20.81580 1561.39000
  150.50000   20.90790 1563.09000
  150.60000   21.04610 1564.47000
  150.70000   21.36840 1564.47000
  150.80000   21.73680 1558.53000
  150.90000   21.87500 1552.01000
  151.00000   22.38160 1549.42000
  151.10000   22.42760 1544.05000
  151.20000   22.56580 1537.08000
  151.30000   22.59650 1528.01000
  151.40000   22.62720 1525.00000
  151.50000   22.75000 1524.81000
  151.60000   22.71930 1523.52000
  151.70000   22.68860 1523.03000
  151.80000   22.65790 1528.21000
  151.90000   22.51970 1541.17000
  152.00000   22.28950 1551.15000
  152.10000   22.24340 1558.67000
  152.20000   21.64470 1561.27000
  152.30000   21.09210 1562.50000
  152.40000   18.46710 1562.50000
  152.50000   18.43690 1567.68000
  152.60000   18.36350 1570.39000
  152.70000   18.24260 1564.66000
  152.80000   18.12180 1558.31000
  152.90000   18.05270 1547.96000
  153.00000   18.05270 1532.41000
  153.10000   18.10730 1528.58000
  153.20000   18.62710 1525.99000
  153.30000   19.89620 1523.40000
  153.40000   20.15650 1520.81000
  153.50000   20.24720 1509.62000
  153.60000   20.33780 1481.13000
  153.70000   20.35520 1475.66000
  153.80000   19.84330 1475.66000
  153.90000   19.66190 1475.66000
  154.00000   19.54950 1475.66000
  154.10000   19.40180 1475.81000
  154.20000   19.06940 1476.45000
  154.30000   18.97370 1477.10000
  154.40000   18.97370 1477.75000
  154.50000   18.97370 1478.40000
  154.60000   16.64620 1479.05000
  154.70000   13.62310 1480.27000
  154.80000   13.56270 1485.02000
  154.90000   13.53950 1489.77000
  155.00000   14.78130 1494.52000
  155.10000   15.26480 1499.27000
  155.20000   15.61100 1503.53000
  155.30000   15.84740 1507.41000
  155.40000   15.96830 1511.30000
  155.50000   16.08920 1514.06000
  155.60000   16.21000 1515.78000
  155.70000   17.11340 1517.51000
  155.80000   17.60640 1526.57000
  155.90000   17.63660 1543.84000
  156.00000   17.63820 1544.74000
  156.10000   16.02630 1544.92000
  156.20000   16.02630 1545.35000
  156.30000   16.02630 1545.78000
  156.40000   16.02630 1546.21000
  156.50000   16.02630 1546.65000
  156.60000   16.10360 1546.71000
  156.70000   16.21410 1539.91000
  156.80000   16.36520 1519.19000
  156.90000   16.44330 1504.72000
  157.00000   16.48680 1495.39000
  157.10000   16.48680 1531.87000
  157.20000   16.44120 1538.82000
  157.30000   16.35270 1538.22000
  157.40000   16.17140 1535.63000
  157.50000   16.03280 1533.95000
  157.60000   15.88970 1532.65000
  157.70000   15.64800 1531.36000
  157.80000   15.44610 1530.92000
  157.90000   15.17440 1531.10000
  158.00000   14.32830 1532.39000
  158.10000   13.75960 1533.29000
  158.20000   13.36670 1533.94000
  158.30000   12.97400 1534.59000
  158.40000   12.58110 1535.60000
  158.50000   12.16640 1537.00000
  158.60000   11.22970 1540.88000
  158.70000   10.77630 1572.17000
  158.80000   10.86790 1629.15000
  158.90000   11.04830 1629.61000
  159.00000   11.22960 1628.40000
  159.10000   11.41090 1625.81000
  159.20000   11.59220 1624.43000
  159.30000   12.12880 1622.05000
  159.40000   13.15630 1618.16000
  159.50000   13.47980 1616.02000
  159.60000   13.65410 1614.08000
  159.70000   13.71450 1612.14000
  159.80000   13.72370 1609.64000
  159.90000   13.68650 1607.68000
  160.00000   13.66630 1607.04000
  160.10000   13.59780 1606.39000
  160.20000   13.37270 1605.56000
  160.30000   12.76830 1604.27000
  160.40000   12.16390 1603.95000
  160.50000   11.60080 1656.74000
  160.60000   11.17780 1663.21000
  160.70000   10.71220 1666.95000
  160.80000   10.28320 1669.55000
  160.90000   10.10190 1672.14000
  161.00000    9.92056 1674.73000
  161.10000    9.74722 1677.31000
  161.20000    9.62633 1679.90000
  161.30000    9.54219 1682.50000
  161.40000    9.48682 1685.30000
  161.50000    9.48682 1690.48000
  161.60000   10.23140 1695.66000
  161.70000   11.52190 1700.80000
  161.80000   11.76360 1704.68000
  161.90000   11.97440 1706.58000
  162.00000   12.15570 1701.19000
  162.10000   12.69530 1697.63000
  162.20000   13.07100 1694.07000
  162.30000   13.25230 1690.51000
  162.40000   13.43360 1686.95000
  162.50000   13.61490 1683.43000
  162.60000   13.79620 1679.98000
  162.70000   13.94160 1676.53000
  162.80000   14.08260 1673.07000
  162.90000   14.22360 1669.62000
  163.00000   14.36460 1666.89000
  163.10000   14.46050 1655.18000
  163.20000   14.46050 1624.10000
  163.30000   14.47970 1616.73000
  163.40000   14.50390 1615.44000
  163.50000   14.52810 1614.15000
  163.60000   14.55230 1613.82000
  163.70000   14.57650 1613.82000
  163.80000   14.60070 1613.82000
  163.90000   14.62480 1653.71000
  164.00000   14.64480 1704.53000
  164.10000   14.57370 1726.55000
  164.20000   14.51320 1734.21000
  164.30000   14.46050 1734.21000
  164.40000   14.46050 1734.21000
  164.50000   14.20500 1734.21000
  164.60000   13.81580 1734.21000
  164.70000   13.81580 1734.21000
  164.80000   13.81580 1734.21000
  164.90000   13.80610 1734.21000
  165.00000   13.50390 1734.21000
  165.10000   13.35520 1734.21000
