~Version ---------------------------------------------------
VERS. 2.0 : CWLS log ASCII Standard -VERSION 2.0
WRAP.  NO : One line per depth step
~Well ------------------------------------------------------
STRT.FT                                    0.0 : START
STOP.FT                                  600.0 : STOP
STEP.FT                                    0.1 : STEP
NULL.                                  -999.25 : NULL VALUE
COMP.                              RAJAMANDALA : Company
WELL.                              RAJAMANDALA : Well Name
FLD .                                          : Field
CTRY.                              RAJAMANDALA : Country
STAT.                              RAJAMANDALA : State
PROV.                                          : Province
LOC .                                          : Field Location
LATI.                 000 01' 09.000" S    DMS : Latitude
LONG.                 000 10' 39.000" E    DMS : Longitude
PD  .                                      MSL : Permanent Datum
UWI .                              RAJAMANDALA : Unique Well ID
ELZ .FT                                    0.0 : Elevation Log Zero
OS  .                                  NEUTRON : Services
SRVC.                                          : Service company
DATE.                                          : Date
~Curve Information -----------------------------------------
DEPT.FT    : 1  Depth
GR  .GAPI  : 2  Gamma-Ray Log
NEUT.%     : 3  Neutron Log Porosity
~Params ----------------------------------------------------
~Other -----------------------------------------------------
~ASCII -----------------------------------------------------
# ...
  212.40000   19.51970 1601.77000
  212.50000   19.50590 1599.30000
  212.60000   25.91930 1598.00000
  212.70000   26.10090 1596.70000
  212.80000   26.22240 1596.05000
  212.90000   26.28290 1596.05000
  213.00000   26.28460 1594.79000
  213.10000   25.99170 1594.08000
  213.20000   25.74960 1594.08000
  213.30000   23.77410 1594.68000
  213.40000   22.50330 1596.36000
  213.50000   22.50330 1599.60000
  213.60000   22.60940 1607.94000
  213.70000   21.67330 1615.41000
  213.80000   21.61180 1619.94000
  213.90000   21.55030 1624.47000
  214.00000   21.39660 1628.81000
  214.10000   21.39660 1632.70000
  214.20000   21.39660 1635.91000
  214.30000   21.39660 1648.00000
  214.40000   21.30430 1686.41000
  214.50000   21.30430 1717.57000
  214.60000   21.30430 1740.13000
  214.70000   21.30430 1740.13000
  214.80000   21.25820 1716.21000
  214.90000   21.21210 1685.39000
  215.00000   21.21210 1676.33000
  215.10000   21.21210 1671.66000
  215.20000   28.86690 1669.50000
  215.30000   28.92840 1667.34000
  215.40000   28.98990 1665.18000
  215.50000   29.05140 1662.55000
  215.60000   29.05140 1653.05000
  215.70000   29.05140 1632.83000
  215.80000   29.05140 1603.95000
  215.90000   29.02830 1603.95000
  216.00000   29.00530 1603.95000
  216.10000   28.98220 1603.95000
  216.20000   25.82350 1604.57000
  216.30000   25.45450 1606.37000
  216.40000   25.36230 1609.61000
  216.50000   19.55200 1621.79000
  216.60000   20.28990 1632.52000
  216.70000   20.38210 1639.85000
  216.80000   19.98610 1669.40000
  216.90000   19.53090 1691.69000
  217.00000   19.47040 1694.28000
  217.10000   19.45980 1694.74000
  217.20000   20.47650 1642.64000
  217.30000   23.86540 1640.05000
  217.40000   24.95320 1637.96000
  217.50000   25.33110 1634.39000
  217.60000   25.57320 1625.97000
  217.70000   25.63900 1622.74000
  217.80000   23.22880 1621.45000
  217.90000   23.16830 1620.15000
  218.00000   23.09400 1619.74000
  218.10000   23.01330 1619.74000
  218.20000   22.93270 1619.74000
  218.30000   22.85200 1629.56000
  218.40000   22.77350 1643.56000
  218.50000   36.52170 1644.85000
  218.60000   36.52170 1646.15000
  218.70000   36.52170 1647.37000
  218.80000   36.52170 1647.37000
  218.90000   36.52170 1647.37000
  219.00000   36.52170 1647.37000
  219.10000   36.33730 1647.37000
  219.20000   36.29120 1634.10000
  219.30000   36.24510 1606.90000
  219.40000   36.15280 1599.68000
  219.50000   36.06060 1594.63000
  219.60000   16.60080 1591.39000
  219.70000   16.60080 1584.59000
  219.80000   16.60080 1580.26000
  219.90000   16.60080 1580.26000
  220.00000   16.60080 1578.02000
  220.10000   16.69300 1575.65000
  220.20000   16.83140 1573.71000
  220.30000   17.06190 1569.64000
  220.40000   17.20030 1566.45000
  220.50000   18.81420 1566.45000
  220.60000   22.68770 1576.44000
  220.70000   22.87220 1605.77000
  220.80000   23.51780 1684.78000
  220.90000   23.61000 1706.58000
  221.00000   23.79450 1705.80000
  221.10000   23.94820 1701.92000
  221.20000   24.10190 1673.52000
  221.30000   28.03690 1639.47000
  221.40000   28.06760 1642.46000
  221.50000   28.09840 1643.42000
  221.60000   28.12910 1643.55000
  221.70000   28.12910 1644.85000
  221.80000   28.12910 1646.89000
  221.90000   28.12910 1649.34000
  222.00000   25.54390 1645.24000
  222.10000   23.95850 1642.39000
  222.20000   23.74130 1640.33000
  222.30000   22.86390 1624.14000
  222.40000   22.38180 1610.78000
  222.50000   22.32130 1600.41000
  222.60000   22.26080 1597.10000
  222.70000   22.22660 1594.07000
  222.80000   22.22660 1591.06000
  222.90000   22.22660 1588.03000
  223.00000   22.28530 1583.67000
  223.10000   22.43660 1577.20000
  223.20000   23.11080 1570.72000
  223.30000   23.61000 1564.25000
  223.40000   19.14990 1557.77000
  223.50000   18.24120 1551.65000
  223.60000   17.94880 1545.61000
  223.70000   17.82780 1539.56000
  223.80000   17.68350 1533.52000
  223.90000   17.53230 1527.88000
  224.00000   17.38100 1523.47000
  224.10000   17.22970 1519.07000
  224.20000   17.05470 1514.67000
  224.30000   16.78230 1510.26000
  224.40000   16.32700 1505.86000
  224.50000   15.75550 1501.46000
  224.60000   15.02930 1497.05000
  224.70000   14.34090 1490.01000
  224.80000   13.72360 1481.38000
  224.90000   13.54210 1472.74000
  225.00000   12.90740 1464.11000
  225.10000   11.98950 1455.47000
  225.20000   12.08170 1446.84000
  225.30000   12.05860 1438.20000
  225.40000   12.03560 1429.58000
  225.50000   12.01250 1420.94000
  225.60000   11.98950 1381.64000
  225.70000   14.84850 1309.11000
  225.80000   14.84850 1305.92000
  225.90000   14.84850 1305.92000
  226.00000   14.84850 1305.92000
  226.10000   15.21940 1305.92000
  226.20000   15.62790 1306.75000
  226.30000   16.03640 1308.91000
  226.40000   16.44490 1311.07000
  226.50000   16.85330 1375.89000
  226.60000   17.26180 1564.53000
  226.70000   17.48600 1602.10000
  226.80000   17.66760 1605.07000
  226.90000   17.84910 1608.95000
  227.00000   18.03060 1621.74000
  227.10000   18.19280 1633.55000
  227.20000   18.29370 1633.55000
  227.30000   18.39460 1634.48000
  227.40000   18.49550 1636.52000
  227.50000   18.59630 1641.70000
  227.60000   18.62980 1643.42000
  227.70000   18.62980 1552.54000
  227.80000   18.62980 1551.89000
  227.90000   18.62980 1551.24000
  228.00000   18.64140 1550.49000
  228.10000   18.76250 1548.77000
  228.20000   18.88350 1547.04000
  228.30000   19.00450 1545.31000
  228.40000   19.12550 1543.58000
  228.50000   19.24650 1542.08000
  228.60000   19.36760 1540.79000
  228.70000   19.10540 1533.02000
  228.80000   18.84320 1525.25000
  228.90000   18.58090 1517.48000
  229.00000   18.31860 1485.05000
  229.10000   18.02180 1464.87000
  229.20000   17.67890 1462.71000
  229.30000   17.33600 1460.55000
  229.40000   16.99310 1458.39000
  229.50000   16.65020 1456.23000
  229.60000   16.42810 1433.75000
  229.70000   16.22640 1414.73000
  229.80000   16.02470 1409.55000
  229.90000   15.82300 1405.41000
  230.00000   15.67850 1400.79000
  230.10000   15.85330 1394.31000
  230.20000   15.98950 1390.30000
  230.30000   16.12570 1387.06000
  230.40000   16.26180 1383.82000
  230.50000   16.39800 1382.89000
  230.60000   16.61100 1382.40000
  230.70000   17.15560 1379.82000
  230.80000   17.70020 1377.23000
  230.90000   18.24490 1375.00000
  231.00000   18.78950 1420.76000
  231.10000   19.27210 1436.98000
  231.20000   19.71580 1438.40000
  231.30000   20.15960 1440.99000
  231.40000   20.60340 1450.94000
  231.50000   21.04810 1465.90000
  231.60000   21.51200 1468.50000
  231.70000   21.97600 1492.64000
  231.80000   25.91570 1536.66000
  231.90000   26.00790 1543.29000
  232.00000   26.19240 1549.77000
  232.10000   26.19240 1556.24000
  232.20000   26.19240 1557.81000
  232.30000   25.24650 1559.10000
  232.40000   24.42950 1560.40000
  232.50000   22.11480 1586.17000
  232.60000   20.54380 1612.71000
  232.70000   20.48330 1636.02000
  232.80000   20.42280 1651.61000
  232.90000   20.38210 1663.94000
  233.00000   20.94470 1672.36000
  233.10000   21.61150 1680.78000
  233.20000   22.21910 1690.47000
  233.30000   22.52170 1703.42000
  233.40000   24.51700 1706.58000
  233.50000   26.37680 1687.63000
  233.60000   26.46900 1676.83000
  233.70000   26.56130 1666.04000
  233.80000   26.46900 1656.82000
  233.90000   26.42290 1654.55000
  234.00000   26.37680 1643.31000
  234.10000   26.33070 1629.52000
  234.20000   26.28460 1628.87000
  234.30000   22.96440 1628.62000
  234.40000   22.94140 1657.43000
  234.50000   22.91830 1659.59000
  234.60000   22.89530 1661.75000
  234.70000   22.87220 1663.91000
  234.80000   22.84150 1666.07000
  234.90000   22.81070 1667.11000
  235.00000   22.78000 1667.11000
  235.10000   27.94470 1665.18000
  235.20000   28.03690 1663.23000
  235.30000   28.12910 1661.29000
  235.40000   28.12910 1658.74000
  235.50000   28.03690 1642.55000
  235.60000   23.14890 1607.59000
  235.70000   23.14890 1599.31000
  235.80000   23.14890 1592.20000
  235.90000   23.14890 1581.83000
