~Version ---------------------------------------------------
VERS. 2.0 : CWLS log ASCII Standard -VERSION 2.0
WRAP.  NO : One line per depth step
~Well ------------------------------------------------------
STRT.FT                                    0.0 : START
STOP.FT                                  600.0 : STOP
STEP.FT                                    0.1 : STEP
NULL.                                  -999.25 : NULL VALUE
COMP.                              RAJAMANDALA : Company
WELL.                              RAJAMANDALA : Well Name
FLD .                                          : Field
CTRY.                              RAJAMANDALA : Country
STAT.                              RAJAMANDALA : State
PROV.                                          : Province
LOC .                                          : Field Location
LATI.                 000 01' 09.000" S    DMS : Latitude
LONG.                 000 10' 39.000" E    DMS : Longitude
PD  .                                      MSL : Permanent Datum
UWI .                              RAJAMANDALA : Unique Well ID
ELZ .FT                                    0.0 : Elevation Log Zero
OS  .                                  NEUTRON : Services
SRVC.                                          : Service company
DATE.                                          : Date
~Curve Information -----------------------------------------
DEPT.FT    : 1  Depth
GR  .GAPI  : 2  Gamma-Ray Log
NEUT.%     : 3  Neutron Log Porosity
~Params ----------------------------------------------------
~Other -----------------------------------------------------
~ASCII -----------------------------------------------------
# ...
  377.60000   49.41290 2707.43000
  377.70000   49.62670 2703.29000
  377.80000   49.87030 2700.04000
  377.90000   50.41560 2691.62000
  378.00000   52.90980 2686.63000
  378.10000   57.51510 2685.34000
  378.20000   57.71770 2663.02000
  378.30000   57.77010 2645.89000
  378.40000   57.89130 2636.84000
  378.50000   57.90240 2633.66000
  378.60000   57.63520 2630.57000
  378.70000   57.05950 2626.69000
  378.80000   56.66620 2622.81000
  378.90000   56.40440 2619.81000
  379.00000   56.34380 2618.51000
  379.10000   56.33240 2618.27000
  379.20000   56.44230 2659.64000
  379.30000   56.50290 2707.50000
  379.40000   56.60970 2725.71000
  379.50000   56.90540 2732.90000
  379.60000   57.75380 2734.19000
  379.70000   58.03810 2734.56000
  379.80000   58.09870 2729.97000
  379.90000   58.15930 2711.22000
  380.00000   58.17940 2699.81000
  380.10000   58.06960 2689.45000
  380.20000   57.94850 2663.58000
  380.30000   57.63940 2621.67000
  380.40000   57.22100 2574.90000
  380.50000   56.85740 2583.41000
  380.60000   55.52330 2590.43000
  380.70000   53.53870 2596.70000
  380.80000   53.05400 2599.30000
  380.90000   52.82320 2603.24000
  381.00000   55.13190 2608.41000
  381.10000   55.25310 2627.81000
  381.20000   55.31660 2637.98000
  381.30000   55.31660 2603.62000
  381.40000   55.31660 2597.57000
  381.50000   55.29070 2591.84000
  381.60000   55.23010 2585.38000
  381.70000   55.22430 2583.59000
  381.80000   54.57950 2582.30000
  381.90000   52.88280 2581.00000
  382.00000   52.53480 2578.60000
  382.10000   52.43370 2576.01000
  382.20000   52.37310 2573.43000
  382.30000   52.36150 2570.84000
  382.40000   52.36150 2568.99000
  382.50000   52.36150 2730.07000
  382.60000   52.52270 2760.18000
  382.70000   52.73470 2760.18000
  382.80000   52.94680 2760.18000
  382.90000   53.18050 2760.18000
  383.00000   53.42290 2764.15000
  383.10000   53.66530 2785.28000
  383.20000   53.86740 2806.41000
  383.30000   61.59630 2834.23000
  383.40000   61.73480 2903.21000
  383.50000   61.87340 2943.24000
  383.60000   62.01190 2963.21000
  383.70000   62.15040 2963.21000
  383.80000   54.76250 2963.21000
  383.90000   54.76250 2963.04000
  384.00000   54.76250 2959.15000
  384.10000   54.71640 2853.72000
  384.20000   54.67020 2654.55000
  384.30000   54.60860 2649.88000
  384.40000   54.54710 2646.61000
  384.50000   54.48550 2644.02000
  384.60000   54.48550 2625.50000
  384.70000   54.48550 2577.03000
  384.80000   54.94720 2489.08000
  384.90000   55.03960 2480.29000
  385.00000   63.25860 2480.29000
  385.10000   63.62800 2480.29000
  385.20000   63.67410 2486.90000
  385.30000   63.90500 2492.97000
  385.40000   63.90500 2495.55000
  385.50000   63.99740 2544.93000
  385.60000   64.08970 2588.88000
  385.70000   64.08970 2589.52000
  385.80000   64.08970 2590.17000
  385.90000   64.08970 2590.67000
  386.00000   58.27180 2590.67000
  386.10000   57.62530 2577.85000
  386.20000   63.30470 2563.07000
  386.30000   58.82590 2563.07000
  386.40000   58.59500 2571.61000
  386.50000   56.60950 2582.88000
  386.60000   50.60690 2583.52000
  386.70000   50.60690 2598.42000
  386.80000   50.60690 2620.24000
  386.90000   50.60690 2620.24000
  387.00000   50.60690 2618.05000
  387.10000   50.66840 2614.17000
  387.20000   50.73000 2610.29000
  387.30000   55.68600 2603.74000
  387.40000   55.77840 2594.68000
  387.50000   56.05540 2588.20000
  387.60000   56.05540 2583.95000
  387.70000   56.05540 2582.23000
  387.80000   56.05540 2580.50000
  387.90000   55.96310 2576.60000
  388.00000   55.87070 2569.71000
  388.10000   55.77840 2542.72000
  388.20000   55.68600 2513.40000
  388.30000   53.00790 2484.09000
  388.40000   52.45380 2454.77000
  388.50000   52.45380 2434.95000
  388.60000   52.17680 2438.95000
  388.70000   52.13060 2441.96000
  388.80000   52.08440 2444.98000
  388.90000   52.08440 2448.00000
  389.00000   51.99210 2452.64000
  389.10000   51.89970 2457.82000
  389.20000   51.85360 2462.99000
  389.30000   51.71500 2468.16000
  389.40000   56.97890 2472.63000
  389.50000   57.07120 2473.93000
  389.60000   57.34830 2475.23000
  389.70000   57.37910 2476.52000
  389.80000   57.40990 2477.81000
  389.90000   57.44060 2479.11000
  390.00000   57.44060 2480.44000
  390.10000   57.44060 2482.16000
  390.20000   57.44060 2483.89000
  390.30000   57.44060 2485.61000
  390.40000   53.93140 2487.33000
  390.50000   53.79290 2491.04000
  390.60000   52.08440 2496.64000
  390.70000   52.08440 2502.25000
  390.80000   52.08440 2507.86000
  390.90000   52.08440 2513.46000
  391.00000   52.08440 2514.61000
  391.10000   52.08440 2515.47000
  391.20000   52.08440 2516.34000
  391.30000   52.08440 2517.20000
  391.40000   52.26910 2517.74000
  391.50000   58.35470 2512.87000
  391.60000   61.59630 2509.32000
  391.70000   61.59630 2505.76000
  391.80000   61.59630 2502.21000
  391.90000   61.59630 2498.65000
  392.00000   61.59630 2494.54000
  392.10000   61.78100 2488.93000
  392.20000   61.78100 2467.52000
  392.30000   61.12520 2446.49000
  392.40000   59.64060 2445.20000
  392.50000   59.19520 2443.00000
  392.60000   59.19520 2440.87000
  392.70000   59.19520 2449.23000
  392.80000   59.27430 2456.35000
  392.90000   59.38000 2463.87000
  393.00000   55.14220 2474.22000
  393.10000   53.06880 2481.84000
  393.20000   52.16230 2488.17000
  393.30000   51.98040 2500.46000
  393.40000   51.46170 2505.91000
  393.50000   50.69920 2505.91000
  393.60000   50.69920 2505.91000
  393.70000   50.54530 2505.91000
  393.80000   50.24230 2505.91000
  393.90000   50.23750 2505.91000
  394.00000   56.20260 2527.33000
  394.10000   69.17010 2573.89000
  394.20000   70.00000 2576.87000
  394.30000   68.79950 2576.61000
  394.40000   70.16860 2575.96000
  394.50000   70.27720 2574.17000
  394.60000   69.15220 2571.99000
  394.70000   68.43010 2569.40000
  394.80000   68.47630 2512.49000
  394.90000   68.61480 2466.49000
  395.00000   68.61480 2468.19000
  395.10000   68.56860 2480.76000
  395.20000   68.52240 2492.81000
  395.30000   68.39930 2495.40000
  395.40000   59.10290 2518.19000
  395.50000   59.13980 2541.39000
  395.60000   59.17680 2541.39000
  395.70000   59.21370 2541.39000
  395.80000   59.25070 2526.49000
  395.90000   59.28760 2439.83000
  396.00000   66.02900 2409.33000
  396.10000   66.02900 2409.49000
  396.20000   66.58310 2410.78000
  396.30000   66.58310 2411.69000
  396.40000   66.76780 2421.78000
  396.50000   66.76780 2546.59000
  396.60000   66.76780 2602.50000
  396.70000   66.49080 2601.96000
  396.80000   66.58310 2582.55000
  396.90000   66.67550 2572.28000
  397.00000   53.46970 2570.99000
  397.10000   53.46970 2569.69000
  397.20000   53.46970 2565.45000
  397.30000   53.59280 2557.69000
  397.40000   53.71590 2549.93000
  397.50000   54.20840 2544.28000
  397.60000   54.34700 2541.69000
  397.70000   55.77840 2534.53000
  397.80000   55.77840 2525.38000
  397.90000   55.77840 2513.74000
  398.00000   55.87070 2498.85000
  398.10000   55.87070 2482.92000
  398.20000   55.87070 2466.11000
  398.30000   55.87070 2457.45000
  398.40000   55.77840 2452.69000
  398.50000   54.57780 2459.23000
  398.60000   54.53170 2465.36000
  398.70000   54.48550 2471.55000
  398.80000   54.39310 2476.73000
  398.90000   54.39310 2489.06000
  399.00000   54.39310 2506.32000
  399.10000   54.48550 2532.18000
  399.20000   54.57780 2553.05000
  399.30000   55.50130 2569.77000
  399.40000   55.50130 2576.23000
  399.50000   62.61210 2579.23000
  399.60000   62.70450 2580.16000
  399.70000   63.07390 2584.68000
  399.80000   63.16620 2586.73000
  399.90000   63.16620 2523.59000
  400.00000   63.16620 2521.00000
  400.10000   63.16620 2517.45000
  400.20000   63.35090 2512.92000
  400.30000   63.35090 2508.39000
  400.40000   63.53560 2505.91000
  400.50000   63.53560 2505.91000
  400.60000   53.65440 2511.91000
  400.70000   53.56200 2557.05000
  400.80000   53.56200 2659.22000
  400.90000   53.56200 2671.48000
  401.00000   53.56200 2669.86000
  401.10000   53.56200 2669.00000
