~Version ---------------------------------------------------
VERS. 2.0 : CWLS log ASCII Standard -VERSION 2.0
WRAP.  NO : One line per depth step
~Well ------------------------------------------------------
STRT.FT                                    0.0 : START
STOP.FT                                  600.0 : STOP
STEP.FT                                    0.1 : STEP
NULL.                                  -999.25 : NULL VALUE
COMP.                              RAJAMANDALA : Company
WELL.                              RAJAMANDALA : Well Name
FLD .                                          : Field
CTRY.                              RAJAMANDALA : Country
STAT.                              RAJAMANDALA : State
PROV.                                          : Province
LOC .                                          : Field Location
LATI.                 000 01' 09.000" S    DMS : Latitude
LONG.                 000 10' 39.000" E    DMS : Longitude
PD  .                                      MSL : Permanent Datum
UWI .                              RAJAMANDALA : Unique Well ID
ELZ .FT                                    0.0 : Elevation Log Zero
OS  .                                  NEUTRON : Services
SRVC.                                          : Service company
DATE.                                          : Date
~Curve Information -----------------------------------------
DEPT.FT    : 1  Depth
GR  .GAPI  : 2  Gamma-Ray Log
NEUT.%     : 3  Neutron Log Porosity
~Params ----------------------------------------------------
~Other -----------------------------------------------------
~ASCII -----------------------------------------------------
# ...
   94.40000   14.59050 1550.41000
   94.50000   14.16550 1555.36000
   94.60000   14.16550 1558.60000
   94.70000   14.12960 1561.07000
   94.80000   14.07140 1563.06000
   94.90000   14.04120 1565.65000
   95.00000   14.01110 1568.24000
   95.10000   13.98160 1570.83000
   95.20000   14.16700 1573.42000
   95.30000   16.33980 1583.79000
   95.40000   20.50450 1601.93000
   95.50000   20.72230 1602.37000
   95.60000   20.84300 1602.37000
   95.70000   20.96370 1602.37000
   95.80000   20.97240 1600.57000
   95.90000   20.52410 1589.20000
   96.00000   19.52820 1563.93000
   96.10000   18.29330 1560.90000
   96.20000   17.44480 1564.02000
   96.30000   17.35420 1567.27000
   96.40000   17.26370 1570.51000
   96.50000   17.20100 1572.88000
   96.60000   17.35890 1573.31000
   96.70000   18.52070 1573.74000
   96.80000   19.67110 1574.17000
   96.90000   19.97280 1574.61000
   97.00000   20.27460 1576.63000
   97.10000   20.98590 1578.67000
   97.20000   23.21910 1578.67000
   97.30000   24.16510 1578.67000
   97.40000   24.57670 1578.67000
   97.50000   25.24070 1578.67000
   97.60000   25.59560 1577.01000
   97.70000   25.75560 1574.57000
   97.80000   25.75560 1573.28000
   97.90000   25.75560 1569.68000
   98.00000   25.57500 1564.76000
   98.10000   22.91930 1563.46000
   98.20000   20.32930 1562.17000
   98.30000   17.82690 1560.87000
   98.40000   16.92150 1559.57000
   98.50000   16.43530 1558.28000
   98.60000   16.37490 1556.99000
   98.70000   16.37320 1555.69000
   98.80000   18.39110 1554.97000
   98.90000   20.02070 1556.85000
   99.00000   21.48300 1559.94000
   99.10000   22.35220 1563.18000
   99.20000   21.59170 1566.42000
   99.30000   21.52430 1569.66000
   99.40000   22.52290 1572.90000
   99.50000   25.35970 1576.14000
   99.60000   26.39730 1579.92000
   99.70000   26.89610 1583.41000
   99.80000   27.01680 1586.00000
   99.90000   27.09050 1588.59000
  100.00000   27.16630 1590.85000
  100.10000   27.28700 1592.15000
  100.20000   27.31930 1593.45000
  100.30000   20.14450 1594.74000
  100.40000   20.14450 1596.04000
  100.50000   20.35100 1597.33000
  100.60000   20.61420 1598.63000
  100.70000   20.67450 1599.93000
  100.80000   20.73490 1601.22000
  100.90000   20.81550 1602.66000
  101.00000   21.05690 1605.25000
  101.10000   21.15640 1607.84000
  101.20000   19.96060 1610.44000
  101.30000   20.21750 1613.03000
  101.40000   20.55670 1615.62000
  101.50000   20.97530 1618.22000
  101.60000   21.15640 1621.46000
  101.70000   21.30780 1643.19000
  101.80000   21.42840 1684.01000
  101.90000   21.43230 1687.83000
  102.00000   20.87320 1690.99000
  102.10000   20.02820 1694.88000
  102.20000   19.46080 1698.77000
  102.30000   19.08490 1701.12000
  102.40000   18.96420 1697.50000
  102.50000   18.58030 1659.88000
  102.60000   18.26290 1631.54000
  102.70000   18.14210 1630.25000
  102.80000   17.29300 1628.95000
  102.90000   17.20110 1628.04000
  103.00000   17.10910 1628.04000
  103.10000   17.01710 1629.05000
  103.20000   16.97110 1630.35000
  103.30000   16.92510 1631.64000
  103.40000   16.92510 1638.60000
  103.50000   16.83310 1650.31000
  103.60000   16.83310 1672.34000
  103.70000   21.61630 1679.39000
  103.80000   21.80030 1679.39000
  103.90000   21.80030 1679.39000
  104.00000   21.80030 1679.39000
  104.10000   21.80030 1678.69000
  104.20000   21.80030 1672.21000
  104.30000   21.80030 1638.49000
  104.40000   18.27950 1587.31000
  104.50000   17.85700 1566.57000
  104.60000   17.66100 1556.95000
  104.70000   17.66100 1556.95000
  104.80000   17.66100 1556.95000
  104.90000   17.74930 1568.33000
  105.00000   17.93040 1591.66000
  105.10000   18.46060 1592.50000
  105.20000   20.17230 1592.50000
  105.30000   23.37130 1592.50000
  105.40000   25.24330 1592.50000
  105.50000   26.42580 1599.95000
  105.60000   26.72760 1618.95000
  105.70000   27.08170 1637.96000
  105.80000   27.31930 1656.97000
  105.90000   27.31930 1675.97000
  106.00000   27.46780 1680.81000
  106.10000   27.66680 1686.12000
  106.20000   27.90820 1699.94000
  106.30000   27.96320 1703.09000
  106.40000   27.85840 1701.80000
  106.50000   27.43590 1696.62000
  106.60000   27.23190 1695.19000
  106.70000   27.11130 1695.19000
  106.80000   26.99050 1695.19000
  106.90000   26.05370 1694.32000
  107.00000   24.51490 1693.22000
  107.10000   21.79890 1693.22000
  107.20000   20.78850 1694.03000
  107.30000   20.78850 1695.19000
  107.40000   20.78850 1695.19000
  107.50000   21.66360 1694.44000
  107.60000   23.08800 1692.71000
  107.70000   23.08800 1683.64000
  107.80000   23.08800 1650.44000
  107.90000   23.08800 1596.37000
  108.00000   23.08800 1586.00000
  108.10000   23.08800 1580.02000
  108.20000   23.08800 1578.72000
  108.30000   23.08800 1576.18000
  108.40000   23.43010 1573.59000
  108.50000   24.21480 1571.00000
  108.60000   24.33890 1569.59000
  108.70000   24.39920 1567.79000
  108.80000   24.45960 1565.20000
  108.90000   24.62420 1564.85000
  109.00000   24.78470 1596.45000
  109.10000   24.90550 1596.45000
  109.20000   25.02620 1596.45000
  109.30000   25.23510 1596.45000
  109.40000   25.65760 1596.45000
  109.50000   26.68270 1609.39000
  109.60000   27.59530 1622.12000
  109.70000   27.59530 1618.90000
  109.80000   26.72620 1614.44000
  109.90000   25.54270 1610.02000
  110.00000   24.45620 1608.72000
  110.10000   23.45090 1605.68000
  110.20000   22.54770 1601.99000
  110.30000   22.00450 1599.39000
  110.40000   21.80020 1598.42000
  110.50000   21.78810 1598.55000
  110.60000   21.66750 1599.85000
  110.70000   21.54680 1601.14000
  110.80000   21.42290 1602.44000
  110.90000   21.24180 1603.73000
  111.00000   20.90140 1605.03000
  111.10000   20.41980 1606.44000
  111.20000   20.23870 1636.24000
  111.30000   20.14450 1657.96000
  111.40000   20.59120 1670.92000
  111.50000   22.62400 1671.49000
  111.60000   24.60610 1671.49000
  111.70000   26.41680 1671.49000
  111.80000   26.66560 1669.14000
  111.90000   26.75620 1660.57000
  112.00000   26.84670 1642.43000
  112.10000   26.93730 1632.09000
  112.20000   26.99740 1619.97000
  112.30000   24.61850 1601.83000
  112.40000   24.20210 1591.06000
  112.50000   24.10150 1584.41000
  112.60000   24.00090 1583.76000
  112.70000   23.90030 1582.13000
  112.80000   23.73700 1579.72000
  112.90000   23.37480 1575.83000
  113.00000   22.88310 1574.25000
  113.10000   22.02700 1573.36000
  113.20000   19.85410 1571.41000
  113.30000   19.05200 1570.77000
  113.40000   18.93130 1573.38000
  113.50000   18.81070 1591.53000
  113.60000   18.50280 1602.44000
  113.70000   18.10930 1608.29000
  113.80000   17.98860 1608.29000
  113.90000   17.85060 1603.85000
  114.00000   17.69980 1595.95000
  114.10000   17.54880 1585.58000
  114.20000   17.44540 1569.10000
  114.30000   17.38500 1547.07000
  114.40000   17.20400 1547.07000
  114.50000   17.09470 1546.76000
  114.60000   17.06460 1546.11000
  114.70000   17.06310 1540.53000
  114.80000   18.48880 1534.98000
  114.90000   18.31650 1529.80000
  115.00000   18.08660 1528.13000
  115.10000   17.93690 1526.83000
  115.20000   18.10350 1525.54000
  115.30000   18.22420 1525.35000
  115.40000   18.34500 1600.40000
  115.50000   18.46560 1600.40000
  115.60000   19.26910 1600.40000
  115.70000   19.96060 1600.40000
  115.80000   19.10810 1600.40000
  115.90000   18.62760 1603.35000
  116.00000   18.30490 1607.24000
  116.10000   18.30490 1611.12000
  116.20000   18.21890 1615.01000
  116.30000   18.09820 1618.17000
  116.40000   17.97750 1617.79000
  116.50000   17.91020 1617.46000
  116.60000   17.87000 1617.14000
  116.70000   17.82970 1616.81000
  116.80000   17.81430 1616.49000
  116.90000   22.99600 1616.15000
  117.00000   23.27200 1615.72000
  117.10000   23.27200 1615.29000
  117.20000   23.27200 1614.86000
  117.30000   23.27200 1614.43000
  117.40000   23.27200 1614.22000
  117.50000   23.27200 1618.82000
  117.60000   23.27200 1621.84000
  117.70000   23.27200 1624.86000
  117.80000   23.27200 1627.88000
  117.90000   23.18000 1629.27000
