~Version ---------------------------------------------------
VERS. 2.0 : CWLS log ASCII Standard -VERSION 2.0
WRAP.  NO : One line per depth step
~Well ------------------------------------------------------
STRT.FT                                    0.0 : START
STOP.FT                                  600.0 : STOP
STEP.FT                                    0.1 : STEP
NULL.                                  -999.25 : NULL VALUE
COMP.                              RAJAMANDALA : Company
WELL.                              RAJAMANDALA : Well Name
FLD .                                          : Field
CTRY.                              RAJAMANDALA : Country
STAT.                              RAJAMANDALA : State
PROV.                                          : Province
LOC .                                          : Field Location
LATI.                 000 01' 09.000" S    DMS : Latitude
LONG.                 000 10' 39.000" E    DMS : Longitude
PD  .                                      MSL : Permanent Datum
UWI .                              RAJAMANDALA : Unique Well ID
ELZ .FT                                    0.0 : Elevation Log Zero
OS  .                                  NEUTRON : Services
SRVC.                                          : Service company
DATE.                                          : Date
~Curve Information -----------------------------------------
DEPT.FT    : 1  Depth
GR  .GAPI  : 2  Gamma-Ray Log
NEUT.%     : 3  Neutron Log Porosity
~Params ----------------------------------------------------
~Other -----------------------------------------------------
~ASCII -----------------------------------------------------
# ...
   70.80000   16.67380 1512.38000
   70.90000   16.83310 1504.91000
   71.00000   16.75220 1485.48000
   71.10000   16.64260 1474.49000
   71.20000   16.48670 1465.42000
   71.30000   16.24530 1456.35000
   71.40000   16.18930 1447.28000
   71.50000   16.69000 1439.47000
   71.60000   18.74210 1435.59000
   71.70000   19.57740 1423.30000
   71.80000   19.86860 1410.80000
   71.90000   19.86860 1435.60000
   72.00000   19.66580 1442.40000
   72.10000   19.37300 1442.40000
   72.20000   19.13160 1442.40000
   72.30000   18.81480 1442.40000
   72.40000   18.47670 1442.69000
   72.50000   18.35610 1445.60000
   72.60000   18.18320 1448.52000
   72.70000   17.96880 1451.43000
   72.80000   17.69720 1454.35000
   72.90000   17.56900 1457.27000
   73.00000   17.71900 1460.18000
   73.10000   20.70660 1463.21000
   73.20000   22.26020 1466.23000
   73.30000   22.21550 1469.26000
   73.40000   22.18530 1472.28000
   73.50000   22.11600 1476.42000
   73.60000   21.99530 1482.03000
   73.70000   21.81980 1487.65000
   73.80000   21.59240 1493.27000
   73.90000   21.29060 1498.88000
   74.00000   21.14460 1503.57000
   74.10000   21.05430 1508.11000
   74.20000   21.02410 1512.65000
   74.30000   21.01840 1514.02000
   74.40000   22.15730 1514.67000
   74.50000   24.99410 1515.32000
   74.60000   25.70970 1515.97000
   74.70000   25.79900 1516.62000
   74.80000   25.98010 1517.27000
   74.90000   26.03150 1517.45000
   75.00000   23.71270 1516.71000
   75.10000   26.21550 1516.27000
   75.20000   26.24620 1515.84000
   75.30000   26.27680 1515.00000
   75.40000   26.39950 1511.76000
   75.50000   21.55860 1508.52000
   75.60000   21.14910 1505.29000
   75.70000   19.15740 1502.05000
   75.80000   18.23580 1498.81000
   75.90000   18.11220 1495.47000
   76.00000   17.93120 1490.29000
   76.10000   17.84500 1485.10000
   76.20000   19.50070 1479.92000
   76.30000   19.65160 1466.96000
   76.40000   20.43450 1449.07000
   76.50000   21.91320 1425.74000
   76.60000   22.04170 1422.15000
   76.70000   22.10210 1420.39000
   76.80000   22.16240 1419.74000
   76.90000   22.22280 1408.55000
   77.00000   22.28310 1394.52000
   77.10000   22.34350 1377.68000
   77.20000   22.45550 1375.25000
   77.30000   22.53610 1380.92000
   77.40000   22.53610 1386.10000
   77.50000   22.63370 1412.23000
   77.60000   22.73720 1434.87000
   77.70000   22.79760 1436.16000
   77.80000   22.81210 1436.47000
   77.90000   22.82630 1431.60000
   78.00000   22.88670 1427.72000
   78.10000   22.90410 1419.22000
   78.20000   21.50160 1407.14000
   78.30000   21.38090 1387.70000
   78.40000   21.26020 1381.17000
   78.50000   21.14790 1381.17000
   78.60000   21.08760 1381.17000
   78.70000   20.97150 1381.17000
   78.80000   20.52630 1381.17000
   78.90000   17.17640 1381.17000
   79.00000   15.59220 1382.15000
   79.10000   15.35870 1383.89000
   79.20000   15.29840 1385.61000
   79.30000   15.23800 1387.34000
   79.40000   15.17760 1389.06000
   79.50000   15.17740 1392.95000
   79.60000   15.93440 1396.83000
   79.70000   17.05100 1400.72000
   79.80000   17.33800 1404.61000
   79.90000   17.50260 1407.77000
   80.00000   17.56300 1409.92000
   80.10000   17.56900 1412.08000
   80.20000   17.56900 1414.24000
   80.30000   17.56900 1416.40000
   80.40000   17.56900 1420.58000
   80.50000   17.45020 1425.12000
   80.60000   17.08810 1429.66000
   80.70000   16.99280 1434.20000
   80.80000   16.96260 1438.73000
   80.90000   16.93250 1443.26000
   81.00000   16.85660 1446.98000
   81.10000   16.76610 1450.44000
   81.20000   16.67550 1453.89000
   81.30000   16.64910 1457.35000
   81.40000   17.32010 1460.41000
   81.50000   18.46680 1461.71000
   81.60000   18.85670 1463.00000
   81.70000   18.85670 1464.30000
   81.80000   18.85670 1465.60000
   81.90000   18.80130 1466.10000
   82.00000   18.70020 1464.01000
   82.10000   18.48890 1462.71000
   82.20000   18.29470 1461.42000
   82.30000   18.11370 1460.12000
   82.40000   17.93260 1458.83000
   82.50000   17.68930 1457.53000
   82.60000   17.38740 1456.23000
   82.70000   17.23530 1454.94000
   82.80000   16.99960 1453.64000
   82.90000   16.66770 1452.34000
   83.00000   16.53520 1452.27000
   83.10000   16.43980 1454.79000
   83.20000   16.37950 1456.09000
   83.30000   16.37320 1457.38000
   83.40000   22.46230 1460.29000
   83.50000   23.00540 1465.90000
   83.60000   23.19040 1471.51000
   83.70000   23.29160 1477.13000
   83.80000   23.35190 1482.75000
   83.90000   23.46050 1493.20000
   84.00000   23.54790 1504.87000
   84.10000   23.54790 1516.53000
   84.20000   23.54790 1522.99000
   84.30000   23.53410 1527.74000
   84.40000   23.47380 1532.49000
   84.50000   23.41340 1537.25000
   84.60000   23.35860 1541.15000
   84.70000   23.32840 1537.33000
   84.80000   23.29820 1534.08000
   84.90000   22.97720 1529.22000
   85.00000   20.74400 1513.67000
   85.10000   19.83190 1507.57000
   85.20000   19.77660 1507.57000
   85.30000   19.90750 1507.57000
   85.40000   19.99440 1507.57000
   85.50000   20.05900 1507.99000
   85.60000   20.24010 1519.66000
   85.70000   20.42120 1528.67000
   85.80000   20.60230 1535.14000
   85.90000   20.84300 1537.14000
   86.00000   21.05640 1539.68000
   86.10000   21.23750 1542.93000
   86.20000   21.41860 1544.34000
   86.30000   21.54940 1545.10000
   86.40000   21.60980 1501.06000
   86.50000   21.61630 1497.70000
   86.60000   21.61630 1497.46000
   86.70000   21.61630 1496.81000
   86.80000   21.61630 1495.07000
   86.90000   21.57770 1492.92000
   87.00000   21.45690 1490.33000
   87.10000   21.28820 1489.80000
   87.20000   20.68030 1489.80000
   87.30000   17.93690 1489.80000
   87.40000   17.90630 1489.80000
   87.50000   17.87560 1496.77000
   87.60000   17.75300 1527.87000
   87.70000   17.75300 1543.55000
   87.80000   17.75300 1551.02000
   87.90000   17.75300 1551.02000
   88.00000   17.75300 1534.12000
   88.10000   17.93690 1508.87000
   88.20000   18.02890 1488.13000
   88.30000   20.78840 1478.35000
   88.40000   20.84980 1475.76000
   88.50000   20.91110 1473.17000
   88.60000   20.97240 1471.66000
   88.70000   21.09510 1470.88000
   88.80000   21.21770 1466.35000
   88.90000   21.34030 1463.46000
   89.00000   21.38630 1462.17000
   89.10000   21.43230 1462.15000
   89.20000   20.76930 1472.88000
   89.30000   20.52790 1496.21000
   89.40000   20.17350 1500.13000
   89.50000   19.83630 1502.18000
   89.60000   19.53450 1503.48000
   89.70000   19.44710 1503.62000
   89.80000   19.38670 1498.96000
   89.90000   19.32640 1497.02000
   90.00000   19.24060 1473.31000
   90.10000   19.15010 1454.25000
   90.20000   19.05960 1454.25000
   90.30000   16.17260 1454.25000
   90.40000   13.52170 1455.64000
   90.50000   13.52170 1460.82000
   90.60000   13.52170 1465.52000
   90.70000   13.52170 1470.63000
   90.80000   13.52170 1477.75000
   90.90000   13.47970 1486.24000
   91.00000   13.42970 1500.44000
   91.10000   13.50050 1539.31000
   91.20000   13.52170 1555.52000
   91.30000   13.37730 1559.08000
   91.40000   12.95480 1560.38000
   91.50000   12.60470 1560.90000
   91.60000   12.32130 1552.90000
   91.70000   12.26090 1551.60000
   91.80000   12.23390 1550.31000
   91.90000   12.23390 1548.94000
   92.00000   12.23390 1545.05000
   92.10000   12.35560 1541.81000
   92.20000   12.59700 1539.22000
   92.30000   12.83840 1522.66000
   92.40000   13.02490 1509.95000
   92.50000   13.14560 1502.18000
   92.60000   13.21000 1500.44000
   92.70000   14.08300 1494.91000
   92.80000   16.13510 1483.25000
   92.90000   16.69330 1477.32000
   93.00000   16.99030 1472.60000
   93.10000   17.17130 1468.71000
   93.20000   17.35240 1468.07000
   93.30000   17.57120 1503.62000
   93.40000   17.87290 1503.62000
   93.50000   17.98450 1503.62000
   93.60000   18.04480 1503.62000
   93.70000   18.10520 1503.62000
   93.80000   18.12090 1510.34000
   93.90000   17.26840 1519.41000
   94.00000   16.30270 1528.48000
   94.10000   15.67120 1534.86000
   94.20000   15.22880 1540.04000
   94.30000   14.98740 1545.22000
