~Version ---------------------------------------------------
VERS. 2.0 : CWLS log ASCII Standard -VERSION 2.0
WRAP.  NO : One line per depth step
~Well ------------------------------------------------------
STRT.FT                                    0.0 : START
STOP.FT                                  600.0 : STOP
STEP.FT                                    0.1 : STEP
NULL.                                  -999.25 : NULL VALUE
COMP.                              RAJAMANDALA : Company
WELL.                              RAJAMANDALA : Well Name
FLD .                                          : Field
CTRY.                              RAJAMANDALA : Country
STAT.                              RAJAMANDALA : State
PROV.                                          : Province
LOC .                                          : Field Location
LATI.                 000 01' 09.000" S    DMS : Latitude
LONG.                 000 10' 39.000" E    DMS : Longitude
PD  .                                      MSL : Permanent Datum
UWI .                              RAJAMANDALA : Unique Well ID
ELZ .FT                                    0.0 : Elevation Log Zero
OS  .                                  NEUTRON : Services
SRVC.                                          : Service company
DATE.                                          : Date
~Curve Information -----------------------------------------
DEPT.FT    : 1  Depth
GR  .GAPI  : 2  Gamma-Ray Log
NEUT.%     : 3  Neutron Log Porosity
~Params ----------------------------------------------------
~Other -----------------------------------------------------
~ASCII -----------------------------------------------------
# ...
  519.20000   41.02410 2426.69000
  519.30000   42.87040 2404.40000
  519.40000   42.91670 2386.74000
  519.50000   42.96300 2391.94000
  519.60000   42.96300 2396.25000
  519.70000   42.96300 2400.56000
  519.80000   42.96300 2404.86000
  519.90000   42.93210 2414.65000
  520.00000   42.90120 2427.58000
  520.10000   42.68520 2440.50000
  520.20000   42.45370 2453.43000
  520.30000   35.74070 2467.35000
  520.40000   35.74070 2495.78000
  520.50000   35.74070 2524.22000
  520.60000   35.74070 2552.66000
  520.70000   35.79370 2581.09000
  520.80000   35.84660 2601.74000
  520.90000   35.89950 2614.34000
  521.00000   35.95240 2626.94000
  521.10000   36.00530 2639.54000
  521.20000   36.05820 2652.14000
  521.30000   36.11110 2664.75000
  521.40000   36.20370 2703.07000
  521.50000   36.85190 2780.61000
  521.60000   39.53700 2790.54000
  521.70000   39.59880 2789.64000
  521.80000   39.66050 2787.06000
  521.90000   39.81480 2784.48000
  522.00000   39.83800 2781.89000
  522.10000   39.86110 2779.31000
  522.20000   39.88430 2774.72000
  522.30000   40.00000 2769.55000
  522.40000   40.00000 2764.38000
  522.50000   40.00000 2762.97000
  522.60000   40.00000 2762.97000
  522.70000   39.90740 2762.97000
  522.80000   38.98150 2762.97000
  522.90000   35.47500 2762.97000
  523.00000   34.95860 2762.97000
  523.10000   34.44210 2763.51000
  523.20000   33.92570 2764.37000
  523.30000   33.40930 2765.23000
  523.40000   32.89280 2776.66000
  523.50000   32.24340 2794.71000
  523.60000   29.50930 2798.59000
  523.70000   28.11050 2934.10000
  523.80000   27.86970 3180.76000
  523.90000   27.80890 3197.57000
  524.00000   27.77780 3208.38000
  524.10000   27.89830 3212.91000
  524.20000   27.97930 3227.40000
  524.30000   28.06030 3241.41000
  524.40000   28.14130 3254.33000
  524.50000   28.25940 3345.40000
  524.60000   28.61910 3405.12000
  524.70000   29.34820 3403.32000
  524.80000   32.97770 3402.03000
  524.90000   35.64810 3349.60000
  525.00000   35.64810 3199.68000
  525.10000   35.64810 3166.86000
  525.20000   35.63010 3155.16000
  525.30000   35.56940 3132.54000
  525.40000   34.66440 3108.42000
  525.50000   33.79630 3087.71000
  525.60000   33.79630 3078.67000
  525.70000   33.92820 3064.00000
  525.80000   34.12260 3038.93000
  525.90000   34.36570 2980.76000
  526.00000   34.44440 2923.48000
  526.10000   34.02880 2869.36000
  526.20000   31.29480 2830.58000
  526.30000   30.27780 2816.15000
  526.40000   30.27780 2816.28000
  526.50000   30.27780 2817.58000
  526.60000   29.60820 2823.37000
  526.70000   28.50490 2832.63000
  526.80000   28.26180 2845.56000
  526.90000   28.11580 2928.62000
  527.00000   28.05560 3074.03000
  527.10000   28.11680 3298.92000
  527.20000   28.17750 3414.97000
  527.30000   28.23830 3414.97000
  527.40000   28.53240 3414.97000
  527.50000   29.02160 3414.97000
  527.60000   29.75060 3414.97000
  527.70000   29.87020 3463.30000
  527.80000   29.90740 3530.84000
  527.90000   29.90740 3621.31000
  528.00000   29.90740 3634.74000
  528.10000   24.07410 3636.47000
  528.20000   24.04320 3639.05000
  528.30000   24.01230 3640.58000
  528.40000   23.98150 3641.50000
  528.50000   23.95060 3634.82000
  528.60000   23.91980 3630.64000
  528.70000   23.88890 3626.76000
  528.80000   22.99690 3622.89000
  528.90000   22.96290 3615.29000
  529.00000   25.87170 3606.83000
  529.10000   26.54010 3600.80000
  529.20000   26.84100 3594.77000
  529.30000   27.21430 3588.74000
  529.40000   29.03690 3582.70000
  529.50000   31.29630 3575.59000
  529.60000   31.36570 3557.37000
  529.70000   31.43520 3444.92000
  529.80000   31.50460 3397.24000
  529.90000   31.57410 3397.24000
  530.00000   31.57410 3397.24000
  530.10000   31.57410 3397.24000
  530.20000   31.57410 3396.90000
  530.30000   31.52780 3312.89000
  530.40000   28.51850 3268.28000
  530.50000   28.42590 3266.34000
  530.60000   28.42590 3247.10000
  530.70000   28.42590 3221.20000
  530.80000   28.37960 3187.59000
  530.90000   28.33330 3183.92000
  531.00000   28.42590 3183.27000
  531.10000   28.47220 3182.62000
  531.20000   28.51850 3182.53000
  531.30000   28.51850 3189.61000
  531.40000   31.85190 3201.89000
  531.50000   32.22220 3222.04000
  531.60000   32.31480 3238.81000
  531.70000   32.96300 3242.68000
  531.80000   32.96300 3246.56000
  531.90000   32.96300 3250.91000
  532.00000   33.14810 3256.72000
  532.10000   33.14810 3269.94000
  532.20000   33.14810 3286.46000
  532.30000   33.14810 3304.56000
  532.40000   29.24470 3401.23000
  532.50000   29.12300 3517.49000
  532.60000   28.81910 3518.14000
  532.70000   28.59070 3518.78000
  532.80000   28.41430 3519.37000
  532.90000   28.29270 3517.25000
  533.00000   27.16340 3473.17000
  533.10000   25.36460 3401.02000
  533.20000   25.24300 3397.80000
  533.30000   25.08970 3387.12000
  533.40000   24.90740 3369.67000
  533.50000   24.90740 3359.33000
  533.60000   24.90740 3353.29000
  533.70000   24.90740 3352.00000
  533.80000   26.17990 3351.94000
  533.90000   27.25650 3353.05000
  534.00000   27.98560 3355.63000
  534.10000   28.11050 3401.45000
  534.20000   28.14810 3499.01000
  534.30000   28.14810 3673.49000
  534.40000   28.35610 3698.62000
  534.50000   28.57230 3696.47000
  534.60000   28.73440 3690.01000
  534.70000   28.89630 3681.46000
  534.80000   29.12730 3664.34000
  534.90000   29.53240 3626.86000
  535.00000   29.81430 3548.11000
  535.10000   30.04300 3476.78000
  535.20000   30.22530 3471.61000
  535.30000   30.40760 3456.32000
  535.40000   30.66980 3439.61000
  535.50000   31.27740 3434.44000
  535.60000   32.12690 3310.83000
  535.70000   33.23510 3152.99000
  535.80000   40.55560 3152.99000
  535.90000   40.55560 3152.99000
  536.00000   40.55560 3152.99000
  536.10000   40.55560 3152.99000
  536.20000   40.55560 3077.37000
  536.30000   40.55560 2950.10000
  536.40000   40.55560 2951.45000
  536.50000   40.55560 2954.09000
  536.60000   40.46300 2957.96000
  536.70000   40.10350 2961.84000
  536.80000   39.24130 2988.90000
  536.90000   38.02620 3041.89000
  537.00000   36.98380 3054.45000
  537.10000   36.38890 3063.42000
  537.20000   36.38890 3070.53000
  537.30000   36.38890 3084.62000
  537.40000   35.82540 3171.16000
  537.50000   34.32670 3376.67000
  537.60000   33.46650 3407.09000
  537.70000   32.08610 3402.15000
  537.80000   29.41290 3393.10000
  537.90000   28.79120 3383.02000
  538.00000   28.56760 3345.53000
  538.10000   28.08160 3238.26000
  538.20000   26.90660 3212.08000
  538.30000   25.81930 3212.08000
  538.40000   25.75850 3212.08000
  538.50000   25.69770 3212.08000
  538.60000   25.64810 3207.24000
  538.70000   25.64810 3180.97000
  538.80000   25.92880 3154.69000
  538.90000   26.56070 3128.41000
  539.00000   28.50490 3102.12000
  539.10000   29.35220 3081.84000
  539.20000   29.50410 3065.36000
  539.30000   29.65600 3048.88000
  539.40000   29.85930 3032.40000
  539.50000   30.10350 3015.92000
  539.60000   30.37700 2999.44000
  539.70000   30.80710 2981.23000
  539.80000   31.38430 2961.42000
  539.90000   36.66670 2941.60000
  540.00000   36.66670 2921.78000
  540.10000   36.66670 2901.96000
  540.20000   36.66670 2886.21000
  540.30000   36.66670 2870.71000
  540.40000   36.66670 2855.19000
  540.50000   36.62040 2822.31000
  540.60000   36.57410 2799.91000
  540.70000   36.48150 2798.62000
  540.80000   33.14810 2798.42000
  540.90000   32.77780 2798.42000
  541.00000   32.68520 2798.42000
  541.10000   32.59260 2798.42000
  541.20000   32.54630 2798.42000
  541.30000   32.50000 2798.42000
  541.40000   33.69880 2833.41000
  541.50000   34.97440 2873.46000
  541.60000   38.92360 2891.56000
  541.70000   40.43480 2899.64000
  541.80000   41.48950 2902.82000
  541.90000   45.13490 2902.82000
  542.00000   46.38890 2903.67000
  542.10000   46.38890 2905.13000
  542.20000   46.66670 2907.72000
  542.30000   46.75930 2915.80000
  542.40000   46.85190 2926.46000
  542.50000   46.94440 2923.66000
  542.60000   47.03700 2921.80000
  542.70000   47.03700 2919.20000
