~Version ---------------------------------------------------
VERS. 2.0 : CWLS log ASCII Standard -VERSION 2.0
WRAP.  NO : One line per depth step
~Well ------------------------------------------------------
STRT.FT                                    0.0 : START
STOP.FT                                  600.0 : STOP
STEP.FT                                    0.1 : STEP
NULL.                                  -999.25 : NULL VALUE
COMP.                              RAJAMANDALA : Company
WELL.                              RAJAMANDALA : Well Name
FLD .                                          : Field
CTRY.                              RAJAMANDALA : Country
STAT.                              RAJAMANDALA : State
PROV.                                          : Province
LOC .                                          : Field Location
LATI.                 000 01' 09.000" S    DMS : Latitude
LONG.                 000 10' 39.000" E    DMS : Longitude
PD  .                                      MSL : Permanent Datum
UWI .                              RAJAMANDALA : Unique Well ID
ELZ .FT                                    0.0 : Elevation Log Zero
OS  .                                  NEUTRON : Services
SRVC.                                          : Service company
DATE.                                          : Date
~Curve Information -----------------------------------------
DEPT.FT    : 1  Depth
GR  .GAPI  : 2  Gamma-Ray Log
NEUT.%     : 3  Neutron Log Porosity
~Params ----------------------------------------------------
~Other -----------------------------------------------------
~ASCII -----------------------------------------------------
# ...
  448.40000   25.39580 2195.94000
  448.50000   25.30340 2194.65000
  448.60000   25.30340 2194.48000
  448.70000   25.30340 2206.49000
  448.80000   29.51880 2241.41000
  448.90000   29.75030 2247.70000
  449.00000   30.02850 2247.70000
  449.10000   30.39200 2247.70000
  449.20000   32.04490 2242.71000
  449.30000   32.04490 2237.68000
  449.40000   32.04490 2237.04000
  449.50000   32.04490 2233.58000
  449.60000   32.04490 2229.70000
  449.70000   32.04490 2228.41000
  449.80000   32.04490 2223.62000
  449.90000   32.13720 2217.34000
  450.00000   32.22960 2212.17000
  450.10000   21.70180 2209.92000
  450.20000   22.10040 2209.19000
  450.30000   21.36060 2206.61000
  450.40000   21.36060 2203.27000
  450.50000   21.36060 2199.47000
  450.60000   21.36060 2196.88000
  450.70000   21.36060 2195.67000
  450.80000   21.36060 2195.69000
  450.90000   21.36060 2198.28000
  451.00000   27.09380 2214.62000
  451.10000   27.12460 2245.64000
  451.20000   27.15540 2260.53000
  451.30000   27.18630 2270.62000
  451.40000   27.18630 2275.35000
  451.50000   27.18630 2280.09000
  451.60000   27.18630 2287.84000
  451.70000   27.18630 2300.34000
  451.80000   27.09380 2321.02000
  451.90000   27.00130 2338.16000
  452.00000   26.90890 2345.91000
  452.10000   26.78560 2355.25000
  452.20000   26.66230 2397.78000
  452.30000   24.13470 2519.92000
  452.40000   24.08850 2548.26000
  452.50000   24.04230 2548.26000
  452.60000   24.04230 2548.26000
  452.70000   26.84990 2548.26000
  452.80000   31.99470 2549.36000
  452.90000   31.99470 2554.96000
  453.00000   31.99470 2560.56000
  453.10000   31.99470 2566.16000
  453.20000   31.99470 2571.76000
  453.30000   30.14530 2573.87000
  453.40000   30.00660 2566.00000
  453.50000   29.03570 2561.15000
  453.60000   29.00480 2556.30000
  453.70000   28.97400 2551.46000
  453.80000   28.94320 2546.61000
  453.90000   28.94320 2541.14000
  454.00000   28.94320 2535.11000
  454.10000   29.03570 2529.08000
  454.20000   29.12810 2523.04000
  454.30000   30.70010 2517.01000
  454.40000   30.76180 2503.56000
  454.50000   30.82340 2489.77000
  454.60000   30.88510 2475.99000
  454.70000   30.88510 2462.20000
  454.80000   30.88510 2452.10000
  454.90000   30.88510 2447.90000
  455.00000   30.88510 2443.70000
  455.10000   26.81640 2439.50000
  455.20000   26.77010 2435.29000
  455.30000   26.72390 2431.09000
  455.40000   26.72390 2419.17000
  455.50000   26.72390 2388.15000
  455.60000   26.72390 2380.83000
  455.70000   26.72390 2381.45000
  455.80000   26.81640 2384.04000
  455.90000   26.95510 2390.32000
  456.00000   27.37120 2411.23000
  456.10000   28.11100 2487.48000
  456.20000   28.20340 2512.80000
  456.30000   30.42270 2512.80000
  456.40000   30.56140 2512.80000
  456.50000   32.64200 2509.59000
  456.60000   32.73450 2504.42000
  456.70000   32.73450 2499.26000
  456.80000   32.73450 2442.34000
  456.90000   32.67280 2350.60000
  457.00000   32.61120 2336.38000
  457.10000   32.54950 2328.93000
  457.20000   32.50330 2327.64000
  457.30000   32.36460 2317.30000
  457.40000   32.33380 2307.58000
  457.50000   32.30290 2298.53000
  457.60000   32.08720 2296.87000
  457.70000   32.05800 2296.13000
  457.80000   32.42210 2296.13000
  457.90000   35.47390 2300.80000
  458.00000   37.58910 2305.48000
  458.10000   37.71040 2309.35000
  458.20000   37.98760 2337.57000
  458.30000   38.25070 2359.73000
  458.40000   38.43280 2361.46000
  458.50000   38.51670 2363.18000
  458.60000   38.59460 2364.90000
  458.70000   38.71600 2366.63000
  458.80000   38.74510 2368.27000
  458.90000   38.70940 2369.88000
  459.00000   38.68920 2371.50000
  459.10000   37.58900 2373.11000
  459.20000   36.29520 2383.72000
  459.30000   36.05250 2433.16000
  459.40000   33.28930 2466.94000
  459.50000   33.26620 2498.22000
  459.60000   33.24310 2562.84000
  459.70000   33.21990 2587.66000
  459.80000   33.19680 2584.92000
  459.90000   33.10440 2555.19000
  460.00000   33.10440 2536.48000
  460.10000   33.10440 2526.02000
  460.20000   33.28930 2513.09000
  460.30000   33.19680 2505.55000
  460.40000   42.44390 2502.96000
  460.50000   42.44390 2501.66000
  460.60000   42.44390 2500.98000
  460.70000   42.44390 2502.88000
  460.80000   42.44390 2525.01000
  460.90000   42.35140 2539.23000
  461.00000   42.16640 2541.18000
  461.10000   38.19020 2543.11000
  461.20000   38.14400 2545.29000
  461.30000   38.09780 2547.88000
  461.40000   38.09780 2550.46000
  461.50000   38.14400 2555.17000
  461.60000   38.19020 2564.22000
  461.70000   38.32890 2572.23000
  461.80000   38.46760 2581.79000
  461.90000   38.56010 2596.00000
  462.00000   38.60630 2606.31000
  462.10000   38.65260 2613.26000
  462.20000   38.69880 2613.26000
  462.30000   38.74500 2613.26000
  462.40000   39.29990 2606.84000
  462.50000   38.64260 2571.94000
  462.60000   38.19970 2559.23000
  462.70000   37.70310 2557.93000
  462.80000   37.52110 2556.64000
  462.90000   37.37620 2556.14000
  463.00000   37.24410 2556.14000
  463.10000   37.00150 2556.14000
  463.20000   36.81010 2562.70000
  463.30000   36.56140 2574.03000
  463.40000   33.98260 2577.90000
  463.50000   32.73450 2581.45000
  463.60000   32.73450 2584.67000
  463.70000   32.73450 2612.27000
  463.80000   32.73450 2631.28000
  463.90000   32.73450 2640.33000
  464.00000   32.40990 2644.50000
  464.10000   32.06610 2647.84000
  464.20000   31.72230 2650.42000
  464.30000   31.37840 2653.01000
  464.40000   31.09480 2654.63000
  464.50000   30.91270 2654.63000
  464.60000   30.73060 2649.15000
  464.70000   30.54860 2644.15000
  464.80000   30.36660 2642.22000
  464.90000   30.18460 2625.80000
  465.00000   30.00820 2608.79000
  465.10000   29.84640 2599.74000
  465.20000   29.68460 2590.70000
  465.30000   29.52280 2582.54000
  465.40000   29.36100 2577.37000
  465.50000   29.04250 2560.37000
  465.60000   28.65820 2541.88000
  465.70000   28.27400 2539.30000
  465.80000   27.09360 2530.78000
  465.90000   25.70670 2519.31000
  466.00000   26.39350 2508.97000
  466.10000   26.70520 2500.99000
  466.20000   26.82660 2495.08000
  466.30000   26.94790 2495.08000
  466.40000   27.10320 2496.16000
  466.50000   27.31150 2498.10000
  466.60000   28.22160 2500.04000
  466.70000   28.69680 2501.64000
  466.80000   28.75750 2502.93000
  466.90000   28.81820 2591.07000
  467.00000   28.87890 2638.87000
  467.10000   28.93960 2636.98000
  467.20000   28.94320 2634.47000
  467.30000   28.93060 2618.98000
  467.40000   28.90030 2585.38000
  467.50000   28.76170 2556.38000
  467.60000   28.64350 2536.51000
  467.70000   28.58280 2531.34000
  467.80000   28.57330 2526.17000
  467.90000   30.51520 2521.27000
  468.00000   30.27490 2516.97000
  468.10000   30.23780 2512.66000
  468.20000   30.47750 2508.35000
  468.30000   30.61100 2504.04000
  468.40000   31.48880 2472.01000
  468.50000   32.38500 2438.76000
  468.60000   32.47600 2433.59000
  468.70000   35.04620 2428.42000
  468.80000   35.07710 2423.48000
  468.90000   35.10790 2419.60000
  469.00000   35.23120 2412.35000
  469.10000   35.23120 2401.98000
  469.20000   35.23120 2382.60000
  469.30000   35.23120 2368.67000
  469.40000   35.23120 2358.88000
  469.50000   31.05830 2355.44000
  469.60000   30.91000 2351.99000
  469.70000   28.20340 2348.54000
  469.80000   28.14800 2345.09000
  469.90000   28.09250 2340.77000
  470.00000   28.03700 2335.60000
  470.10000   27.98150 2331.07000
  470.20000   27.92600 2326.55000
  470.30000   27.92600 2322.02000
  470.40000   27.92600 2301.17000
  470.50000   32.54950 2287.98000
  470.60000   32.54950 2287.33000
  470.70000   32.54950 2284.39000
  470.80000   32.54950 2280.93000
  470.90000   32.54950 2277.05000
  471.00000   32.54950 2274.26000
  471.10000   32.54950 2272.49000
  471.20000   32.54950 2313.31000
  471.30000   32.54950 2324.88000
  471.40000   32.27210 2331.34000
  471.50000   32.45710 2337.81000
  471.60000   25.15190 2344.27000
  471.70000   25.27110 2352.63000
  471.80000   25.39240 2367.71000
  471.90000   25.51380 2382.78000
