~Version ---------------------------------------------------
VERS. 2.0 : CWLS log ASCII Standard -VERSION 2.0
WRAP.  NO : One line per depth step
~Well ------------------------------------------------------
STRT.FT                                    0.0 : START
STOP.FT                                  600.0 : STOP
STEP.FT                                    0.1 : STEP
NULL.                                  -999.25 : NULL VALUE
COMP.                              RAJAMANDALA : Company
WELL.                              RAJAMANDALA : Well Name
FLD .                                          : Field
CTRY.                              RAJAMANDALA : Country
STAT.                              RAJAMANDALA : State
PROV.                                          : Province
LOC .                                          : Field Location
LATI.                 000 01' 09.000" S    DMS : Latitude
LONG.                 000 10' 39.000" E    DMS : Longitude
PD  .                                      MSL : Permanent Datum
UWI .                              RAJAMANDALA : Unique Well ID
ELZ .FT                                    0.0 : Elevation Log Zero
OS  .                                  NEUTRON : Services
SRVC.                                          : Service company
DATE.                                          : Date
~Curve Information -----------------------------------------
DEPT.FT    : 1  Depth
GR  .GAPI  : 2  Gamma-Ray Log
NEUT.%     : 3  Neutron Log Porosity
~Params ----------------------------------------------------
~Other -----------------------------------------------------
~ASCII -----------------------------------------------------
# ...
  566.40000   63.14810 2587.53000
  566.50000   63.14810 2586.23000
  566.60000   63.14810 2584.95000
  566.70000   63.05560 2584.65000
  566.80000   53.59190 2588.43000
  566.90000   49.33900 2603.93000
  567.00000   48.14820 2610.59000
  567.10000   48.21780 2615.09000
  567.20000   48.25830 2624.77000
  567.30000   48.29880 2650.52000
  567.40000   48.35130 2679.13000
  567.50000   48.47280 2676.91000
  567.60000   48.59430 2674.97000
  567.70000   48.87990 2673.23000
  567.80000   50.64180 2673.23000
  567.90000   51.38890 2672.49000
  568.00000   51.38890 2671.23000
  568.10000   51.38890 2670.58000
  568.20000   50.45860 2670.28000
  568.30000   48.69300 2683.27000
  568.40000   46.01970 2733.65000
  568.50000   44.62960 2759.84000
  568.60000   55.41990 2758.89000
  568.70000   55.74070 2750.83000
  568.80000   55.76690 2734.90000
  568.90000   55.82770 2709.07000
  569.00000   55.83330 2706.69000
  569.10000   55.83330 2706.69000
  569.20000   55.83330 2706.69000
  569.30000   55.78100 2706.69000
  569.40000   52.63780 2706.69000
  569.50000   42.77780 2706.69000
  569.60000   42.50000 2708.79000
  569.70000   42.43060 2711.75000
  569.80000   42.36110 2715.62000
  569.90000   42.29170 2724.43000
  570.00000   42.12960 2732.90000
  570.10000   42.12960 2735.49000
  570.20000   42.12960 2744.55000
  570.30000   42.12960 2755.68000
  570.40000   42.26850 2764.72000
  570.50000   42.40740 2768.58000
  570.60000   42.40740 2769.69000
  570.70000   42.50000 2720.92000
  570.80000   46.01850 2704.72000
  570.90000   46.01850 2704.72000
  571.00000   46.01850 2704.72000
  571.10000   46.01850 2704.72000
  571.20000   46.01850 2704.72000
  571.30000   46.01850 2704.72000
  571.40000   46.01850 2698.18000
  571.50000   41.75930 2685.70000
  571.60000   41.75930 2673.21000
  571.70000   41.75930 2660.73000
  571.80000   41.75930 2648.24000
  571.90000   41.75930 2639.03000
  572.00000   41.75930 2629.99000
  572.10000   41.75930 2620.95000
  572.20000   41.80560 2611.91000
  572.30000   41.85190 2599.43000
  572.40000   41.94440 2581.34000
  572.50000   42.08330 2578.74000
  572.60000   45.92590 2585.13000
  572.70000   45.95680 2588.58000
  572.80000   45.98770 2618.11000
  572.90000   46.01850 2645.53000
  573.00000   46.01850 2651.99000
  573.10000   46.01850 2664.34000
  573.20000   46.00000 2676.42000
  573.30000   45.98150 2681.58000
  573.40000   45.96300 2690.43000
  573.50000   45.94440 2698.82000
  573.60000   45.46300 2694.21000
  573.70000   45.46300 2691.20000
  573.80000   45.46300 2687.90000
  573.90000   37.22220 2680.15000
  574.00000   37.19910 2674.78000
  574.10000   37.17590 2671.14000
  574.20000   37.15280 2669.85000
  574.30000   36.94440 2668.19000
  574.40000   36.88270 2666.25000
  574.50000   36.82100 2664.32000
  574.60000   36.75930 2662.72000
  574.70000   36.60490 2661.43000
  574.80000   36.45060 2660.13000
  574.90000   36.29630 2659.45000
  575.00000   36.23460 2664.20000
  575.10000   36.17280 2667.43000
  575.20000   36.11110 2670.39000
  575.30000   36.08800 2672.97000
  575.40000   36.06480 2689.51000
  575.50000   36.04170 2732.84000
  575.60000   35.83330 2818.09000
  575.70000   35.83340 2875.83000
  575.80000   35.17580 2911.42000
  575.90000   33.17080 2911.42000
  576.00000   32.77780 2898.96000
  576.10000   31.74010 2887.80000
  576.20000   28.03390 2887.80000
  576.30000   27.03780 2887.80000
  576.40000   26.91630 2887.90000
  576.50000   26.79480 2888.33000
  576.60000   26.67330 2888.76000
  576.70000   26.57410 2889.19000
  576.80000   30.17080 2889.61000
  576.90000   31.20370 2889.76000
  577.00000   31.20370 2889.76000
  577.10000   31.20370 2889.76000
  577.20000   31.38960 2889.76000
  577.30000   31.66670 2889.76000
  577.40000   31.27010 2889.76000
  577.50000   31.09400 2888.67000
  577.60000   31.06120 2886.73000
  577.70000   30.97000 2884.80000
  577.80000   30.80050 2875.20000
  577.90000   30.55750 2858.40000
  578.00000   29.37030 2846.74000
  578.10000   28.17540 2831.48000
  578.20000   26.98050 2812.11000
  578.30000   25.78560 2807.37000
  578.40000   24.79490 2796.44000
  578.50000   24.08610 2775.77000
  578.60000   21.05460 2772.46000
  578.70000   18.98150 2771.17000
  578.80000   18.98150 2769.89000
  578.90000   19.03300 2766.40000
  579.00000   19.11350 2762.52000
  579.10000   19.23490 2758.65000
  579.20000   19.35650 2712.41000
  579.30000   19.88050 2668.05000
  579.40000   21.46010 2656.42000
  579.50000   21.85180 2650.63000
  579.60000   21.82410 2647.05000
  579.70000   21.70270 2644.47000
  579.80000   21.58110 2643.70000
  579.90000   21.45960 2644.44000
  580.00000   21.33810 2644.86000
  580.10000   21.05710 2645.29000
  580.20000   21.75930 2655.39000
  580.30000   21.80560 2729.01000
  580.40000   21.85190 2757.87000
  580.50000   21.91360 2756.84000
  580.60000   21.97530 2756.19000
  580.70000   22.96300 2744.34000
  580.80000   23.19440 2724.33000
  580.90000   23.61110 2722.18000
  581.00000   23.88890 2720.03000
  581.10000   23.88890 2717.88000
  581.20000   23.88890 2715.72000
  581.30000   23.79630 2713.37000
  581.40000   23.70370 2710.78000
  581.50000   23.42590 2710.63000
  581.60000   23.42590 2710.63000
  581.70000   23.14810 2710.63000
  581.80000   22.96300 2711.78000
  581.90000   22.91670 2713.08000
  582.00000   19.62960 2714.37000
  582.10000   19.59880 2715.66000
  582.20000   19.56790 2731.83000
  582.30000   19.53700 2779.62000
  582.40000   19.58330 2795.54000
  582.50000   19.62960 2802.76000
  582.60000   19.67590 2808.57000
  582.70000   21.29630 2814.39000
  582.80000   21.85190 2821.50000
  582.90000   21.89810 2833.12000
  583.00000   21.94440 2843.39000
  583.10000   21.97530 2853.08000
  583.20000   22.00620 2862.77000
  583.30000   22.03700 2870.07000
  583.40000   22.03700 2876.10000
  583.50000   22.03700 2882.12000
  583.60000   22.03700 2920.14000
  583.70000   22.03700 2974.46000
  583.80000   22.03700 2975.10000
  583.90000   22.03700 2975.75000
  584.00000   22.03700 2976.39000
  584.10000   22.12960 2976.71000
  584.20000   22.22220 2977.03000
  584.30000   22.96300 2977.35000
  584.40000   23.05560 2977.68000
  584.50000   26.20370 2978.00000
  584.60000   26.48150 2978.33000
  584.70000   27.68520 2978.35000
  584.80000   29.44440 2978.35000
  584.90000   29.44440 2978.35000
  585.00000   29.44440 2978.35000
  585.10000   29.44440 2978.35000
  585.20000   29.44440 2978.35000
  585.30000   29.44440 2978.35000
  585.40000   29.44440 2978.35000
  585.50000   29.44440 2978.35000
  585.60000   29.44440 2978.35000
  585.70000   29.44440 2978.35000
  585.80000   29.44440 2978.35000
  585.90000   29.44440 2978.35000
  586.00000   29.44440 2978.35000
  586.10000   29.44440 2978.35000
  586.20000   29.44440 2978.35000
  586.30000   29.44440 2978.35000
  586.40000   29.44440 2978.35000
  586.50000   29.44440 2978.35000
  586.60000   29.44440 2978.35000
  586.70000   29.44440 2978.35000
  586.80000   29.44440 2978.35000
  586.90000   29.44440 2978.35000
  587.00000   29.44440 2978.35000
  587.10000   29.44440 2978.35000
  587.20000   29.44380 2978.35000
  587.30000   29.42360 2978.35000
  587.40000   29.40340 2978.35000
  587.50000   29.38310 2978.35000
  587.60000   29.36280 2978.35000
  587.70000   29.35180 2978.40000
  587.80000   29.35180 2978.52000
  587.90000   29.35180 2978.63000
  588.00000   29.35180 2978.75000
  588.10000   29.35180 2978.87000
  588.20000   29.35180 2978.98000
  588.30000   29.35180 2979.10000
  588.40000   29.35180 2979.22000
  588.50000   29.35180 2979.34000
  588.60000   29.35180 2979.46000
  588.70000   29.35180 2979.57000
  588.80000   29.35180 2979.69000
  588.90000   29.35180 2979.81000
  589.00000   29.35180 2979.93000
  589.10000   29.35180 2980.05000
  589.20000   29.35180 2980.16000
  589.30000   29.35180 2980.28000
  589.40000   29.35180 2980.31000
  589.50000   29.35180 2980.31000
  589.60000   29.35180 2980.31000
  589.70000   29.33230 2980.31000
  589.80000   29.30190 2980.31000
  589.90000   29.27150 2980.31000
