~Version ---------------------------------------------------
VERS. 2.0 : CWLS log ASCII Standard -VERSION 2.0
WRAP.  NO : One line per depth step
~Well ------------------------------------------------------
STRT.FT                                    0.0 : START
STOP.FT                                  600.0 : STOP
STEP.FT                                    0.1 : STEP
NULL.                                  -999.25 : NULL VALUE
COMP.                              RAJAMANDALA : Company
WELL.                              RAJAMANDALA : Well Name
FLD .                                          : Field
CTRY.                              RAJAMANDALA : Country
STAT.                              RAJAMANDALA : State
PROV.                                          : Province
LOC .                                          : Field Location
LATI.                 000 01' 09.000" S    DMS : Latitude
LONG.                 000 10' 39.000" E    DMS : Longitude
PD  .                                      MSL : Permanent Datum
UWI .                              RAJAMANDALA : Unique Well ID
ELZ .FT                                    0.0 : Elevation Log Zero
OS  .                                  NEUTRON : Services
SRVC.                                          : Service company
DATE.                                          : Date
~Curve Information -----------------------------------------
DEPT.FT    : 1  Depth
GR  .GAPI  : 2  Gamma-Ray Log
NEUT.%     : 3  Neutron Log Porosity
~Params ----------------------------------------------------
~Other -----------------------------------------------------
~ASCII -----------------------------------------------------
# ...
  165.20000   13.35520 1734.21000
  165.30000   13.41470 1734.21000
  165.40000   13.44730 1735.10000
  165.50000   13.44730 1737.05000
  165.60000   13.50390 1753.54000
  165.70000   13.55190 1764.35000
  165.80000   13.58210 1765.65000
  165.90000   16.02630 1773.84000
  166.00000   16.07240 1779.61000
  166.10000   16.21050 1779.61000
  166.20000   16.27190 1779.61000
  166.30000   16.33330 1779.61000
  166.40000   16.39470 1779.61000
  166.50000   16.45000 1770.38000
  166.60000   16.50530 1761.49000
  166.70000   17.13160 1760.20000
  166.80000   17.17760 1730.96000
  166.90000   17.22370 1700.66000
  167.00000   10.16760 1700.66000
  167.10000    9.64494 1700.66000
  167.20000    9.39477 1700.66000
  167.30000    9.96141 1700.66000
  167.40000   10.20990 1697.72000
  167.50000   10.32330 1693.19000
  167.60000   10.38370 1688.65000
  167.70000   10.40790 1684.12000
  167.80000   10.37570 1679.59000
  167.90000    9.95270 1675.06000
  168.00000    9.66308 1668.50000
  168.10000    9.48513 1660.30000
  168.20000    9.42473 1652.10000
  168.30000    9.36431 1643.90000
  168.40000    9.30386 1635.69000
  168.50000    9.24341 1624.53000
  168.60000    9.18297 1613.30000
  168.70000    9.12252 1602.08000
  168.80000    9.06207 1594.48000
  168.90000    9.02629 1577.98000
  169.00000    9.02629 1548.19000
  169.10000    9.18659 1543.59000
  169.20000    9.41144 1541.36000
  169.30000    9.71362 1537.48000
  169.40000   10.16740 1536.48000
  169.50000   10.55660 1536.05000
  169.60000   10.73790 1535.62000
  169.70000   10.91920 1535.19000
  169.80000   11.16430 1534.87000
  169.90000   11.58730 1664.19000
  170.00000   12.01040 1708.04000
  170.10000   12.64230 1738.63000
  170.20000   14.03240 1795.61000
  170.30000   14.46050 1813.16000
  170.40000   14.45030 1813.60000
  170.50000   14.38990 1816.19000
  170.60000   14.32950 1817.11000
  170.70000   14.26180 1816.64000
  170.80000   14.14090 1812.75000
  170.90000   14.02010 1806.04000
  171.00000   13.90790 1797.41000
  171.10000   13.90790 1788.77000
  171.20000   13.84170 1780.14000
  171.30000   13.72370 1771.47000
  171.40000   13.72370 1761.43000
  171.50000   13.72370 1751.39000
  171.60000   13.72370 1741.36000
  171.70000   16.94740 1731.32000
  171.80000   16.99340 1721.29000
  171.90000   17.03950 1711.25000
  172.00000   17.03950 1704.52000
  172.10000   17.01640 1698.04000
  172.20000   16.99340 1691.57000
  172.30000   16.97040 1685.09000
  172.40000   16.94740 1677.85000
  172.50000   16.87830 1669.21000
  172.60000   16.80920 1660.58000
  172.70000   16.74010 1651.95000
  172.80000   16.67110 1643.32000
  172.90000   16.62500 1633.33000
  173.00000   16.48680 1622.97000
  173.10000   16.44080 1612.61000
  173.20000   15.65790 1602.24000
  173.30000   15.47370 1592.16000
  173.40000   15.47370 1583.09000
  173.50000   15.28950 1572.24000
  173.60000   15.24340 1562.50000
  173.70000   13.17110 1562.50000
  173.80000   12.52630 1561.67000
  173.90000   12.45720 1560.38000
  174.00000   12.38820 1559.08000
  174.10000   12.31910 1530.95000
  174.20000   12.15790 1487.50000
  174.30000   12.15790 1487.50000
  174.40000   12.15790 1488.91000
  174.50000   19.06580 1491.45000
  174.60000   19.11180 1491.45000
  174.70000   19.15790 1511.36000
  174.80000   19.25000 1551.51000
  174.90000   19.27300 1560.18000
  175.00000   19.29610 1565.63000
  175.10000   19.31910 1568.22000
  175.20000   19.34210 1585.17000
  175.30000   15.75000 1596.57000
  175.40000   15.75000 1597.87000
  175.50000   15.75000 1603.70000
  175.60000   15.75000 1608.19000
  175.70000   15.75000 1609.06000
  175.80000   15.75000 1609.93000
  175.90000   15.75000 1611.19000
  176.00000   15.75000 1613.34000
  176.10000   15.93420 1613.82000
  176.20000   16.11840 1596.04000
  176.30000   17.03950 1588.26000
  176.40000   17.17760 1581.44000
  176.50000   17.40790 1566.62000
  176.60000   17.59210 1519.99000
  176.70000   19.06580 1504.38000
  176.80000   21.27630 1502.88000
  176.90000   21.32240 1500.28000
  177.00000   21.36840 1499.34000
  177.10000   21.41450 1502.16000
  177.20000   21.46050 1503.90000
  177.30000   21.46050 1511.72000
  177.40000   21.46050 1523.07000
  177.50000   21.46050 1523.71000
  177.60000   14.00000 1524.36000
  177.70000   14.00000 1525.00000
  177.80000   14.00000 1523.69000
  177.90000   14.00000 1520.48000
  178.00000   14.00000 1515.30000
  178.10000   14.00000 1473.76000
  178.20000   14.00000 1449.43000
  178.30000   14.09210 1448.13000
  178.40000   14.27630 1446.83000
  178.50000   14.64470 1446.05000
  178.60000   15.28950 1446.96000
  178.70000   15.42760 1551.50000
  178.80000   16.39470 1629.61000
  178.90000   16.44080 1629.61000
  179.00000   16.48680 1629.61000
  179.10000   20.07890 1629.61000
  179.20000   20.07890 1629.61000
  179.30000   20.07890 1654.73000
  179.40000   20.07890 1682.21000
  179.50000   20.07890 1695.16000
  179.60000   19.98680 1716.59000
  179.70000   19.91780 1737.24000
  179.80000   16.39470 1742.42000
  179.90000   16.34870 1778.42000
  180.00000   16.30260 1821.05000
  180.10000   16.11840 1821.05000
  180.20000   16.07240 1816.14000
  180.30000   16.02630 1808.93000
  180.40000   15.98030 1806.34000
  180.50000   15.93420 1803.75000
  180.60000   15.56580 1801.16000
  180.70000   15.51970 1798.57000
  180.80000   15.47370 1795.98000
  180.90000   15.47370 1793.38000
  181.00000   15.28950 1790.37000
  181.10000   15.81140 1787.34000
  181.20000   15.78070 1784.32000
  181.30000   15.75000 1781.30000
  181.40000   13.63370 1764.22000
  181.50000   13.37680 1729.26000
  181.60000   13.02310 1722.76000
  181.70000   12.66050 1675.72000
  181.80000   12.29790 1561.75000
  181.90000   11.93520 1533.22000
  182.00000   11.66960 1522.58000
  182.10000   11.58910 1521.28000
  182.20000   11.50850 1521.05000
  182.30000   11.42780 1521.05000
  182.40000   11.34730 1521.05000
  182.50000   11.32890 1551.04000
  182.60000   11.47170 1580.90000
  182.70000   11.55230 1583.49000
  182.80000   11.63290 1585.15000
  182.90000   11.69730 1586.31000
  183.00000   11.62480 1586.96000
  183.10000   11.56440 1591.11000
  183.20000   11.50400 1600.97000
  183.30000   11.44360 1633.35000
  183.40000   11.38310 1648.65000
  183.50000   11.32890 1654.77000
  183.60000   11.59580 1669.02000
  183.70000   11.83750 1677.50000
  183.80000   12.07930 1683.01000
  183.90000   12.32110 1708.47000
  184.00000   12.57350 1720.39000
  184.10000   12.83540 1718.41000
  184.20000   13.09730 1717.12000
  184.30000   13.35920 1715.20000
  184.40000   13.62110 1712.60000
  184.50000   13.80560 1708.77000
  184.60000   13.98690 1700.93000
  184.70000   14.16820 1687.98000
  184.80000   14.34950 1677.39000
  184.90000   14.48980 1670.05000
  185.00000   14.56540 1667.46000
  185.10000   14.64100 1664.87000
  185.20000   14.71650 1661.40000
  185.30000   14.79200 1656.21000
  185.40000   14.86760 1655.26000
  185.50000   14.92110 1654.51000
  185.60000   14.79090 1651.92000
  185.70000   14.69010 1651.32000
  185.80000   14.58940 1757.89000
  185.90000   14.48870 1757.89000
  186.00000   14.30100 1757.89000
  186.10000   14.07940 1761.95000
  186.20000   13.85780 1782.67000
  186.30000   13.63610 1789.47000
  186.40000   13.43840 1770.71000
  186.50000   13.37790 1759.48000
  186.60000   13.31750 1748.26000
  186.70000   13.25720 1737.67000
  186.80000   13.19670 1732.82000
  186.90000   13.13630 1727.96000
  187.00000   13.07890 1723.11000
  187.10000   13.65110 1718.24000
  187.20000   14.19510 1713.39000
  187.30000   14.73900 1708.54000
  187.40000   15.28290 1705.95000
  187.50000   15.83650 1700.88000
  187.60000   16.40060 1693.10000
  187.70000   16.96470 1692.76000
  187.80000   17.52880 1694.03000
  187.90000   18.09290 1694.68000
  188.00000   18.51060 1694.74000
  188.10000   18.91340 1694.74000
  188.20000   19.31640 1694.74000
  188.30000   20.49890 1712.56000
  188.40000   21.36840 1727.19000
  188.50000   21.24720 1729.77000
  188.60000   21.15660 1738.67000
  188.70000   21.09210 1746.80000
