~Version ---------------------------------------------------
VERS. 2.0 : CWLS log ASCII Standard -VERSION 2.0
WRAP.  NO : One line per depth step
~Well ------------------------------------------------------
STRT.FT                                    0.0 : START
STOP.FT                                  600.0 : STOP
STEP.FT                                    0.1 : STEP
NULL.                                  -999.25 : NULL VALUE
COMP.                              RAJAMANDALA : Company
WELL.                              RAJAMANDALA : Well Name
FLD .                                          : Field
CTRY.                              RAJAMANDALA : Country
STAT.                              RAJAMANDALA : State
PROV.                                          : Province
LOC .                                          : Field Location
LATI.                 000 01' 09.000" S    DMS : Latitude
LONG.                 000 10' 39.000" E    DMS : Longitude
PD  .                                      MSL : Permanent Datum
UWI .                              RAJAMANDALA : Unique Well ID
ELZ .FT                                    0.0 : Elevation Log Zero
OS  .                                  NEUTRON : Services
SRVC.                                          : Service company
DATE.                                          : Date
~Curve Information -----------------------------------------
DEPT.FT    : 1  Depth
GR  .GAPI  : 2  Gamma-Ray Log
NEUT.%     : 3  Neutron Log Porosity
~Params ----------------------------------------------------
~Other -----------------------------------------------------
~ASCII -----------------------------------------------------
# ...
  424.80000   30.21680 2797.13000
  424.90000   30.39860 2807.05000
  425.00000   30.58040 2816.97000
  425.10000   30.73660 2824.02000
  425.20000   30.87290 2830.50000
  425.30000   31.00920 2876.09000
  425.40000   31.14560 2898.16000
  425.50000   31.28190 2898.16000
  425.60000   31.41830 2863.52000
  425.70000   32.59680 2843.43000
  425.80000   34.96000 2840.19000
  425.90000   35.09230 2832.08000
  426.00000   35.09230 2808.73000
  426.10000   35.09230 2764.75000
  426.20000   36.55820 2759.02000
  426.30000   37.67590 2758.21000
  426.40000   37.91830 2759.98000
  426.50000   38.10930 2775.54000
  426.60000   38.31070 2787.78000
  426.70000   38.55310 2787.78000
  426.80000   38.89250 2787.78000
  426.90000   39.23930 2787.78000
  427.00000   39.54230 2787.78000
  427.10000   39.70850 2787.78000
  427.20000   38.97100 2781.29000
  427.30000   38.97100 2752.84000
  427.40000   38.97100 2744.11000
  427.50000   38.97100 2743.68000
  427.60000   38.97100 2743.25000
  427.70000   38.89710 2742.82000
  427.80000   38.82320 2742.44000
  427.90000   38.74930 2809.79000
  428.00000   38.67550 2833.11000
  428.10000   38.60160 2833.11000
  428.20000   36.38520 2833.11000
  428.30000   36.29290 2833.11000
  428.40000   36.20050 2833.11000
  428.50000   33.70710 2833.11000
  428.60000   33.68400 2833.33000
  428.70000   33.66090 2833.76000
  428.80000   33.63790 2834.20000
  428.90000   33.61480 2834.63000
  429.00000   33.61480 2835.06000
  429.10000   33.61480 2835.09000
  429.20000   33.61480 2837.78000
  429.30000   33.61480 2844.24000
  429.40000   33.61480 2880.70000
  429.50000   33.98420 2908.42000
  429.60000   34.03030 2914.89000
  429.70000   36.20050 2921.36000
  429.80000   38.45380 2946.87000
  429.90000   38.23220 3012.82000
  430.00000   38.04750 3028.85000
  430.10000   38.04750 3035.26000
  430.20000   37.77040 3050.13000
  430.30000   37.77040 3174.81000
  430.40000   37.40110 3300.26000
  430.50000   37.27790 3300.26000
  430.60000   37.15480 3270.39000
  430.70000   37.03170 3234.54000
  430.80000   36.90850 3230.65000
  430.90000   36.78540 3228.04000
  431.00000   47.83640 3226.10000
  431.10000   47.83640 3224.16000
  431.20000   47.83640 3126.52000
  431.30000   47.83640 2978.98000
  431.40000   48.02110 2978.98000
  431.50000   48.02110 2978.98000
  431.60000   48.14420 2978.98000
  431.70000   48.26740 2978.98000
  431.80000   50.23750 2979.31000
  431.90000   50.32980 2979.95000
  432.00000   50.60690 2984.42000
  432.10000   50.60690 2995.79000
  432.20000   50.60690 3015.19000
  432.30000   50.42220 3017.64000
  432.40000   38.10740 3018.40000
  432.50000   37.80440 3018.40000
  432.60000   37.23240 2894.36000
  432.70000   36.57500 2804.89000
  432.80000   35.82760 2803.17000
  432.90000   35.08020 2801.44000
  433.00000   33.10740 2799.31000
  433.10000   28.48190 2796.29000
  433.20000   27.51980 2795.66000
  433.30000   27.51980 2806.41000
  433.40000   27.51980 2846.50000
  433.50000   27.62500 2857.41000
  433.60000   27.76640 2861.02000
  433.70000   27.90770 2874.39000
  433.80000   29.01920 2878.45000
  433.90000   30.37370 2878.45000
  434.00000   30.85840 2878.45000
  434.10000   31.14680 2878.45000
  434.20000   31.35870 2854.71000
  434.30000   31.78280 2663.30000
  434.40000   31.97070 2582.85000
  434.50000   32.00560 2576.58000
  434.60000   32.09650 2572.70000
  434.70000   32.13720 2570.96000
  434.80000   32.02520 2574.34000
  434.90000   28.02590 2589.21000
  435.00000   26.04220 2613.53000
  435.10000   26.04220 2647.16000
  435.20000   26.04220 2649.10000
  435.30000   26.34620 2649.80000
  435.40000   27.01280 2649.80000
  435.50000   27.05810 2647.39000
  435.60000   27.25590 2644.81000
  435.70000   27.74070 2642.22000
  435.80000   27.90400 2636.20000
  435.90000   27.98150 2630.90000
  436.00000   21.05910 2627.67000
  436.10000   20.12300 2617.95000
  436.20000   20.03960 2607.15000
  436.30000   20.35760 2596.80000
  436.40000   21.50720 2571.17000
  436.50000   22.58100 2547.91000
  436.60000   22.76280 2542.74000
  436.70000   22.81010 2517.47000
  436.80000   22.81010 2491.28000
  436.90000   22.81010 2487.40000
  437.00000   22.76810 2485.31000
  437.10000   22.68720 2483.36000
  437.20000   22.50530 2478.19000
  437.30000   22.41460 2475.52000
  437.40000   22.37430 2474.38000
  437.50000   22.33380 2474.38000
  437.60000   22.22120 2474.38000
  437.70000   22.07120 2482.20000
  437.80000   22.07120 2590.84000
  437.90000   23.26670 2651.29000
  438.00000   25.40600 2671.65000
  438.10000   25.83010 2678.55000
  438.20000   26.19370 2719.94000
  438.30000   26.49670 2795.81000
  438.40000   27.21360 2797.63000
  438.50000   27.80380 2750.33000
  438.60000   28.99740 2750.33000
  438.70000   28.99740 2750.33000
  438.80000   29.08970 2750.33000
  438.90000   29.08970 2750.33000
  439.00000   29.08970 2746.54000
  439.10000   29.18210 2742.23000
  439.20000   29.18210 2737.91000
  439.30000   29.18210 2733.60000
  439.40000   21.05540 2729.32000
  439.50000   21.00920 2725.12000
  439.60000   20.77840 2724.21000
  439.70000   20.73220 2740.47000
  439.80000   20.68600 2739.66000
  439.90000   20.59370 2739.01000
  440.00000   20.63980 2737.68000
  440.10000   23.36410 2733.80000
  440.20000   23.45650 2695.22000
  440.30000   23.54880 2649.80000
  440.40000   23.64120 2649.80000
  440.50000   23.68730 2650.08000
  440.60000   23.73350 2650.51000
  440.70000   23.77970 2650.94000
  440.80000   23.82590 2658.26000
  440.90000   24.01060 2669.51000
  441.00000   24.01060 2669.51000
  441.10000   24.01060 2669.51000
  441.20000   24.01060 2669.51000
  441.30000   24.01060 2669.51000
  441.40000   20.13190 2669.19000
  441.50000   20.08580 2668.55000
  441.60000   20.03960 2667.90000
  441.70000   20.03960 2658.85000
  441.80000   20.03960 2639.45000
  441.90000   20.03960 2637.98000
  442.00000   20.03960 2655.77000
  442.10000   20.03960 2697.81000
  442.20000   21.70180 2703.02000
  442.30000   21.74800 2703.02000
  442.40000   21.79420 2703.02000
  442.50000   21.84040 2697.67000
  442.60000   22.07120 2688.06000
  442.70000   22.07120 2671.24000
  442.80000   22.07120 2661.49000
  442.90000   17.91560 2655.72000
  443.00000   17.82320 2655.72000
  443.10000   17.82320 2655.72000
  443.20000   17.82320 2661.64000
  443.30000   17.82320 2690.09000
  443.40000   23.73350 2699.08000
  443.50000   23.77970 2699.08000
  443.60000   23.91820 2699.08000
  443.70000   23.94900 2696.61000
  443.80000   23.97980 2693.17000
  443.90000   24.01060 2693.17000
  444.00000   24.04130 2702.29000
  444.10000   24.07210 2716.82000
  444.20000   24.10290 2716.82000
  444.30000   24.07980 2718.91000
  444.40000   24.05670 2722.73000
  444.50000   24.03360 2632.06000
  444.60000   24.01060 2574.64000
  444.70000   20.87070 2550.07000
  444.80000   20.87070 2536.76000
  444.90000   20.87070 2528.13000
  445.00000   20.87070 2524.90000
  445.10000   20.91690 2521.66000
  445.20000   20.96310 2429.57000
  445.30000   21.00920 2201.94000
  445.40000   21.05540 2172.80000
  445.50000   29.73610 2170.55000
  445.60000   29.79160 2164.08000
  445.70000   29.84700 2159.74000
  445.80000   29.90240 2156.64000
  445.90000   29.95780 2155.35000
  446.00000   30.01320 2152.05000
  446.10000   30.01320 2148.82000
  446.20000   30.01320 2147.52000
  446.30000   29.95160 2146.86000
  446.40000   24.65700 2146.43000
  446.50000   24.65700 2146.00000
  446.60000   24.70320 2145.57000
  446.70000   24.84170 2145.20000
  446.80000   24.98020 2145.20000
  446.90000   25.11870 2145.20000
  447.00000   27.33510 2145.24000
  447.10000   27.42740 2145.56000
  447.20000   27.51980 2170.44000
  447.30000   27.56600 2210.25000
  447.40000   27.61210 2210.25000
  447.50000   27.61210 2210.25000
  447.60000   27.56600 2210.25000
  447.70000   27.51980 2210.25000
  447.80000   27.47360 2208.99000
  447.90000   25.67280 2206.40000
  448.00000   25.64200 2203.82000
  448.10000   25.61130 2201.23000
  448.20000   25.48810 2198.64000
  448.30000   25.39580 2197.24000
