~Version ---------------------------------------------------
VERS. 2.0 : CWLS log ASCII Standard -VERSION 2.0
WRAP.  NO : One line per depth step
~Well ------------------------------------------------------
STRT.M            55.0164 : START
STOP.M            374.904 : STOP
STEP.M 0.1524000000000001 : STEP
NULL.             -999.25 : NULL VALUE
COMP.         RAJAMANDALA : Company
WELL.              33S-15 : Well Name
FLD .         RAJAMANDALA : Field
CTRY.         RAJAMANDALA : Country
STAT.         RAJAMANDALA : State
PROV.                     : Province
LOC .                     : Field Location
PD  .                 MSL : Permanent Datum
UWI .         RAJAMANDALA : Unique Well ID
EKB .M               35.0 : Elevation of KB
ELZ .M               35.0 : Elevation Log Zero
MP  .                  KB : Drill measured from
OS  .                     : Services
SRVC.                     : Service company
RUNS.                   1 : Number of runs
DATE.                     : Date
~Curve Information -----------------------------------------
DEPT.M     : 1  Depth
GR  .API   : 2  Gamma-Ray Log
SN  .OHMM  : 3  Short Normal Resistivity
LN  .OHMM  : 4  Long Normal resistivity
NEUT.CPS   : 5  Neutron Log
~Params ----------------------------------------------------
RUN .                1 : Run number
DATE.      29-AUG-2027 : Log date
DD  .M           374.0 : Depth-Driller
DL  .M           373.6 : Depth-Logger
BLI .M           373.0 : Bottom log interval
TLI .M     RAJAMANDALA : Logging unit Loc
LCC . W.  RAJAMANDALA  : Logging Company ID
~Other -----------------------------------------------------
~ASCII -----------------------------------------------------
# ...
  120.39600   94.04260   32.68560   51.90840   19.55750
  120.54840   99.57450   33.24080   52.39420   19.41470
  120.70080  105.53200   32.68560   51.00620   19.41470
  120.85320   94.25530   33.03260   54.05970   19.41470
  121.00560   94.12180   33.37960   50.45110   19.84300
  121.15800  102.83300   33.58780   50.38170   19.84300
  121.31040  102.34000   33.05560   51.73610   19.55750
  121.46280   93.19150   32.56940   50.13890   19.12920
  121.61520  100.42600   32.70830   49.68770   19.12920
  121.76760  101.91500   32.68560   49.68770   19.14290
  121.92000   98.72340   33.03260   49.47950   19.64290
  122.07240   90.50990   32.82440   48.99380   20.28570
  122.22480   90.50990   32.89380   49.47950   21.28570
  122.37720  103.04500   32.47740   48.43860   21.28570
  122.52960  102.76600   32.70830   50.13890   21.48470
  122.68200   95.53190   32.56940   48.61110   20.84230
  122.83440   98.72340   32.56940   48.12500   20.12850
  122.98680  101.13300   32.84720   48.81940   19.48610
  123.13920  101.55800   32.70830   49.30560   19.91430
  123.29160   89.44760   32.70830   48.33330   21.98430
  123.44400   89.02270   32.54680   50.93680   22.78570
  123.59640  107.72000   32.82440   48.99380   23.35710
  123.74880  114.46800   32.22220   49.44440   23.14290
  123.90120  111.91500   32.22220   48.19440   22.35710
  124.05360  101.98300   32.36110   48.33330   22.28570
  124.20600   97.09630   32.50000   49.79170   22.21430
  124.35840   99.64590   32.36110   49.09720   23.07140
  124.51080   93.90930   32.84720   48.33330   22.35710
  124.66320   95.82150   32.70830   48.68060   23.07140
  124.81560   97.94620   32.50000   47.84720   22.35710
  124.96800   99.43340   32.22220   47.70830   21.35710
  125.12040   85.83570   32.50000   48.33330   21.00000
  125.27280   86.68560   32.56940   49.65280   21.00000
  125.42520   92.20960   32.50000   49.30560   21.28570
  125.57760   94.97170   32.36110   49.65280   22.14290
  125.73000   96.67140   32.22220   49.65280   22.21430
  125.88240   93.05950   32.33870   49.54890   22.35710
  126.03480   97.73370   32.47740   49.68770   22.50000
  126.18720   95.82150   32.36110   50.13890   22.71430
  126.33960   96.67140   32.36110   50.27780   23.00000
  126.49200   89.44760   32.36110   48.95830   23.42860
  126.64440   92.76600   32.36110   47.67520   22.55530
  126.79680   92.76600   31.99170   46.56490   22.84080
  126.94920   92.76600   32.26930   48.23040   23.55460
  127.10160   88.72340   32.22220   47.84720   24.55390
  127.25400   85.95740   32.50000   47.36110   23.12630
  127.40640   86.80850   32.50000   46.77310   22.48390
  127.55880   83.19150   32.47740   47.67520   21.62740
  127.71120   94.68090   32.13050   46.77310   21.48470
  127.86360   87.44680   32.26930   47.25880   21.77020
  128.01600   95.53190   32.08330   47.01390   21.41330
  128.16840   96.80850   31.87500   46.31940   23.19770
  128.32080   89.48860   32.01390   46.77310   23.84010
  128.47320   96.94600   32.47740   47.46700   23.25250
  128.62560   94.38920   32.33870   46.42610   24.03710
  128.77800   99.92900   32.26930   46.35670   24.17970
  128.93040  102.27300   32.13050   46.42610   24.25110
  129.08280   92.04550   32.01390   45.87090   25.24960
  129.23520   90.34090   31.99170   46.42610   25.24960
  129.38760   92.89770   32.33870   46.63430   25.67760
  129.54000   92.04550   32.13050   47.32820   25.74890
  129.69240   96.09380   32.13050   46.21790   23.96580
  129.84480   96.94600   32.13050   46.56490   22.61060
  129.99720   96.94600   32.13050   46.21790   22.18260
  130.14960   88.42330   31.99170   45.87090   22.18260
  130.30200   79.68750   32.13050   46.00970   22.11130
  130.45440   76.70450   32.13050   46.77310   21.68330
  130.60680   69.46020   31.99170   46.42610   21.54070
  130.75920   67.11650   31.99170   46.35670   21.89730
  130.91160   61.57670   31.96950   46.46320   22.18260
  131.06400   57.74150   31.92230   46.56490   22.18260
  131.21640   62.00280   31.92230   47.32820   22.53920
  131.36880   65.62500   31.99170   47.53640   22.11130
  131.52120   67.96880   31.92230   47.88340   22.18260
  131.67360   59.53060   31.96950   47.91960   21.95300
  131.82600   52.06260   31.96950   48.61300   20.59870
  131.97840   51.20910   31.96950   47.32820   20.45620
  132.13080   49.92890   31.99170   48.02220   20.59870
  132.28320   43.95450   32.13050   48.23040   20.74130
  132.43560   44.59460   32.33870   47.67520   20.88380
  132.58800   49.85800   32.38560   47.08740   20.68470
  132.74040   49.21880   32.38560   47.91960   20.32810
  132.89280   48.79260   32.17750   48.33560   20.89870
  133.04520   52.62780   32.33870   48.57740   20.89870
  133.19760   57.31530   32.33870   48.64680   20.89870
  133.35000   54.97160   32.10820   48.12760   21.38280
  133.50240   56.11660   32.10820   47.91960   22.09550
  133.65480   54.62300   31.96950   48.61300   22.38060
  133.80720   55.68990   32.17750   48.61300   22.09550
  133.95960   55.68990   32.17750   49.13250   21.52530
  134.11200   53.98290   32.13050   49.58390   20.45620
  134.26440   52.70270   31.96950   48.95980   21.38280
  134.41680   51.20910   31.90010   49.72260   21.66790
  134.56920   50.78240   31.76140   48.89040   21.52530
  134.72160   52.06260   32.17750   50.20800   23.02210
  134.87400   56.97010   32.31620   49.37590   22.52320
  135.02640   64.86490   32.31620   50.55480   21.52530
  135.17880   68.06540   32.38560   50.55480   21.24020
  135.33120   67.42530   32.52430   49.72260   21.81040
  135.48360   74.25320   32.38560   48.54370   22.09550
  135.63600   74.46660   32.38560   48.33560   22.09550
  135.78840   68.06540   32.38560   48.33560   21.38280
  135.94080   69.34570   32.73230   48.75170   21.02640
  136.09320   65.71840   33.00970   48.75170   20.68470
  136.24560   66.78520   32.68560   49.79200   20.47080
  136.39800   61.23760   32.82440   47.81400   20.02850
  136.55040   63.58460   32.33870   47.46700   20.59870
  136.70280   61.57670   32.33870   49.13250   20.59870
  136.85520   63.92050   32.26930   46.77310   20.31360
  137.00760   70.52560   33.03260   47.67520   21.02640
  137.16000   74.57390   32.68560   48.23040   20.89870
  137.31240   75.00000   32.54680   46.56490   21.11270
  137.46480   74.57390   32.47740   46.18060   20.97000
  137.61720   67.42530   32.50000   46.66670   21.09760
  137.76960   71.26600   32.84720   46.80560   20.74130
  137.92200   66.14510   32.36110   46.87500   21.66790
  138.07440   62.51780   32.36110   46.66670   21.96860
  138.22680   61.87770   32.36110   46.80560   22.75320
  138.37920   66.35850   32.01390   46.52780   23.46650
  138.53160   63.92050   32.01390   46.80560   23.39510
  138.68400   58.80680   32.22220   46.66670   24.17970
  138.83640   61.57670   32.17510   46.07370   23.94870
  138.98880   61.15060   32.03610   46.21260   22.82450
  139.14120   68.60800   32.17510   46.35160   21.75460
  139.29360   69.46020   32.17510   46.21260   21.46930
  139.44600   67.54260   32.45310   46.76860   23.18120
  139.59840   75.42610   32.73110   47.39400   23.75180
  139.75080   75.42610   32.87000   47.53300   23.82310
  139.90320   75.42610   32.59210   47.67200   23.46650
  140.05560   75.00000   32.61470   47.07930   23.82310
  140.20800   70.95170   32.61470   46.66200   23.46650
  140.36040   65.83810   32.75380   47.42700   23.39510
  140.51280   69.03410   33.10150   48.26150   23.96580
  140.66520   69.88640   33.24060   48.40060   24.17970
  140.81760   69.46020   33.21750   45.17030   23.75180
  140.97000   60.51140   33.49550   39.12440   23.75180
  141.12240   60.93750   33.35650   31.54970   24.17970
  141.27480   61.15060   33.24060   24.75660   23.98290
  141.42720   60.08520   33.65790   23.71350   23.69740
  141.57960   69.88640   33.91240   25.66060   24.62530
  141.73200   78.09390   33.91240   25.78180   25.05350
  141.88440   77.66710   33.91240   23.41900   24.89300
  142.03680   68.06540   34.12090   21.68170   24.46500
