~Version ---------------------------------------------------
VERS. 2.0 : CWLS log ASCII Standard -VERSION 2.0
WRAP.  NO : One line per depth step
~Well ------------------------------------------------------
STRT.M            55.0164 : START
STOP.M            374.904 : STOP
STEP.M 0.1524000000000001 : STEP
NULL.             -999.25 : NULL VALUE
COMP.         RAJAMANDALA : Company
WELL.              33S-15 : Well Name
FLD .         RAJAMANDALA : Field
CTRY.         RAJAMANDALA : Country
STAT.         RAJAMANDALA : State
PROV.                     : Province
LOC .                     : Field Location
PD  .                 MSL : Permanent Datum
UWI .         RAJAMANDALA : Unique Well ID
EKB .M               35.0 : Elevation of KB
ELZ .M               35.0 : Elevation Log Zero
MP  .                  KB : Drill measured from
OS  .                     : Services
SRVC.                     : Service company
RUNS.                   1 : Number of runs
DATE.                     : Date
~Curve Information -----------------------------------------
DEPT.M     : 1  Depth
GR  .API   : 2  Gamma-Ray Log
SN  .OHMM  : 3  Short Normal Resistivity
LN  .OHMM  : 4  Long Normal resistivity
NEUT.CPS   : 5  Neutron Log
~Params ----------------------------------------------------
RUN .                1 : Run number
DATE.      29-AUG-2027 : Log date
DD  .M           374.0 : Depth-Driller
DL  .M           373.6 : Depth-Logger
BLI .M           373.0 : Bottom log interval
TLI .M     RAJAMANDALA : Logging unit Loc
LCC . W.  RAJAMANDALA  : Logging Company ID
~Other -----------------------------------------------------
~ASCII -----------------------------------------------------
# ...
  251.15520  110.62800   31.11570   52.59880   35.94860
  251.30760  115.76300   31.04640   52.32160   35.04640
  251.46000  118.54500   31.18500   52.73740   34.61810
  251.61240  129.24400   31.25430   52.94530   35.76020
  251.76480  133.28600   31.25430   52.80670   34.18990
  251.91720  128.14300   31.18500   53.77690   33.97570
  252.06960  126.24800   31.25430   53.01460   33.97570
  252.22200  132.66800   31.25430   52.66810   34.18990
  252.37440  124.32200   31.25430   53.36110   34.26120
  252.52680  126.03400   31.32360   53.63830   35.04640
  252.67920  113.19500   31.18500   54.12340   34.97500
  252.83160  123.03900   31.39290   53.91550   35.61740
  252.98400  122.22200   31.39290   53.56900   35.76020
  253.13640  122.22200   31.18500   53.01460   35.33190
  253.28880  126.06800   31.39290   54.46990   35.18920
  253.44120  122.18300   31.46220   55.30150   34.26120
  253.59360  116.19100   31.53150   55.44010   34.04710
  253.74600  108.06000   31.46220   53.63830   34.85710
  253.89840   96.71900   31.39290   53.70760   34.85710
  254.05080  100.64100   31.39290   54.19270   33.57140
  254.20320   99.57260   31.60080   54.12340   33.50000
  254.35560  105.76900   31.87800   53.70760   33.92860
  254.50800  109.18800   31.87800   53.29180   34.00000
  254.66040  103.63200   31.67010   53.15320   33.57140
  254.81280  107.05100   31.67010   53.77690   33.92860
  254.96520  104.27400   31.53150   52.94530   33.50000
  255.11760  100.64100   31.64820   53.94740   32.78570
  255.27000   97.00850   31.57890   54.98610   33.07140
  255.42240  101.49600   31.50970   54.36290   33.85710
  255.57480   98.07690   31.44040   54.01660   34.14290
  255.72720  111.53800   31.71750   52.83930   34.85710
  255.87960  115.17100   31.57890   54.70910   34.78570
  256.03200  121.40800   31.57890   53.32410   34.66760
  256.18440  104.12500   31.78670   54.63990   35.81130
  256.33680   96.44380   31.71750   53.73960   35.88280
  256.48920  100.07100   31.57890   53.04710   35.45390
  256.64160  106.83800   31.44040   53.11630   35.52540
  256.79400  107.69200   31.92520   54.70910   37.21430
  256.94640  106.83800   31.92520   55.81720   37.64290
  257.09880  114.79400   31.85600   53.80890   38.02720
  257.25120  121.83500   31.64820   53.04710   35.88280
  257.40360  105.19200   31.50970   53.73960   34.81060
  257.55600  103.69800   31.71750   53.46260   34.81060
  257.70840  105.61900   31.71750   53.87810   37.16940
  257.86080  103.91200   31.57890   53.11630   37.24090
  258.01320  103.12500   31.57890   53.67040   36.69530
  258.16560  103.12500   31.44040   53.75520   36.90990
  258.31800  109.30400   31.44040   52.83930   36.83830
  258.47040  107.32600   31.30190   52.56230   38.09860
  258.62280  109.24600   31.16340   52.83930   38.74200
  258.77520  115.00700   31.09420   52.70080   38.81340
  258.92760  115.64700   31.02490   53.53190   38.59900
  259.08000  110.15600   31.02490   52.00830   37.41060
  259.23240  104.61600   30.95570   51.24650   37.33910
  259.38480  102.06000   30.88640   52.77010   38.55510
  259.53720  101.63400   30.81720   53.25480   39.48500
  259.68960  103.76400   30.81720   52.70080   40.12880
  259.84200  114.84400   30.81720   52.77010   40.20030
  259.99440  113.35200   30.81720   52.14680   40.12880
  260.14680  112.28700   30.60940   50.76180   40.12880
  260.29920  112.50000   30.95570   51.73130   40.12880
  260.45160  108.45200   30.95570   52.21610   37.83980
  260.60400  109.09100   30.81720   52.63160   37.12450
  260.75640  115.22000   30.81720   51.38500   37.19600
  260.90880  117.18800   30.54020   50.69250   37.55360
  261.06120  118.89200   30.42270   50.72760   37.79530
  261.21360  104.61600   30.49200   52.90860   38.15320
  261.36600  104.97900   30.95570   52.63160   39.51320
  261.51840  103.69800   30.95570   52.90860   39.79960
  261.67080  104.12500   30.95570   52.07760   40.01430
  261.82320  100.56800   30.54020   51.24650   40.12880
  261.97560  100.28400   31.11570   50.96950   40.77250
  262.12800  104.76500   31.11570   51.00490   40.73010
  262.28040  113.94000   30.90780   52.25230   40.73010
  262.43280  113.94000   30.90780   52.32160   40.73010
  262.58520  109.03300   30.95570   52.42380   40.73010
  262.73760  106.89900   30.60940   51.24650   39.79960
  262.89000   97.08390   30.74790   51.73130   39.37010
  263.04240   94.09670   30.97710   51.83650   39.97130
  263.19480   93.80340   31.11570   51.83650   39.97130
  263.34720  107.32600   30.90780   51.42070   41.37440
  263.49960  108.60600   30.76920   52.11370   42.30490
  263.65200  115.64700   30.63060   52.52950   41.37440
  263.80440  106.25900   30.81720   52.14680   40.80170
  263.95680  106.83800   31.02490   54.26200   40.40110
  264.10920  102.99100   31.11570   54.74710   39.97130
  264.26160   99.00430   30.97710   53.75520   40.83090
  264.41400  110.68400   30.69990   52.11370   42.62180
  264.56640  112.60700   31.11570   53.75520   42.90830
  264.71880  107.05100   31.11570   52.46020   42.47850
  264.87120  115.59800   31.39290   54.67780   42.47850
  265.02360  113.88900   31.60080   55.85590   42.04870
  265.17600  113.03400   31.39290   53.84620   41.33240
  265.32840  112.60700   31.39290   53.63830   40.90260
  265.48080  107.90600   31.53150   53.36110   41.76220
  265.63320  107.90600   31.73940   55.71730   41.61890
  265.78560   99.57260   31.87800   55.23220   42.47850
  265.93800   97.00850   31.80870   54.67780   43.69630
  266.09040  105.76900   31.80870   54.05410   43.83950
  266.24280  109.18800   31.80870   53.63830   43.98280
  266.39520  110.25600   31.80870   54.05410   43.55300
  266.54760  103.84600   32.01660   55.64800   42.62180
  266.70000  105.55600   31.73940   54.74710   41.90540
  266.85240  108.33300   31.39290   53.91550   41.76220
  267.00480  107.47900   31.60080   55.02430   43.69630
  267.15720  120.72600   31.80870   54.95500   44.69910
  267.30960  108.97400   31.73940   55.92520   44.84240
  267.46200  108.12000   32.01660   55.44010   44.26930
  267.61440  111.96600   31.80870   52.59880   45.12890
  267.76680  103.63200   31.73940   54.46990   45.63040
  267.91920  108.97400   31.80870   54.81640   46.20340
  268.07160  111.53800   32.08590   53.56900   44.69910
  268.22400  109.40200   32.08590   53.15320   43.98280
  268.37640  115.59800   31.80870   55.64800   44.12610
  268.52880  123.50400   31.39290   52.94530   44.26930
  268.68120  125.21400   31.18500   52.25230   43.55300
  268.83360  116.88000   31.60080   54.05410   42.76500
  268.98600  121.79500   31.73940   54.33130   42.76500
  269.13840  121.79500   31.60080   53.84620   42.90830
  269.29080  124.57300   31.80870   53.43040   42.33520
  269.44320  118.16200   31.39290   52.94530   43.26650
  269.59560  115.17100   31.11570   53.70760   43.05160
  269.74800  111.53800   31.60080   53.56900   43.40970
  269.90040  114.31600   31.73940   54.53920   43.83950
  270.05280  114.69300   31.80870   53.46740   43.83950
  270.20520  116.19100   31.55340   52.98200   43.98280
  270.35760  112.12600   31.27600   54.09150   42.47850
  270.51000  111.27000   31.41470   54.02220   42.47850
  270.66240  104.63600   31.55340   55.27050   42.19200
  270.81480   90.08560   31.71410   53.08810   42.04870
  270.96720   89.22970   31.71410   55.37820   42.62180
  271.11960   92.65340   31.43650   55.37820   43.05160
  271.27200   94.15120   31.36710   54.75360   43.40970
  271.42440  103.13800   31.92230   54.54550   43.05160
  271.57680  105.06400   31.71410   55.30880   43.69630
  271.72920   93.29530   31.87500   54.16670   43.12320
  271.88160  102.06800   32.01390   52.91670   43.69630
  272.03400   93.08130   32.22220   51.80560   43.69630
  272.18640   98.43080   32.22220   53.75000   42.62180
  272.33880   94.79320   31.94440   53.19440   42.33520
  272.49120   84.30810   31.82770   52.63890   42.19200
  272.64360  100.57100   31.82770   54.06530   43.26650
  272.79600  112.98100   31.48020   54.27380   43.69630
