~Version ---------------------------------------------------
VERS. 2.0 : CWLS log ASCII Standard -VERSION 2.0
WRAP.  NO : One line per depth step
~Well ------------------------------------------------------
STRT.M            55.0164 : START
STOP.M            374.904 : STOP
STEP.M 0.1524000000000001 : STEP
NULL.             -999.25 : NULL VALUE
COMP.         RAJAMANDALA : Company
WELL.              33S-15 : Well Name
FLD .         RAJAMANDALA : Field
CTRY.         RAJAMANDALA : Country
STAT.         RAJAMANDALA : State
PROV.                     : Province
LOC .                     : Field Location
PD  .                 MSL : Permanent Datum
UWI .         RAJAMANDALA : Unique Well ID
EKB .M               35.0 : Elevation of KB
ELZ .M               35.0 : Elevation Log Zero
MP  .                  KB : Drill measured from
OS  .                     : Services
SRVC.                     : Service company
RUNS.                   1 : Number of runs
DATE.                     : Date
~Curve Information -----------------------------------------
DEPT.M     : 1  Depth
GR  .API   : 2  Gamma-Ray Log
SN  .OHMM  : 3  Short Normal Resistivity
LN  .OHMM  : 4  Long Normal resistivity
NEUT.CPS   : 5  Neutron Log
~Params ----------------------------------------------------
RUN .                1 : Run number
DATE.      29-AUG-2027 : Log date
DD  .M           374.0 : Depth-Driller
DL  .M           373.6 : Depth-Logger
BLI .M           373.0 : Bottom log interval
TLI .M     RAJAMANDALA : Logging unit Loc
LCC . W.  RAJAMANDALA  : Logging Company ID
~Other -----------------------------------------------------
~ASCII -----------------------------------------------------
# ...
  316.53480  144.87200   33.24080   57.59890   35.68880
  316.68720  145.29900   33.24080   59.33380   34.57140
  316.83960  138.24800   33.03260   57.18250   35.42860
  316.99200  132.05100   33.00970   57.39070   35.28570
  317.14440  132.05100   32.94040   58.04440   34.78570
  317.29680  132.05100   33.14840   55.47850   33.64290
  317.44920  129.27300   32.89380   57.97500   33.28570
  317.60160  134.18800   33.24080   56.28040   34.42860
  317.75400  132.05100   32.89380   55.72520   34.21430
  317.90640  135.68400   33.03260   57.73770   34.50000
  318.05880  135.89700   33.00970   57.62830   33.92860
  318.21120  136.32500   32.80170   56.65740   32.21430
  318.36360  132.05100   32.94040   58.52980   32.23730
  318.51600  141.23900   32.38560   55.40920   32.52320
  318.66840  143.80300   32.17750   56.65740   32.80920
  318.82080  141.23900   32.59360   56.86550   32.80920
  318.97320  139.74400   32.59360   57.03400   33.09510
  319.12560  135.89700   32.70960   54.12340   33.09510
  319.27800  133.33300   32.50170   56.34100   33.09510
  319.43040  138.46200   32.01660   55.23220   33.23800
  319.58280  134.61500   31.87800   55.44010   33.30950
  319.73520  135.89700   32.01660   57.65770   34.81060
  319.88760  144.44400   32.08590   57.79630   35.02500
  320.04000  144.44400   32.50170   56.54890   34.88210
  320.19240  133.33300   32.64030   55.23220   35.90840
  320.34480  136.75200   32.29380   57.17260   35.12160
  320.49720  138.46200   32.50170   56.82610   33.54790
  320.64960  128.20500   32.70960   55.71730   32.47500
  320.80200  123.07700   32.77890   55.71730   31.83120
  320.95440  126.49600   32.77890   57.54850   33.04720
  321.10680  126.92300   33.17170   58.51800   33.61950
  321.25920  114.31600   33.12540   58.86430   32.83260
  321.41160  111.75200   33.40260   56.96470   32.76110
  321.56400  117.94900   33.54120   58.76650   33.47640
  321.71640  124.78600   33.40260   59.04370   33.78670
  321.86880  125.85500   33.40260   56.34100   33.35720
  322.02120  128.20500   33.44880   56.09420   32.21190
  322.17360  129.06000   33.44880   59.41830   32.14030
  322.32600  120.72600   33.44880   59.41830   32.42660
  322.47840  115.81200   33.51800   58.07350   31.92560
  322.63080  120.72600   33.61050   56.82610   31.99710
  322.78320  114.31600   33.61050   56.34100   32.56980
  322.93560  104.91500   33.61050   58.65650   32.56980
  323.08800   97.86330   33.37950   60.31860   31.78240
  323.24040  102.77800   32.96400   58.44880   32.14030
  323.39280  114.74400   33.51800   59.62600   32.37820
  323.54520  125.85500   32.54850   60.45710   31.44700
  323.69760  130.76900   32.68700   58.14280   32.23500
  323.85000  133.33300   33.19470   58.07350   31.59030
  324.00240  126.92300   33.44880   59.34900   31.30370
  324.15480  125.42700   33.86430   61.63430   32.37820
  324.30720  132.05100   33.44880   60.87260   32.87970
  324.45960  141.23900   33.86430   61.63430   31.80520
  324.61200  144.87200   33.72580   60.18010   31.73350
  324.76440  139.53000   33.44880   58.24100   32.37820
  324.91680  142.30800   33.03320   61.35730   31.80520
  325.06920  132.29000   34.21050   61.42660   32.16330
  325.22160  131.86300   34.21050   59.41830   32.73640
  325.37400  134.42400   34.21050   61.77290   33.02290
  325.52640  141.46500   34.14130   60.38780   32.44990
  325.67880  133.78400   33.93350   60.66480   31.87680
  325.83120  136.13100   34.41830   60.08320   32.16330
  325.98360  139.54500   34.51140   58.65650   32.16330
  326.13600  143.81200   34.48750   62.60390   32.02010
  326.28840  139.54500   34.62600   61.91140   32.59310
  326.44080  121.83500   34.00280   59.69530   32.59310
  326.59320  110.52600   34.00280   61.95430   31.51860
  326.74560  104.55200   33.81840   59.59810   31.23210
  326.89800   98.57750   33.40260   62.16220   32.30660
  327.05040   99.00430   33.86430   63.29640   31.80520
  327.20280  106.68600   33.93350   61.63430   30.80230
  327.35520  109.67300   33.72580   61.56510   30.80230
  327.50760  121.02300   33.81840   57.38050   30.13600
  327.66000  122.51400   33.19470   57.17260   28.99070
  327.81240  123.15300   33.81840   60.77620   28.84750
  327.96480  121.44900   34.30350   60.77620   28.77590
  328.11720  128.26700   34.14130   59.00280   30.13600
  328.26960  128.69300   33.72580   58.51800   31.13820
  328.42200  121.66200   33.12540   57.44980   31.56760
  328.57440  114.20500   32.70960   56.75680   30.56550
  328.72680  114.84400   33.61050   60.29110   29.42020
  328.87920  108.45200   33.40260   57.86560   30.35080
  329.03160  111.64800   33.44880   59.69530   30.56550
  329.18400  114.63100   33.19470   60.56830   30.13600
  329.33640  114.84400   33.12540   57.38050   31.49610
  329.48880  108.66500   33.12540   59.87530   31.78240
  329.64120  103.12500   32.91750   56.96470   30.99500
  329.79360  100.56800   33.88770   58.97440   31.28130
  329.94600  106.53400   33.54120   58.97440   31.92560
  330.09840  108.60600   32.91750   55.64800   31.90270
  330.25080  111.59300   32.50170   53.70760   31.47350
  330.40320  105.83200   33.40260   57.03400   30.97280
  330.55560  111.38000   32.98680   57.58840   30.82980
  330.70800  119.91500   33.12540   58.97440   29.82830
  330.86040  121.19500   32.80170   58.52980   29.54220
  331.01280  124.60900   32.43240   55.64800   29.70650
  331.16520   97.08390   32.29380   55.92520   28.41800
  331.31760   95.59030   32.77890   59.59810   28.82690
  331.47000  103.27200   33.33330   61.05340   28.82690
  331.62240  108.60600   33.33330   61.46920   28.61230
  331.77480  112.87300   33.56450   58.04440   28.82690
  331.92720  119.27500   32.64030   56.10260   28.25470
  332.07960  125.67600   33.40260   54.26200   27.98850
  332.23200  112.44700   33.81840   60.91480   27.41590
  332.38440  109.24600   34.51140   58.55860   27.20110
  332.53680  118.20800   34.60470   58.69720   27.82550
  332.68920  118.63400   33.77250   55.47850   28.18310
  332.84160   93.88340   33.63380   55.20110   28.68380
  332.99400   90.25600   33.81840   59.25160   28.89840
  333.14640   88.97580   33.61050   59.59810   29.20540
  333.29880   89.18920   33.21780   55.27050   29.77810
  333.45120   88.76240   32.73230   55.40920   27.77380
  333.60360   84.92180   32.17750   57.62830   27.05800
  333.75600   89.40260   32.52430   58.87660   27.98850
  333.90840   94.52350   33.35640   59.70870   27.25320
  334.06080   85.56190   32.70960   55.37080   27.77380
  334.21320   84.28160   32.73230   54.43830   29.20540
  334.36560   84.28160   32.10820   56.86550   29.70650
  334.51800   94.52350   32.17750   56.86550   29.70650
  334.67040   94.95020   32.80170   56.65740   29.56340
  334.82280   89.40260   32.80170   56.03330   28.20330
  334.97520   89.95730   32.38560   54.43830   27.84540
  335.12760   95.94020   31.69210   53.95280   27.84540
  335.28000   94.23080   31.90010   54.99310   28.63280
  335.43240   92.94870   32.52430   56.65740   28.34650
  335.58480   95.51280   32.52430   56.10260   28.77590
  335.73720  114.31600   32.17750   56.44940   28.99070
  335.88960  129.70100   31.76140   53.60610   28.63280
  336.04200  132.26500   31.69210   54.57700   28.84750
  336.19440  125.85500   32.17750   57.00420   28.72490
  336.34680  131.41000   32.38560   56.38000   29.13390
  336.49920  124.14500   32.31620   56.79610   28.84750
  336.65160  132.26500   31.90010   53.46740   28.77590
  336.80400  127.56400   31.69210   54.99310   29.56340
  336.95640  125.42700   31.76140   55.61720   30.56550
  337.10880  125.00000   32.52430   56.10260   32.73640
  337.26120  126.70900   32.59360   53.60610   32.44990
  337.41360  128.20500   31.90010   53.95280   31.51860
  337.56600  130.98300   31.55340   52.56590   31.23210
  337.71840  130.98300   31.76140   54.57700   34.07300
  337.87080  111.75200   31.90010   54.99310   34.07300
  338.02320  107.47900   31.76140   53.67540   33.85830
  338.17560  105.98300   31.27600   53.81410   32.73640
