~Version ---------------------------------------------------
VERS. 2.0 : CWLS log ASCII Standard -VERSION 2.0
WRAP.  NO : One line per depth step
~Well ------------------------------------------------------
STRT.M            55.0164 : START
STOP.M            374.904 : STOP
STEP.M 0.1524000000000001 : STEP
NULL.             -999.25 : NULL VALUE
COMP.         RAJAMANDALA : Company
WELL.              33S-15 : Well Name
FLD .         RAJAMANDALA : Field
CTRY.         RAJAMANDALA : Country
STAT.         RAJAMANDALA : State
PROV.                     : Province
LOC .                     : Field Location
PD  .                 MSL : Permanent Datum
UWI .         RAJAMANDALA : Unique Well ID
EKB .M               35.0 : Elevation of KB
ELZ .M               35.0 : Elevation Log Zero
MP  .                  KB : Drill measured from
OS  .                     : Services
SRVC.                     : Service company
RUNS.                   1 : Number of runs
DATE.                     : Date
~Curve Information -----------------------------------------
DEPT.M     : 1  Depth
GR  .API   : 2  Gamma-Ray Log
SN  .OHMM  : 3  Short Normal Resistivity
LN  .OHMM  : 4  Long Normal resistivity
NEUT.CPS   : 5  Neutron Log
~Params ----------------------------------------------------
RUN .                1 : Run number
DATE.      29-AUG-2027 : Log date
DD  .M           374.0 : Depth-Driller
DL  .M           373.6 : Depth-Logger
BLI .M           373.0 : Bottom log interval
TLI .M     RAJAMANDALA : Logging unit Loc
LCC . W.  RAJAMANDALA  : Logging Company ID
~Other -----------------------------------------------------
~ASCII -----------------------------------------------------
# ...
  163.98240   98.71790   31.43650   52.81050   17.70160
  164.13480  101.70900   31.43650   52.94930   17.27340
  164.28720   94.87180   31.36710   51.83900   16.77370
  164.43960   92.30770   31.43650   52.39420   17.34480
  164.59200   88.46150   31.36710   53.01870   17.70160
  164.74440   85.04270   31.43650   52.25540   18.05850
  164.89680   83.54700   31.57530   52.25540   18.05850
  165.04920   83.76070   31.43650   53.36570   18.62960
  165.20160   77.55680   31.08950   53.15750   19.77160
  165.35400   84.58810   31.64470   54.26790   19.12920
  165.50640   89.91480   31.43650   53.50450   19.20060
  165.65880   86.93180   31.57530   53.71270   19.77160
  165.81120   85.22730   31.78350   54.82300   19.41470
  165.96360   85.22730   31.78350   55.37820   19.41470
  166.11600   94.60230   32.54680   54.40670   19.12920
  166.26840   89.70170   32.47740   53.88890   19.77160
  166.42080   96.51990   32.22220   52.91670   19.41470
  166.57320  102.27300   32.22220   52.63890   18.77230
  166.72560  106.53400   32.47740   52.81050   18.48680
  166.87800  111.64800   32.47740   53.01870   18.70090
  167.03040  118.04000   32.26930   53.15750   19.20060
  167.18280  124.43200   32.33870   54.61480   19.41470
  167.33520  120.38400   32.13050   53.36570   18.70090
  167.48760  127.87200   31.78350   54.61480   18.20130
  167.64000  128.72300   32.01390   53.05560   17.70160
  167.79240  122.97900   32.01390   53.88890   17.84440
  167.94480  121.48900   31.73610   53.12500   17.77300
  168.09720  116.80900   32.01390   53.26390   18.84370
  168.24960  118.93600   32.22220   54.93060   19.12920
  168.40200  122.34000   32.13050   52.81050   18.84370
  168.55440  125.53200   31.92230   52.46360   18.48680
  168.70680  128.72300   31.99170   53.05560   18.62960
  168.85920  135.53200   31.87500   52.91670   19.34330
  169.01160  139.36200   31.87500   53.40280   19.70020
  169.16400  138.93600   31.87500   53.26390   19.55750
  169.31640  132.55300   32.01390   53.75000   19.84300
  169.46880  129.78700   31.73610   53.40280   19.55750
  169.62120  125.53200   31.73610   53.61110   18.98640
  169.77360  123.83000   31.87500   53.54170   18.41540
  169.92600  122.97900   31.87500   53.12500   18.41540
  170.07840  123.86700   31.87500   53.05560   19.34330
  170.23080  127.05400   31.87500   52.77780   20.12850
  170.38320  127.26600   32.01390   53.88890   20.41400
  170.53560  122.38000   31.87500   54.72220   20.55670
  170.68800  123.86700   32.01390   53.40280   20.19990
  170.84040  128.11600   31.87500   53.26390   18.84370
  170.99280  128.11600   31.87500   53.88890   18.41540
  171.14520  119.19300   31.87500   53.26390   17.70160
  171.29760  106.65700   32.08330   53.26390   16.97570
  171.45000   99.22100   32.22220   53.26390   16.11980
  171.60240   97.09630   32.01390   53.26390   15.26390
  171.75480   80.73650   31.87500   53.40280   15.26390
  171.90720   66.28890   32.01390   53.54170   15.90580
  172.05960   68.41360   31.87500   54.37500   16.33380
  172.21200   75.42490   31.87500   53.95830   16.90440
  172.36440   72.02550   32.01390   53.75000   17.11840
  172.51680   67.87230   32.22220   53.75000   17.74770
  172.66920   65.31910   31.87500   54.23610   18.17530
  172.82160   62.12770   31.87500   53.95830   18.81680
  172.97400   61.70210   32.01390   53.54170   19.10190
  173.12640   54.04260   32.22220   52.91670   19.38700
  173.27880   53.82980   32.01390   52.91670   20.17110
  173.43120   57.44680   32.08330   53.88890   20.74130
  173.58360   58.93620   32.08330   53.75000   20.17110
  173.73600   74.04260   32.08330   53.05560   19.80060
  173.88840   80.63830   32.22220   53.61110   19.58690
  174.04080   83.19150   32.01390   55.55560   19.37320
  174.19320   79.57450   32.01390   54.93060   19.01710
  174.34560   81.48940   32.22220   55.06940   19.01710
  174.49800   75.53190   32.22220   53.54170   18.16240
  174.65040   67.23400   32.22220   54.37500   17.45010
  174.80280   71.06380   32.22220   54.23610   17.94870
  174.95520   72.76600   32.22220   54.23610   18.44730
  175.10760   72.12770   32.70830   55.55560   19.01710
  175.26000   74.46810   32.50000   54.23610   19.51570
  175.41240   76.38300   32.36110   55.55560   18.87460
  175.56480   76.38300   32.22220   53.40280   19.15950
  175.71720   73.82980   32.36110   55.41670   18.80340
  175.86960   81.91490   32.56940   55.41670   19.23080
  176.02200   85.53190   32.70830   55.41670   19.01710
  176.17440   85.95740   32.50000   55.34720   18.51850
  176.32680   80.63830   32.50000   56.87500   17.94870
  176.47920   90.00000   32.08330   53.88890   17.45010
  176.63160   90.42550   32.36110   56.38890   18.30480
  176.78400   85.19830   32.70830   55.20830   18.66100
  176.93640   87.74790   32.70830   55.06940   17.73500
  177.08880   90.72240   32.70830   56.66670   17.59260
  177.24120   91.99720   32.70830   57.01390   18.44730
  177.39360   83.28610   32.50000   55.55560   18.66100
  177.54600   83.61700   32.84720   55.34720   18.09120
  177.69840   92.34040   32.84720   56.38890   17.94870
  177.85080   97.23400   32.84720   56.52780   17.59260
  178.00320   95.10640   32.84720   54.93060   18.30480
  178.15560   84.68090   32.70830   54.58330   18.16240
  178.30800   79.88670   32.84720   54.93060   17.94870
  178.46040   74.57510   32.50000   54.93060   19.15950
  178.61280   75.21250   32.70830   53.95830   20.08550
  178.76520   77.97450   32.22220   54.93060   18.87460
  178.91760   83.49860   32.22220   55.20830   18.80340
  179.07000   89.44760   32.22220   56.25000   20.15670
  179.22240   83.28610   32.50000   55.55560   17.59260
  179.37480   77.76200   32.36110   54.58330   18.44730
  179.52720   81.37390   32.22220   54.23610   17.59260
  179.67960   72.45040   32.22220   54.72220   16.88030
  179.83200   72.87540   32.50000   55.06940   17.02280
  179.98440   76.06230   32.50000   55.69440   17.59260
  180.13680   78.61190   32.36110   56.25000   17.80630
  180.28920   81.58640   32.22220   54.86110   18.30480
  180.44160   80.94900   32.22220   55.34720   18.87460
  180.59400   88.81020   32.36110   54.86110   19.37320
  180.74640   82.43630   32.50000   55.06940   19.23080
  180.89880   84.34840   32.70830   56.04170   19.80060
  181.05120   79.67420   32.70830   54.44440   19.58690
  181.20360   83.49860   32.56940   54.09720   19.58690
  181.35600   76.37910   32.56940   53.95830   19.94300
  181.50840   84.44130   32.56940   55.69440   20.65530
  181.66080   84.86560   32.70830   55.20830   20.29910
  181.81320   80.62230   32.70830   55.90280   19.94300
  181.96560   84.44130   32.70830   55.20830   19.94300
  182.11800   84.86560   32.36110   55.41670   19.80060
  182.27040   80.41020   32.36110   55.06940   20.15670
  182.42280   87.62380   32.70830   55.76390   20.44160
  182.57520   86.56290   32.70830   57.01390   20.74130
  182.72760   86.35080   32.70830   55.69440   21.24020
  182.88000   87.62380   32.70830   56.52780   21.38280
  183.03240   84.44130   32.70830   56.73610   21.38280
  183.18480   83.38050   32.70830   56.18060   21.52530
  183.33720   84.22910   32.70830   54.86110   20.02850
  183.48960   72.77230   32.70830   55.41670   20.02850
  183.64200   70.01410   32.70830   53.75000   21.38280
  183.79440   72.24580   32.70830   53.61110   22.09550
  183.94680   75.84750   32.70830   53.54170   22.23810
  184.09920   79.87290   32.50000   52.91670   22.38060
  184.25160   80.93220   32.50000   53.12500   22.52320
  184.40400   83.26270   32.50000   54.09720   21.81040
  184.55640   77.96610   32.22220   54.09720   21.95300
  184.70880   86.65250   32.01390   54.23610   22.38060
  184.86120   88.55930   32.01390   53.61110   21.81040
  185.01360   90.88980   31.87500   53.95830   22.23810
  185.16600   93.22030   31.73610   54.37500   22.38060
  185.31840   90.88980   31.87500   54.72220   20.88380
  185.47080   92.37290   31.87500   56.04170   20.31360
  185.62320   83.26270   31.87500   56.38890   21.52530
