~Version ---------------------------------------------------
VERS. 2.0 : CWLS log ASCII Standard -VERSION 2.0
WRAP.  NO : One line per depth step
~Well ------------------------------------------------------
STRT.M            55.0164 : START
STOP.M            374.904 : STOP
STEP.M 0.1524000000000001 : STEP
NULL.             -999.25 : NULL VALUE
COMP.         RAJAMANDALA : Company
WELL.              33S-15 : Well Name
FLD .         RAJAMANDALA : Field
CTRY.         RAJAMANDALA : Country
STAT.         RAJAMANDALA : State
PROV.                     : Province
LOC .                     : Field Location
PD  .                 MSL : Permanent Datum
UWI .         RAJAMANDALA : Unique Well ID
EKB .M               35.0 : Elevation of KB
ELZ .M               35.0 : Elevation Log Zero
MP  .                  KB : Drill measured from
OS  .                     : Services
SRVC.                     : Service company
RUNS.                   1 : Number of runs
DATE.                     : Date
~Curve Information -----------------------------------------
DEPT.M     : 1  Depth
GR  .API   : 2  Gamma-Ray Log
SN  .OHMM  : 3  Short Normal Resistivity
LN  .OHMM  : 4  Long Normal resistivity
NEUT.CPS   : 5  Neutron Log
~Params ----------------------------------------------------
RUN .                1 : Run number
DATE.      29-AUG-2027 : Log date
DD  .M           374.0 : Depth-Driller
DL  .M           373.6 : Depth-Logger
BLI .M           373.0 : Bottom log interval
TLI .M     RAJAMANDALA : Logging unit Loc
LCC . W.  RAJAMANDALA  : Logging Company ID
~Other -----------------------------------------------------
~ASCII -----------------------------------------------------
# ...
   76.80960   51.64290    -999.25    -999.25    9.15594
   76.96200   49.92860    -999.25    -999.25    9.58512
   77.11440   46.07140    -999.25    -999.25    9.87124
   77.26680   40.71430    -999.25    -999.25    9.94278
   77.41920   43.28570    -999.25    -999.25    9.94278
   77.57160   35.62230    -999.25    -999.25    9.93567
   77.72400   38.84120    -999.25    -999.25    9.93567
   77.87640   35.62230    -999.25   53.15570   10.22160
   78.02880   35.62230    -999.25   53.15570   10.22160
   78.18120   37.98280    -999.25   53.15570   10.22160
   78.33360   42.48930    -999.25   53.15570   10.43600
   78.48600   40.12880    -999.25   53.29590   10.72190
   78.63840   41.20170    -999.25   53.29590   11.07930
   78.79080   41.63090   42.42640   53.29590   11.07930
   78.94320   36.26610   42.28610   53.29590   11.72270
   79.09560   38.41200   32.74890   53.15570   12.36600
   79.24800   45.49360   32.74890   53.29590   12.64290
   79.40040   40.98710   32.74890   53.29590   11.64290
   79.55280   45.92270   32.74890   53.29590   11.14290
   79.70520   45.92270   32.74890   53.36610   10.50000
   79.85760   41.20170   32.74890   53.50630   10.78570
   80.01000   37.12450   32.74890   55.89060   10.71430
   80.16240   37.12450   32.74890   56.10100   11.64290
   80.31480   38.41200   32.74890   57.85410   12.00000
   80.46720   43.77680   32.81910   55.54000   12.14290
   80.61960   40.98710   32.81910   55.22070   12.14290
   80.77200   40.55790   32.86620   55.22070   12.78570
   80.92440   41.63090   32.86620   55.36090   13.00000
   81.07680   45.06440   35.03850   55.50110   12.35710
   81.22920   48.71240   35.03850   55.22070   11.92010
   81.38160   57.29610   35.03850   55.50110   11.49180
   81.53400   55.36480   35.03850   55.22070   11.49180
   81.68640   54.21430   34.89840   55.36090   11.20630
   81.83880   56.14290   34.75820   55.36090   11.49180
   81.99120   50.78570   34.66390   55.18210   11.49180
   82.14360   54.85710   34.66390   55.60220   11.13490
   82.29600   60.21430   34.45380   55.53220   11.49180
   82.44840   64.92860   34.31370   55.18210   11.42040
   82.60080   72.21430   34.31370   54.76190   11.55490
   82.75320   66.42860   34.10360   54.62180   11.91160
   82.90560   71.57140   34.10360   54.27170   12.41080
   83.05800   75.85710   34.07980   54.06160   12.55350
   83.21040   72.42860   34.07980   53.95380   12.55350
   83.36280   69.97150   34.07980   53.60390   12.33950
   83.51520   71.25530   34.28970   53.32400   11.91160
   83.66760   72.11130   34.00980   52.90410   11.76890
   83.82000   66.33380   33.31000   52.41430   12.61580
   83.97240   60.98430   33.03010   51.78450   13.68500
   84.12480   63.33810   32.75020   51.78450   14.18390
   84.27720   68.25960   32.75020   51.64450   13.68500
   84.42960   75.10700   32.51750   51.74830   13.11480
   84.58200   75.96290   32.44760   51.74830   12.97220
   84.73440   67.61770   32.44760   51.81820   13.68500
   84.88680   73.60910   32.30770   51.74830   13.39990
   85.03920   73.18120   32.37760   50.83920   13.25730
   85.19160   62.69610   32.09790   50.00000   13.82750
   85.34400   60.55630   32.09790   48.95100   13.68500
   85.49640   66.33380   31.95800   47.76220   13.54240
   85.64880   57.34660   31.86580   47.65900   13.97010
   85.80120   55.20680   32.00560   47.58910   13.68500
   85.95360   62.91010   32.00560   47.37950   13.54240
   86.10600   65.47790   32.00560   46.82040   13.39990
   86.25840   68.25960   31.86580   46.68060   14.74360
   86.41080   68.68760   31.86580   46.33120   15.24220
   86.56320   58.84450   31.86580   45.84210   14.88600
   86.71560   60.47010   32.07550   45.56250   14.31620
   86.86800   59.61540   31.86580   45.70230   14.17380
   87.02040   60.47010   31.91340   46.01960   14.17380
   87.17280   60.89740   31.91340   45.94970   13.60400
   87.32520   67.94870   31.91340   46.71790   13.60400
   87.47760   64.10260   31.91340   44.90220   13.46150
   87.63000   66.02560   31.91340   45.04190   13.60400
   87.78240   71.79490   31.98320   46.64800   13.24790
   87.93480   75.85470   32.05310   47.55590   13.60400
   88.08720   74.35900   32.19270   48.04470   13.67520
   88.23960   71.79490   31.89110   48.29030   13.81770
   88.39200   75.32010   31.68180   48.49970   13.96010
   88.54440   69.98580   31.89110   49.05790   14.03130
   88.69680   66.14510   31.61200   49.47660   13.96010
   88.84920   65.50500   31.61200   48.91840   13.95020
   89.00160   70.62590   31.89110   48.91840   13.95020
   89.15400   68.49220   32.03070   48.36010   14.02140
   89.30640   66.78520   31.96090   48.49970   14.16370
   89.45880   69.77240   31.86890   49.09340   14.30600
   89.61120   73.61310   32.21760   48.39610   14.30600
   89.76360   68.49220   32.00840   48.04740   13.66550
   89.91600   66.14510   32.35700   49.86050   13.23840
   90.06840   63.15790   32.07810   50.48810   12.96300
   90.22080   69.34570   32.07810   49.44210   12.89170
   90.37320   69.34570   32.28730   48.32640   13.10540
   90.52560   65.50500   32.00840   49.09340   12.53560
   90.67800   65.07820   31.98610   48.01390   12.39320
   90.83040   69.34570   32.40420   48.43210   12.82050
   90.98280   74.89330   32.56620   48.64110   13.39030
   91.13520   76.81370   32.21760   48.53560   14.60110
   91.28760   75.74680   32.19510   48.57140   14.60110
   91.44000   75.74680   32.19510   50.03480   14.81480
   91.59240   94.52350   32.12540   49.40770   15.02850
   91.74480   97.58520   31.91640   51.77700   14.88600
   91.89720   92.89770   32.03340   50.27860   14.10260
   92.04960  100.56800   31.91640   48.36240   13.39030
   92.20200   95.45450   32.19510   48.64110   13.03420
   92.35440   92.89770   32.68290   49.40770   14.24500
   92.50680   85.56190   32.93870   48.43210   14.62200
   92.65920   83.42820   32.79940   49.44290   14.62200
   92.81160   97.72400   33.14760   49.86070   14.47930
   92.96400   98.57750   33.00840   51.77700   14.19400
   93.11640   84.28160   33.17070   53.62120   13.69470
   93.26880   81.29440   33.14760   53.06410   13.62340
   93.42120   86.71880   33.00840   50.83570   13.69470
   93.57360   89.06250   33.42620   50.27860   13.55210
   93.72600   94.17610   33.42620   52.01950   13.62340
   93.87840   92.68470   33.82050   55.25400   13.62340
   94.03080   90.76700   34.19220   52.64620   13.62340
   94.18320   98.22440   34.61000   52.43730   13.83740
   94.33560   96.09380   34.61000   54.55810   14.62200
   94.48800  102.27300   34.65550   54.69730   14.62200
   94.64040   99.71590   34.65550   52.19210   14.62200
   94.79280  108.45200   34.65550   52.19210   14.19400
   94.94520  103.12500   34.86430   54.41890   13.70450
   95.09760   97.58520   35.00350   55.04520   13.56170
   95.25000   92.04550   35.14270   55.39320   13.99000
   95.40240   92.04550   34.65550   50.52190   13.99000
   95.55480   89.06250   33.82050   55.28510   14.27550
   95.70720   95.45450   34.07510   50.06950   15.20340
   95.85960   98.79090   34.70100   53.40750   15.98860
   96.01200  103.05800   34.30760   53.58390   15.50000
   96.16440  110.31300   34.16840   50.48680   14.85710
   96.31680  104.83000   33.65790   49.86090   14.84650
   96.46920  114.20500   33.51880   49.86090   14.84650
   96.62160  112.28700   32.82340   49.72180   14.84650
   96.77400  116.28700   33.24060   52.36440   14.27550
   96.92640  116.50100   32.59210   54.10290   14.27550
   97.07880  115.00700   33.24060   51.80810   14.14290
   97.23120  106.47200   32.19750   51.04310   14.42860
   97.38360  104.12500   32.19750   56.05010   14.92860
   97.53600   97.51070   32.59210   51.07710   14.48970
   97.68840   95.59030   33.49550   51.21610   14.48970
   97.84080   96.65720   33.63450   51.63310   14.48970
   97.99320  101.35100   32.96240   51.80810   14.71430
   98.14560  116.50100   33.07850   52.81450   14.71430
   98.29800  115.22000   33.91240   55.38570   14.50000
   98.45040  117.94900   33.21750   57.60950   14.71430
