~Version ---------------------------------------------------
VERS. 2.0 : CWLS log ASCII Standard -VERSION 2.0
WRAP.  NO : One line per depth step
~Well ------------------------------------------------------
STRT.M            55.0164 : START
STOP.M            374.904 : STOP
STEP.M 0.1524000000000001 : STEP
NULL.             -999.25 : NULL VALUE
COMP.         RAJAMANDALA : Company
WELL.              33S-15 : Well Name
FLD .         RAJAMANDALA : Field
CTRY.         RAJAMANDALA : Country
STAT.         RAJAMANDALA : State
PROV.                     : Province
LOC .                     : Field Location
PD  .                 MSL : Permanent Datum
UWI .         RAJAMANDALA : Unique Well ID
EKB .M               35.0 : Elevation of KB
ELZ .M               35.0 : Elevation Log Zero
MP  .                  KB : Drill measured from
OS  .                     : Services
SRVC.                     : Service company
RUNS.                   1 : Number of runs
DATE.                     : Date
~Curve Information -----------------------------------------
DEPT.M     : 1  Depth
GR  .API   : 2  Gamma-Ray Log
SN  .OHMM  : 3  Short Normal Resistivity
LN  .OHMM  : 4  Long Normal resistivity
NEUT.CPS   : 5  Neutron Log
~Params ----------------------------------------------------
RUN .                1 : Run number
DATE.      29-AUG-2027 : Log date
DD  .M           374.0 : Depth-Driller
DL  .M           373.6 : Depth-Logger
BLI .M           373.0 : Bottom log interval
TLI .M     RAJAMANDALA : Logging unit Loc
LCC . W.  RAJAMANDALA  : Logging Company ID
~Other -----------------------------------------------------
~ASCII -----------------------------------------------------
# ...
  142.18920   65.71840   34.12090   18.55460   23.75180
  142.34160   63.79800   34.12090   17.99860   23.25250
  142.49400   59.31720   33.77350   17.85960   22.98360
  142.64640   63.15790   33.63450   17.99860   23.34050
  142.79880   66.78520   33.63450   19.94440   23.69740
  142.95120   70.62590   33.77350   20.22240   23.91150
  143.10360   72.33290   33.91240   18.90200   24.05420
  143.25600   75.10670   33.77350   18.76300   23.26910
  143.40840   74.35900   33.68060   19.23610   23.60910
  143.56080   85.04270   33.68060   20.20830   23.46650
  143.71320   94.23080   33.81940   19.72220   24.19700
  143.86560  100.21400   33.77350   19.18000   24.19700
  144.01800  105.34200   33.77350   19.18000   24.19700
  144.17040  107.90600   33.81940   21.18060   23.55460
  144.32280  110.47000   33.81940   23.95830   23.26910
  144.47520  100.42700   33.81940   31.87500   22.55530
  144.62760   92.30770   33.81940   34.86110   22.26980
  144.78000   87.17950   33.81940   37.29170   21.12780
  144.93240   94.87180   33.81940   40.41670   20.19990
  145.08480   95.08550   33.68060   42.08330   19.84300
  145.23720   94.01710   33.81940   42.56940   20.48540
  145.38960   98.93160   33.68060   42.70830   20.69950
  145.54200   94.44440   33.68060   42.70830   20.69950
  145.69440   92.94870   33.81940   43.19440   20.55670
  145.84680   97.86330   33.68060   43.40280   20.84230
  145.99920   95.29910   33.81940   43.40280   18.98640
  146.15160   94.23080   33.68060   43.19440   18.84370
  146.30400   99.14530   33.77350   43.22450   18.92860
  146.45640   97.86330   33.77350   43.22450   18.28570
  146.60880   94.01710   33.77350   43.36340   17.57140
  146.76120  101.64100   33.77350   43.71090   18.05850
  146.91360   94.79320   33.63450   43.71090   18.77230
  147.06600   95.00710   33.63450   43.57190   20.12850
  147.21840   96.07700   33.77350   43.36340   19.70020
  147.37080   94.36520   33.77350   43.36340   19.55750
  147.52320   90.29960   33.63450   43.08550   21.07140
  147.67560   90.59830   33.77350   42.66850   21.57140
  147.82800   95.29910   33.77350   42.39050   21.57140
  147.98040   88.46150   33.77350   42.18210   22.00000
  148.13280   86.32480   33.77350   41.90410   22.00000
  148.28520   89.95730   33.77350   41.62610   21.50000
  148.43760   93.50930   33.77350   41.48710   21.19910
  148.59000   96.50500   33.77350   41.34820   21.12780
  148.74240   97.36090   33.77350   41.09870   22.34120
  148.89480   96.07700   33.79690   40.54240   22.14290
  149.04720   89.22970   33.79690   36.85670   22.14290
  149.19960   91.15550   33.79690   31.29350   21.57140
  149.35200   91.79740   33.79690   25.79970   21.28570
  149.50440  100.99900   33.65790   21.83590   21.28570
  149.65680   96.71900   33.65790   14.53410   20.71430
  149.80920   95.00710   33.65790   14.39500   20.28570
  149.96160   90.08560   33.65790   16.68980   20.28570
  150.11400   87.73180   33.65790    9.52712   19.21430
  150.26640   90.08560   33.79690    9.38804   18.92860
  150.41880   92.65340   33.79690   37.20450   18.42860
  150.57120   78.31670   33.65790   39.36020   18.00000
  150.72360   70.39940   31.64120   39.63840   18.42860
  150.87600   66.33380   31.64120   40.12520   18.21430
  151.02840   66.33380   31.64120   40.95970   17.71430
  151.18080   70.82740   31.29350   40.95970   17.42860
  151.33320   72.11130   31.15440   40.95970   18.57140
  151.48560   58.41650   31.91930   41.09870   20.14290
  151.63800   62.26820   32.05840   42.00280   21.57140
  151.79040   61.84020   32.05840   42.00280   22.35710
  151.94280   62.91010   32.19750   41.86370   23.07140
  152.09520   55.63480   32.05840   43.46310   23.21430
  152.24760   50.71330   32.05840   44.01950   23.28570
  152.40000   51.56920   32.05840   44.36720   22.07140
  152.55240   56.49070   32.05840   44.01950   21.84150
  152.70480   55.20680   32.05840   44.50630   21.91290
  152.85720   57.77460   32.05840   43.74130   20.27120
  153.00960   58.84450   31.91930   43.60220   20.27120
  153.16200   60.98430   31.91930   44.01950   20.27120
  153.31440   66.33380   31.91930   44.78440   21.19910
  153.46680   67.61770   31.78030   44.64530   20.91360
  153.61920   68.25960   31.78030   44.92350   20.84230
  153.77160   61.41230   31.64120   45.20170   21.12780
  153.92400   50.28530   31.64120   45.82750   20.84230
  154.07640   43.01000   31.64120   47.84420   20.19990
  154.22880   52.42510   31.64120   50.20860   19.55750
  154.38120   53.92300   31.50210   51.04310   19.20060
  154.53360   52.42510   31.50210   50.76490   19.41470
  154.68600   50.28530   31.29350   50.62590   19.12920
  154.83840   53.49500   31.29350   50.48680   19.41470
  154.99080   56.91870   31.29350   51.52990   19.48610
  155.14320   60.55630   31.29350   51.04310   19.34330
  155.29560   61.84020   31.29350   50.90400   19.12920
  155.44800   60.55630   31.36300   50.62590   18.77230
  155.60040   59.27250   31.36300   51.04310   18.70090
  155.75280   62.26820   31.36300   50.03470   18.84370
  155.90520   57.34660   31.41070   50.66020   19.12920
  156.05760   54.35090   31.54970   50.79920   19.12920
  156.21000   53.49500   31.41070   51.98050   18.70090
  156.36240   51.56920   31.41070   52.67550   19.12920
  156.51480   56.49070   31.41070   50.79920   19.12920
  156.66720   61.53850   31.25000   51.07710   19.05780
  156.81960   63.24790   31.25000   51.59720   18.77230
  156.97200   56.41030   31.25000   53.12500   18.62960
  157.12440   61.53850   31.38890   51.80560   19.20060
  157.27680   60.89740   31.52780   51.45830   18.41540
  157.42920   58.33330   31.52780   50.83330   17.48750
  157.58160   58.84450   31.25000   51.31940   17.27340
  157.73400   55.20680   31.25000   50.76390   18.41540
  157.88640   57.34660   31.38890   51.45830   18.77230
  158.03880   54.35090   31.25000   51.25000   19.12920
  158.19120   52.85310   31.25000   51.25000   19.91430
  158.34360   56.41030   31.08950   50.79810   20.48540
  158.49600   61.75210   31.08950   51.14500   20.69950
  158.64840   65.81200   31.08950   51.28380   19.77160
  158.80080   70.51280   31.22830   51.49200   19.48610
  158.95320   75.21370   31.22830   51.14500   19.70020
  159.10560   78.20510   31.22830   51.28380   19.20060
  159.25800   74.35900   31.13730   51.80310   18.48680
  159.41040   71.79490   31.13730   51.59500   19.12920
  159.56280   66.45300   31.13730   52.01110   19.12920
  159.71520   65.38460   31.13730   51.80310   18.98640
  159.86760   63.88890   31.27600   51.38700   18.98640
  160.02000   60.89740   31.13730   51.52570   18.05850
  160.17240   60.47010   31.13730   51.80310   16.98790
  160.32480   59.61540   31.34540   51.17890   16.34550
  160.47720   57.90600   31.34540   51.59500   16.27410
  160.62960   60.25640   31.34540   50.62410   17.13060
  160.78200   57.69230   31.48410   50.55480   17.13060
  160.93440   61.53850   31.55340   51.80310   16.34550
  161.08680   59.61540   31.55340   51.80310   15.98860
  161.23920   56.41030   31.22830   52.04720   16.77370
  161.39160   48.71790   31.22830   51.70020   16.06000
  161.54400   52.56410   31.22830   52.60240   15.77440
  161.69640   54.05980   31.27600   51.80310   16.27410
  161.84880   48.93160   31.55340   51.59500   16.70240
  162.00120   51.49570   31.76140   52.42720   16.91650
  162.15360   58.97440   31.76140   52.42720   16.34550
  162.30600   55.12820   31.55340   52.21910   15.98860
  162.45840   51.92310   31.55340   52.98200   16.41680
  162.61080   51.49570   31.43650   52.94930   17.34480
  162.76320   55.34190   31.36710   52.46360   17.63030
  162.91560   55.12820   31.57530   52.60240   17.70160
  163.06800   57.69230   31.43650   52.60240   17.70160
  163.22040   67.94870   31.57530   51.90840   16.70240
  163.37280   76.06840   31.48410   52.21910   16.55960
  163.52520   83.54700   31.48410   52.63520   17.27340
  163.67760   88.88890   31.76140   52.35780   17.34480
  163.83000   95.29910   31.57530   51.70020   17.77300
