~Version ---------------------------------------------------
VERS. 2.0 : CWLS log ASCII Standard -VERSION 2.0
WRAP.  NO : One line per depth step
~Well ------------------------------------------------------
STRT.M            55.0164 : START
STOP.M            374.904 : STOP
STEP.M 0.1524000000000001 : STEP
NULL.             -999.25 : NULL VALUE
COMP.         RAJAMANDALA : Company
WELL.              33S-15 : Well Name
FLD .         RAJAMANDALA : Field
CTRY.         RAJAMANDALA : Country
STAT.         RAJAMANDALA : State
PROV.                     : Province
LOC .                     : Field Location
PD  .                 MSL : Permanent Datum
UWI .         RAJAMANDALA : Unique Well ID
EKB .M               35.0 : Elevation of KB
ELZ .M               35.0 : Elevation Log Zero
MP  .                  KB : Drill measured from
OS  .                     : Services
SRVC.                     : Service company
RUNS.                   1 : Number of runs
DATE.                     : Date
~Curve Information -----------------------------------------
DEPT.M     : 1  Depth
GR  .API   : 2  Gamma-Ray Log
SN  .OHMM  : 3  Short Normal Resistivity
LN  .OHMM  : 4  Long Normal resistivity
NEUT.CPS   : 5  Neutron Log
~Params ----------------------------------------------------
RUN .                1 : Run number
DATE.      29-AUG-2027 : Log date
DD  .M           374.0 : Depth-Driller
DL  .M           373.6 : Depth-Logger
BLI .M           373.0 : Bottom log interval
TLI .M     RAJAMANDALA : Logging unit Loc
LCC . W.  RAJAMANDALA  : Logging Company ID
~Other -----------------------------------------------------
~ASCII -----------------------------------------------------
# ...
  185.77560   77.54240   32.01390   53.88890   21.81040
  185.92800   75.21190   32.01390   54.23610   21.52530
  186.08040   73.51700   32.22220   54.37500   20.74130
  186.23280   77.33050   32.56940   55.55560   20.45620
  186.38520   73.09320   32.56940   55.20830   21.09760
  186.53760   84.95760   32.50000   55.20830   21.24020
  186.69000   88.98300   32.36110   53.95830   20.59870
  186.84240   91.31360   32.22220   53.61110   21.02640
  186.99480   90.67800   31.73610   53.75000   20.88380
  187.14720   90.25420   32.22220   54.86110   20.45620
  187.29960   86.22880   32.22220   54.09720   20.74130
  187.45200   89.61860   32.08330   53.75000   21.81040
  187.60440   90.67800   32.01390   53.95830   21.09760
  187.75680   83.89830   31.73610   55.06940   21.02640
  187.90920   81.35590   31.87500   54.37500   21.66790
  188.06160   83.26270   31.73610   53.75000   21.52530
  188.21400   84.95760   31.73610   54.37500   21.02640
  188.36640   90.25420   32.01390   54.72220   20.59870
  188.51880   94.27970   32.01390   53.75000   20.45620
  188.67120  101.05900   32.01390   55.34720   21.38280
  188.82360  101.05900   31.87500   54.93060   22.38060
  188.97600   97.66950   31.87500   54.93060   22.23810
  189.12840   95.33900   31.87500   54.58330   22.87950
  189.28080  104.02500   31.87500   54.86110   22.59440
  189.43320   97.66950   31.73610   55.34720   22.09550
  189.58560  106.99200   32.08330   53.54170   22.23810
  189.73800  110.38100   32.01390   52.91670   22.73700
  189.89040  106.78000   32.01390   53.12500   22.59440
  190.04280  111.01700   32.13050   53.50450   21.61200
  190.19520  111.01700   32.13050   54.05970   21.32670
  190.34760  105.08500   32.13050   53.71270   22.11130
  190.50000  111.44100   31.99170   54.47610   23.03850
  190.65240  113.98300   31.92230   53.15750   23.89440
  190.80480  109.32200   31.78350   52.67180   23.19770
  190.95720  113.77100   31.78350   52.46360   23.19770
  191.10960  109.11000   31.78350   52.81050   23.19770
  191.26200  106.35600   31.64470   52.04720   23.12630
  191.41440  105.08500   31.64470   52.81050   24.55390
  191.56680  111.01700   31.57530   52.04720   25.12490
  191.71920  102.75400   31.43650   52.04720   24.66050
  191.87160   87.28810   31.43650   52.94930   23.87420
  192.02400   86.22880   31.43650   52.60240   23.80270
  192.17640   94.27970   31.43650   52.60240   24.16010
  192.32880  106.35600   31.43650   52.04720   24.23160
  192.48120  119.06800   31.43650   52.25540   24.10590
  192.63360  121.39800   31.43650   52.60240   24.17740
  192.78600  122.45800   31.43650   52.60240   23.89130
  192.93840  114.40700   31.43650   52.04720   23.74820
  193.09080  112.07600   31.43650   52.39420   23.96280
  193.24320  109.32200   31.43650   51.83900   24.96420
  193.39560   98.09320   31.43650   52.46360   24.92840
  193.54800   69.49150   31.43650   52.81050   24.06880
  193.70040   56.56780   31.43650   52.11660   22.56450
  193.85280   47.66950   31.22830   51.49200   21.70490
  194.00520   46.18640   31.22830   51.90840   21.84810
  194.15760   48.51690   31.22830   51.56140   21.70490
  194.31000   63.98310   31.22830   53.15750   22.65230
  194.46240   73.94070   31.22830   53.57390   22.72400
  194.61480   70.33900   31.22830   52.94930   21.72040
  194.76720   66.10170   31.22830   52.94930   22.07890
  194.91960   65.04240   31.22830   53.36570   22.72400
  195.07200   70.33900   31.43650   52.39420   22.74030
  195.22440   69.27970   31.43650   51.90840   22.02300
  195.37680   67.79660   31.57530   52.67180   21.37730
  195.52920   63.77120   31.43650   52.39420   20.87520
  195.68160   62.07630   31.43650   52.25540   21.23390
  195.83400   66.19520   31.43650   52.11660   21.30560
  195.98640   66.40740   31.43650   52.11660   21.36200
  196.13880   64.92220   31.57530   52.04720   22.58060
  196.29120   74.89390   31.57530   52.81050   23.51250
  196.44360   68.74120   31.43650   52.60240   23.87100
  196.59600   67.89250   31.43650   52.46360   23.72760
  196.74840   80.09920   31.43650   52.81050   24.28370
  196.90080   87.74790   31.43650   52.46360   24.14040
  197.05320   94.12180   31.57530   52.04720   24.14040
  197.20560   98.37110   31.64470   53.15750   24.42690
  197.35800  101.13300   31.78350   53.50450   24.71350
  197.51040  102.19500   31.78350   53.25940   25.00000
  197.66280   92.76600   31.76140   52.98200   25.19680
  197.81520   83.82980   31.69210   52.84330   24.83890
  197.96760   80.00000   31.55340   52.56590   24.83890
  198.12000   80.63830   31.69210   53.60610   24.69580
  198.27240   69.36170   31.69210   53.81410   24.05150
  198.42480   63.92050   31.55340   53.39810   23.60520
  198.57720   61.15060   31.55340   52.98200   23.31900
  198.72960   64.77270   31.55340   52.98200   24.60660
  198.88200   65.62500   31.55340   53.19000   24.74960
  199.03440   60.93750   31.55340   52.98200   23.24750
  199.18680   63.15790   31.69210   54.64630   22.94500
  199.33920   63.79800   31.69210   54.23020   23.23090
  199.49160   62.51780   31.48410   54.23020   23.08790
  199.64400   65.50500   31.34540   53.67540   24.16010
  199.79640   63.58460   31.34540   54.23020   25.08930
  199.94880   66.35850   31.55340   53.39810   24.73200
  200.10120   67.42530   31.55340   53.60610   25.73270
  200.25360   67.42530   31.76140   53.81410   25.80410
  200.40600   87.05550   31.76140   54.36890   25.37530
  200.55840   88.76240   31.90010   54.43830   24.80340
  200.71080   80.65430   31.96950   54.64630   25.23230
  200.86320   75.32010   31.90010   54.02220   23.51680
  201.01560   75.74680   31.90010   54.43830   22.96140
  201.16800   71.69270   32.10820   54.43830   22.88980
  201.32040   65.07820   32.17750   54.02220   23.37380
  201.47280   61.23760   32.17750   53.95280   23.87420
  201.62520   63.79800   32.08590   53.84620   24.80340
  201.77760   58.89050   32.08590   54.29960   25.73270
  201.93000   58.67710   32.50170   54.33130   26.51890
  202.08240   61.87770   32.29380   54.74710   27.53930
  202.23480   66.14510   32.29380   54.33130   27.61090
  202.38720   71.90610   32.22450   54.74710   27.82550
  202.53960   75.53340   32.17750   54.78500   27.44820
  202.69200   75.10670   31.96950   54.16090   27.30520
  202.84440   68.06540   31.96950   54.78500   27.44820
  202.99680   68.06540   31.96950   55.06240   27.44820
  203.14920   68.70560   31.96950   54.43830   27.53930
  203.30160   70.41250   32.10820   55.23220   26.60940
  203.45400   71.05260   32.08590   55.44010   27.61090
  203.60640   76.38690   32.22450   54.74710   28.89840
  203.75880   84.06830   32.29380   55.57870   28.52040
  203.91120   80.01420   32.29380   55.44010   27.94850
  204.06360   77.24040   32.29380   55.02430   27.25320
  204.21600   77.88050   32.29380   54.53920   26.32330
  204.36840   87.05550   32.29380   53.22250   26.68100
  204.52080   87.69560   32.29380   53.70760   26.60940
  204.67320   80.44100   32.29380   54.33130   26.32330
  204.82560   83.42820   32.22450   54.46990   26.68100
  204.97800   77.88050   32.29380   54.50760   26.32330
  205.13040   72.33290   32.24690   54.78500   26.25180
  205.28280   72.33290   32.03880   54.92370   26.53790
  205.43520   77.66710   32.03880   55.06240   26.03720
  205.58760   79.58750   32.17750   55.06240   25.39340
  205.74000   70.62590   32.17750   54.64630   24.96420
  205.89240   69.98580   32.17750   54.64630   24.83890
  206.04480   69.88640   32.17750   54.36890   25.62630
  206.19720   76.27840   32.17750   53.81410   25.69790
  206.34960   76.60030   32.17750   53.39810   24.24890
  206.50200   68.49220   32.17750   53.39810   23.31900
  206.65440   69.34570   32.17750   55.20110   22.54830
  206.80680   77.66710   32.03880   54.29960   23.33570
  206.95920   79.58750   32.03880   52.56590   23.83680
  207.11160   76.49150   32.03880   52.28850   24.69580
  207.26400   70.52560   32.03880   54.09150   25.26840
  207.41640   69.03410   31.96950   54.92370   26.05580
