~Version ---------------------------------------------------
VERS. 2.0 : CWLS log ASCII Standard -VERSION 2.0
WRAP.  NO : One line per depth step
~Well ------------------------------------------------------
STRT.M            55.0164 : START
STOP.M            374.904 : STOP
STEP.M 0.1524000000000001 : STEP
NULL.             -999.25 : NULL VALUE
COMP.         RAJAMANDALA : Company
WELL.              33S-15 : Well Name
FLD .         RAJAMANDALA : Field
CTRY.         RAJAMANDALA : Country
STAT.         RAJAMANDALA : State
PROV.                     : Province
LOC .                     : Field Location
PD  .                 MSL : Permanent Datum
UWI .         RAJAMANDALA : Unique Well ID
EKB .M               35.0 : Elevation of KB
ELZ .M               35.0 : Elevation Log Zero
MP  .                  KB : Drill measured from
OS  .                     : Services
SRVC.                     : Service company
RUNS.                   1 : Number of runs
DATE.                     : Date
~Curve Information -----------------------------------------
DEPT.M     : 1  Depth
GR  .API   : 2  Gamma-Ray Log
SN  .OHMM  : 3  Short Normal Resistivity
LN  .OHMM  : 4  Long Normal resistivity
NEUT.CPS   : 5  Neutron Log
~Params ----------------------------------------------------
RUN .                1 : Run number
DATE.      29-AUG-2027 : Log date
DD  .M           374.0 : Depth-Driller
DL  .M           373.6 : Depth-Logger
BLI .M           373.0 : Bottom log interval
TLI .M     RAJAMANDALA : Logging unit Loc
LCC . W.  RAJAMANDALA  : Logging Company ID
~Other -----------------------------------------------------
~ASCII -----------------------------------------------------
# ...
  338.32800  113.67500   31.13730   53.19000   31.23210
  338.48040  115.38500   30.99860   53.81410   31.08880
  338.63280  114.10300   31.55340   55.40920   31.37540
  338.78520  128.20500   31.55340   57.62830   30.78020
  338.93760  128.63200   31.27600   53.19000   31.56760
  339.09000  125.00000   31.27600   52.84330   32.30660
  339.24240  114.10300   31.13730   53.39810   32.73640
  339.39480  107.47900   31.13730   55.47850   33.16620
  339.54720  107.90600   31.69210   56.24130   32.73640
  339.69960   92.73500   31.76140   56.03330   33.59600
  339.85200  100.00000   30.92930   54.99310   33.73930
  340.00440  104.85000   30.99860   53.39810   33.02290
  340.15680  114.26500   30.99860   54.02220   34.09740
  340.30920  121.11300   31.76140   56.44940   33.73930
  340.46160  126.03400   31.76140   55.61720   31.87680
  340.61400  126.89000   31.55340   53.60610   31.08880
  340.76640  120.04300   31.34540   54.36890   32.44990
  340.91880  113.19500   31.18500   54.74710   32.73640
  341.07120  112.34000   31.48410   54.85440   33.30950
  341.22360  123.46600   32.31620   54.99310   33.85830
  341.37600  123.03900   31.69210   55.06240   34.07300
  341.52840  122.18300   31.48410   54.43830   33.28560
  341.68080  119.61500   31.60080   60.98410   32.28350
  341.83320  114.47900   31.80870   59.59810   32.28350
  341.98560  113.62300   31.96950   58.25240   32.92770
  342.13800  130.95600   31.96950   54.99310   34.07300
  342.29040  131.59800   31.76140   56.03330   34.50250
  342.44280  122.18300   32.03880   58.04440   33.71510
  342.59520  117.64300   33.61050   55.23220   32.76110
  342.74760  110.78600   33.61050   59.18230   32.18880
  342.90000  106.28600   32.91750   54.53920   31.90270
  343.05240   99.42860   32.52430   55.40920   30.90130
  343.20480  111.21400   32.52430   56.03330   31.47350
  343.35720  116.57100   32.91750   54.95500   31.11590
  343.50960  123.85700   32.08590   55.23220   32.11730
  343.66200  125.57100   32.77890   55.92520   32.11730
  343.81440  127.07100   32.70960   55.71730   32.23730
  343.96680  123.00000   31.80870   57.28160   32.30880
  344.11920  112.92900   32.01660   57.44980   32.16580
  344.27160  114.00000   31.80870   55.71730   32.09440
  344.42400  112.50000   31.80870   54.74710   32.95210
  344.57640  121.07100   31.87800   54.95500   32.73770
  344.72880  127.50000   31.87800   53.84620   33.30950
  344.88120  130.50000   31.60080   54.53920   33.38100
  345.03360  130.92900   31.80870   56.27170   33.64290
  345.18600  130.74200   31.73940   56.27170   33.78570
  345.33840  124.75000   31.60080   53.70760   31.71430
  345.49080  115.12100   31.39290   55.64800   31.50000
  345.64320  121.75500   31.39290   55.64800   30.78570
  345.79560  121.54100   31.60080   54.84760   30.00000
  345.94800  122.82500   31.57890   55.02430   30.28570
  346.10040  127.53200   32.01660   56.13310   29.85710
  346.25280  126.24800   31.80870   54.26200   31.64290
  346.40520  117.26100   31.60080   54.26200   31.71430
  346.55760  109.55800   32.01660   54.46990   31.57140
  346.71000  102.06800   32.20220   56.71750   31.07140
  346.86240  111.48400   31.99450   54.84760   30.71430
  347.01480  118.33100   32.50170   55.57870   31.57140
  347.16720  122.18300   32.50170   55.85590   30.78570
  347.31960  120.04300   31.80870   54.53920   30.71430
  347.47200  122.39700   31.99450   58.65650   30.40690
  347.62440  127.13700   31.99450   57.75620   30.05000
  347.77680  124.57300   31.99450   55.81720   29.69310
  347.92920  120.94000   31.99450   54.57060   30.12130
  348.08160  119.23100   31.60080   53.43040   30.54960
  348.23400  125.00000   32.43240   56.75680   30.12130
  348.38640  124.14500   32.47920   55.33240   30.90650
  348.53880  113.88900   32.68700   55.26320   31.04920
  348.69120  113.03400   31.99450   54.57060   30.12130
  348.84360  118.59000   31.99450   54.57060   30.54960
  348.99600  118.16200   31.92520   55.44010   30.26410
  349.14840  111.75200   32.01660   56.44040   30.12130
  349.30080  110.89700   32.54850   55.47090   30.90650
  349.45320  121.58100   31.78670   55.81720   31.54890
  349.60560  110.47000   31.78670   53.87810   30.90650
  349.75800  122.00900   31.30190   55.60940   29.69310
  349.91040  119.01700   32.20220   57.96400   28.47970
  350.06280  120.51300   32.41000   57.96400   27.60340
  350.21520  126.49600   32.41000   55.33240   28.81600
  350.36760  112.17900   31.78670   56.23270   29.03000
  350.52000   93.58970   31.39290   58.98680   28.67330
  350.67240   93.58970   31.18500   56.34100   28.95860
  350.82480  102.56400   32.68700   57.24190   27.17550
  350.97720  104.91500   32.75620   56.78670   27.60340
  351.12960  104.27400   32.08590   54.74710   27.10410
  351.28200  107.90600   32.70960   54.12340   26.46220
  351.43440  116.88000   32.70960   56.24130   26.53350
  351.58680  114.10300   32.38560   57.62830   26.89020
  351.73920  107.90600   32.70960   58.14280   26.96150
  351.89160  111.32500   32.70960   56.82610   26.96150
  352.04400  110.68400   32.52430   56.10260   26.53350
  352.19640  105.12800   32.17750   56.86550   27.74610
  352.34880  102.35000   32.38560   56.86550   29.45790
  352.50120   93.24320   33.00970   56.44940   28.83650
  352.65360  102.41800   33.14840   57.28160   28.47970
  352.80600  112.87300   32.52430   57.21220   29.90720
  352.95840  113.72700   32.31620   57.21220   30.12130
  353.11080  122.26200   32.68560   56.07220   30.47820
  353.26320  124.18200   32.54680   55.89460   28.83650
  353.41560  122.26200   32.73230   55.40920   28.69380
  353.56800  127.38300   32.89380   55.03120   28.97930
  353.72040  126.31600   32.54680   55.86400   28.40830
  353.87280  125.03600   32.33870   55.51700   28.33690
  354.02520  127.80900   32.08330   57.56940   28.62240
  354.17760  133.57000   32.13050   56.48850   28.76520
  354.33000  133.78400   32.13050   56.28040   27.76590
  354.48240  130.15600   32.13050   56.28040   27.05210
  354.63480  130.15600   32.22220   57.08330   26.55250
  354.78720  131.43700   31.87500   57.50000   26.55250
  354.93960  127.80900   32.01390   57.56940   26.33830
  355.09200  127.59600   32.50000   57.22220   27.05210
  355.24440  132.50400   32.50000   56.52780   27.48040
  355.39680  133.99700   32.36110   57.01390   27.05210
  355.54920  134.85100   32.50000   55.55560   27.05210
  355.70160  121.40800   32.36110   57.01390   27.40900
  355.85400  123.75500   32.70830   56.14160   27.26620
  356.00640  124.18200   32.56940   57.50000   27.40900
  356.15880  121.40800   32.22220   56.87500   26.69520
  356.31120  117.56800   32.50000   56.52780   26.55250
  356.46360  124.18200   32.08330   57.36110   27.26620
  356.61600  116.28700   32.22220   57.94590   28.05140
  356.76840  111.16600   32.33870   57.32130   26.98070
  356.92080  109.88600   32.54680   56.83550   26.33830
  357.07320  110.52600   32.84720   56.38890   26.33830
  357.22560  114.15400   32.50000   56.18060   26.05280
  357.37800  116.50100   32.22220   58.33330   26.69520
  357.53040  103.76400   32.68560   57.18250   28.00000
  357.68280  102.48600   32.68560   56.83550   28.42860
  357.83520   98.22440   32.47740   57.87650   29.71430
  357.98760   96.51990   32.54680   56.38890   31.71430
  358.14000   96.94600   32.70830   58.54170   30.00000
  358.29240   92.89770   32.84720   58.98680   29.71430
  358.44480   95.45450   32.89380   56.76610   29.00000
  358.59720   96.09380   32.54680   56.14160   28.57140
  358.74960   92.89770   32.68560   57.52950   29.71430
  358.90200   99.92900   32.33870   59.54200   29.85710
  359.05440  106.74700   32.36110   57.84720   28.50000
  359.20680  116.33500   32.84720   57.39070   27.57140
  359.35920   99.07670   32.13050   57.39070   26.50000
  359.51160  106.96000   31.99170   59.19500   25.64290
  359.66400  107.81300   32.33870   58.98680   24.85710
  359.81640   99.07670   32.89380   58.29290   24.42860
  359.96880  102.91200   33.58780   58.63980   23.64290
