~Version ---------------------------------------------------
VERS. 2.0 : CWLS log ASCII Standard -VERSION 2.0
WRAP.  NO : One line per depth step
~Well ------------------------------------------------------
STRT.M            55.0164 : START
STOP.M            374.904 : STOP
STEP.M 0.1524000000000001 : STEP
NULL.             -999.25 : NULL VALUE
COMP.         RAJAMANDALA : Company
WELL.              33S-15 : Well Name
FLD .         RAJAMANDALA : Field
CTRY.         RAJAMANDALA : Country
STAT.         RAJAMANDALA : State
PROV.                     : Province
LOC .                     : Field Location
PD  .                 MSL : Permanent Datum
UWI .         RAJAMANDALA : Unique Well ID
EKB .M               35.0 : Elevation of KB
ELZ .M               35.0 : Elevation Log Zero
MP  .                  KB : Drill measured from
OS  .                     : Services
SRVC.                     : Service company
RUNS.                   1 : Number of runs
DATE.                     : Date
~Curve Information -----------------------------------------
DEPT.M     : 1  Depth
GR  .API   : 2  Gamma-Ray Log
SN  .OHMM  : 3  Short Normal Resistivity
LN  .OHMM  : 4  Long Normal resistivity
NEUT.CPS   : 5  Neutron Log
~Params ----------------------------------------------------
RUN .                1 : Run number
DATE.      29-AUG-2027 : Log date
DD  .M           374.0 : Depth-Driller
DL  .M           373.6 : Depth-Logger
BLI .M           373.0 : Bottom log interval
TLI .M     RAJAMANDALA : Logging unit Loc
LCC . W.  RAJAMANDALA  : Logging Company ID
~Other -----------------------------------------------------
~ASCII -----------------------------------------------------
# ...
   98.60280  118.37600   32.73110   54.34330   15.21430
   98.75520  112.82100   33.33330   55.41670   15.35710
   98.90760  114.36700   33.47220   54.37500   15.63170
   99.06000  109.45900   33.35650   54.20430   16.00000
   99.21240  112.44700   34.05140   58.30440   16.35710
   99.36480  102.77800   34.86110   58.81940   16.50000
   99.51720  102.35000   33.81940   52.43060   15.64290
   99.66960  107.90600   34.02780   51.59720   16.14290
   99.82200  110.89700   34.37500   51.59720   15.85710
   99.97440   96.58120   34.37500   51.59720   16.14290
  100.12680   96.15380   34.16670   51.59720   15.85710
  100.27920  105.12800   33.33330   51.80560   16.42860
  100.43160  104.48700   32.84720   51.11110   16.07140
  100.58400  102.99100   32.70830   50.76390   15.92860
  100.73640  102.77800   32.68560   52.46360   15.42860
  100.88880  107.05100   32.70830   51.80560   15.35710
  101.04120  111.32500   32.70830   52.91670   16.42860
  101.19360  114.10300   32.47740   52.22220   17.14290
  101.34600  111.96600   32.47740   52.94930   17.05920
  101.49840  102.77800   32.54680   53.57390   16.55960
  101.65080  106.19700   32.98610   54.23610   16.34550
  101.80320   98.07690   32.84720   50.38170   16.50000
  101.95560   96.58120   33.10200   49.68770   16.42860
  102.10800  105.12800   33.44900   51.56140   16.42860
  102.26040  109.61500   33.24080   52.11660   16.28570
  102.41280  104.91500   33.37960   49.68770   16.28570
  102.56520  108.76100   33.10200   52.04720   16.13130
  102.71760  108.76100   32.68560   50.79810   16.70240
  102.87000  103.84600   31.99170   50.58990   16.34550
  103.02240  103.84600   32.13050   50.45110   15.98860
  103.17480  114.10300   32.13050   50.13870   15.98860
  103.32720  108.33300   31.92230   50.55480   16.14290
  103.47960  102.77800   32.13050   49.54890   17.07140
  103.63200  102.77800   32.26930   49.34070   17.14290
  103.78440  112.17900   31.96950   49.37590   16.85710
  103.93680  109.18800   31.96950   49.58390   17.63030
  104.08920   99.35900   31.76140   49.58390   17.05920
  104.24160   99.35900   31.57530   48.78560   15.91720
  104.39400  103.84600   31.48410   49.51460   15.56030
  104.54640  112.17900   31.48410   48.61300   16.13130
  104.69880  110.47000   31.55340   48.61300   16.34550
  104.85120  110.89700   31.55340   49.58390   16.98790
  105.00360  102.41800   31.55340   48.89040   17.13060
  105.15600  106.04600   31.55340   48.54370   17.70160
  105.30840  107.53900   31.34540   48.12760   16.70240
  105.46080  104.97900   31.34540   48.89040   15.91720
  105.61320  106.47200   31.34540   48.75170   15.77440
  105.76560  108.81900   31.48410   49.51460   15.98860
  105.91800  110.95300   31.48410   49.51460   16.63100
  106.07040  111.38000   31.48410   49.37590   16.55960
  106.22280  115.43400   31.48410   49.16780   16.34550
  106.37520  107.96600   31.55340   49.58390   16.11980
  106.52760  111.38000   31.69210   49.09850   16.11980
  106.68000  114.79400   31.76140   49.16780   16.77370
  106.83240  106.47200   31.76140   49.37590   17.13060
  106.98480  106.04600   31.55340   49.79200   17.05920
  107.13720  108.81900   31.55340   50.20800   17.98720
  107.28960  112.44700   31.48410   50.55480   18.41540
  107.44200  107.32600   31.55340   50.62410   17.83170
  107.59440  106.47200   31.55340   50.62410   17.76030
  107.74680  106.68600   31.69210   50.00000   17.11840
  107.89920  109.88600   31.76140   50.34670   16.54780
  108.05160  105.61900   31.76140   50.41610   16.33380
  108.20400  105.61900   31.76140   50.41610   16.54780
  108.35640  105.40500   31.96950   50.34670   16.54780
  108.50880  106.89900   31.96950   50.34670   16.77370
  108.66120  107.75200   31.96950   50.55480   16.34550
  108.81360  109.24600   31.96950   50.00000   16.97570
  108.96600  109.88600   31.96950   50.62410   17.40370
  109.11840  105.40500   31.76140   51.17890   17.33240
  109.27080  104.76500   31.76140   50.83220   17.11840
  109.42320  112.66000   31.96950   51.38700   16.97570
  109.57560  112.23300   32.10820   50.97090   16.47650
  109.72800  107.32600   32.10820   51.17890   16.47650
  109.88040  106.47200   32.17750   51.17890   16.26250
  110.03280  107.53900   32.10820   51.31760   16.26250
  110.18520  111.38000   31.96950   51.38700   16.97570
  110.33760   99.85770   32.17750   50.13870   16.97570
  110.49000  101.56500   31.96950   50.83220   17.11840
  110.64240   99.00430   31.96950   51.17890   18.18830
  110.79480  105.19200   31.96950   51.31760   18.61630
  110.94720  107.96600   32.17750   51.04020   18.54490
  111.09960   99.85770   31.96950   51.04020   18.83020
  111.25200   97.79830   31.78350   51.56140   18.18830
  111.40440  106.10800   31.99170   51.28380   17.76030
  111.55680  105.25600   32.13050   51.35320   18.04560
  111.70920  103.27200   32.10820   52.21910   17.97430
  111.86160  106.04600   32.10820   51.80310   17.33240
  112.01400   94.31010   32.10820   51.80310   18.54490
  112.16640  111.38000   32.10820   51.73370   18.61630
  112.31880  106.47200   32.17750   51.38700   19.25820
  112.47120  104.61600   32.17750   51.38700   18.18830
  112.62360  101.42000   32.26930   51.00620   18.83020
  112.77600  102.27300   32.26930   51.35320   19.18690
  112.92840   90.76700   32.26930   51.14500   19.18690
  113.08080   90.55400   32.26930   51.90840   19.47220
  113.23320  101.20700   32.13050   52.94930   18.83020
  113.38560  104.76500   32.10820   54.02220   19.04420
  113.53800  107.32600   32.10820   52.84330   19.18690
  113.69040  112.87300   32.17750   51.56140   18.54490
  113.84280  111.64800   32.13050   52.04720   18.40230
  113.99520  104.40300   32.33870   52.81050   19.18690
  114.14760  100.78100   32.47740   52.25540   19.04420
  114.30000   97.58520   33.03260   54.96180   18.83020
  114.45240  107.17300   33.03260   52.67180   18.40230
  114.60480  106.74700   33.10200   53.71270   18.54490
  114.75720  104.40300   33.03260   51.70020   17.76030
  114.90960  100.78100   33.03260   52.60240   16.97570
  115.06200   97.79830   33.03260   52.04720   16.97570
  115.21440   99.07670   33.03260   52.81050   16.69040
  115.36680  101.42000   33.03260   53.15750   16.33380
  115.51920  107.81300   33.10200   53.15750   16.54780
  115.67160  107.81300   32.68560   53.71270   15.90580
  115.82400  109.09100   32.82440   53.50450   15.83450
  115.97640  105.89500   32.47740   53.50450   16.54780
  116.12880  103.12500   32.54680   55.17000   16.54780
  116.28120  109.57400   33.03260   54.05970   16.54780
  116.43360  108.72300   33.03260   57.18250   16.54780
  116.58600  101.91500   33.03260   57.73770   16.47650
  116.73840   94.38920   33.03260   56.62730   17.05920
  116.89080   99.92900   33.03260   55.37820   17.84440
  117.04320  108.23900   33.03260   56.28040   18.34400
  117.19560  105.46900   33.58780   54.96180   18.70090
  117.34800  101.20700   34.69810   52.25540   19.77160
  117.50040   99.71590   34.90630   54.75360   19.91430
  117.65280  101.48900   34.48990   55.93340   20.11410
  117.80520  104.04300   33.79600   52.94930   19.47220
  117.95760  109.14900   34.14300   52.94930   19.47220
  118.11000  101.91500   33.58780   56.76610   19.25820
  118.26240  100.00000   33.58780   56.83550   19.61480
  118.41480  108.66500   33.58780   54.26790   19.12920
  118.56720  102.06000   33.44900   54.12910   18.48680
  118.71960  100.00000   33.58780   53.01870   18.41540
  118.87200  105.95700   32.89380   52.39420   18.05850
  119.02440  107.23400   33.37960   51.90840   18.41540
  119.17680  109.14900   33.24080   52.04720   19.12920
  119.32920  101.48900   33.79600   52.46360   19.20060
  119.48160   96.80850   33.24080   52.81050   19.48610
  119.63400  103.19100   33.44900   52.04720   21.12780
  119.78640   93.61700   32.89380   52.46360   21.41330
  119.93880   91.91490   32.47740   53.85150   20.77090
  120.09120  105.95700   32.33870   54.05970   20.91360
  120.24360   94.68090   32.68560   52.46360   20.19990
