~Version ---------------------------------------------------
VERS. 2.0 : CWLS log ASCII Standard -VERSION 2.0
WRAP.  NO : One line per depth step
~Well ------------------------------------------------------
STRT.M            55.0164 : START
STOP.M            374.904 : STOP
STEP.M 0.1524000000000001 : STEP
NULL.             -999.25 : NULL VALUE
COMP.         RAJAMANDALA : Company
WELL.              33S-15 : Well Name
FLD .         RAJAMANDALA : Field
CTRY.         RAJAMANDALA : Country
STAT.         RAJAMANDALA : State
PROV.                     : Province
LOC .                     : Field Location
PD  .                 MSL : Permanent Datum
UWI .         RAJAMANDALA : Unique Well ID
EKB .M               35.0 : Elevation of KB
ELZ .M               35.0 : Elevation Log Zero
MP  .                  KB : Drill measured from
OS  .                     : Services
SRVC.                     : Service company
RUNS.                   1 : Number of runs
DATE.                     : Date
~Curve Information -----------------------------------------
DEPT.M     : 1  Depth
GR  .API   : 2  Gamma-Ray Log
SN  .OHMM  : 3  Short Normal Resistivity
LN  .OHMM  : 4  Long Normal resistivity
NEUT.CPS   : 5  Neutron Log
~Params ----------------------------------------------------
RUN .                1 : Run number
DATE.      29-AUG-2027 : Log date
DD  .M           374.0 : Depth-Driller
DL  .M           373.6 : Depth-Logger
BLI .M           373.0 : Bottom log interval
TLI .M     RAJAMANDALA : Logging unit Loc
LCC . W.  RAJAMANDALA  : Logging Company ID
~Other -----------------------------------------------------
~ASCII -----------------------------------------------------
# ...
  360.12120   96.09380   33.58780   58.84800   22.50000
  360.27360   94.38920   33.03260   56.62730   22.00000
  360.42600  101.42000   33.24080   56.62730   22.35710
  360.57840  111.64800   33.44900   57.87650   23.42860
  360.73080  121.23600   33.65720   58.98680   23.64290
  360.88320  120.17000   33.42580   58.25240   23.00000
  361.03560  116.97400   33.44900   57.94590   22.35710
  361.18800  116.97400   32.89380   57.59890   22.00000
  361.34040  111.64800   32.68560   58.29290   22.14290
  361.49280  113.13900   33.24080   59.33380   21.64290
  361.64520  111.43500   33.37960   60.09720   22.00000
  361.79760  119.31800   33.00970   60.26350   21.00000
  361.95000  119.31800   33.14840   60.26350   21.78570
  362.10240  118.67900   33.03260   60.09720   21.28570
  362.25480  116.12200   33.24080   61.06870   21.21430
  362.40720  121.02300   33.44900   61.41570   22.07140
  362.55960  120.17000   33.77250   59.70870   21.21430
  362.71200  125.07100   33.56450   60.26350   21.28570
  362.86440  125.71000   33.77250   59.91680   21.21430
  363.01680  120.17000   33.79600   60.44410   21.00000
  363.16920  120.38400   33.93480   60.65230   22.92860
  363.32160  112.50000   34.18860   59.70870   23.28570
  363.47400  104.83000   33.56450   58.52980   23.57140
  363.62640  102.06000   33.77250   59.84740   24.57140
  363.77880  107.59900   33.42580   58.32180   25.78570
  363.93120  104.61600   33.98060   60.16650   27.28570
  364.08360  118.89200   33.93480   60.99930   27.42860
  364.23600  108.66500   33.98060   58.66850   24.57140
  364.38840  107.17300   33.77250   58.52980   24.57140
  364.54080  106.96000   33.91120   57.21220   25.35710
  364.69320  104.40300   33.00970   58.11370   25.57140
  364.84560  101.63400   33.42580   58.46050   25.35710
  364.99800  100.78100   33.98060   58.87660   25.14290
  365.15040  105.19200   33.98060   59.29260   25.42860
  365.30280  108.60600   33.21780   60.05550   25.78570
  365.45520  100.49800   32.73230   57.21220   26.78570
  365.60760   94.09670   32.94040   58.66850   26.42860
  365.76000  100.49800   33.14840   57.00420   27.92860
  365.91240  109.03300   32.94040   59.84740   28.00000
  366.06480  115.43400   33.35640   60.26350   28.35710
  366.21720  119.91500   34.11930   56.58810   27.57140
  366.36960  129.09000   33.98060   56.44940   26.76660
  366.52200  134.42400   33.91120   60.26350   26.55250
  366.67440  139.33100   33.63380   59.91680   26.33830
  366.82680  135.49100   33.42580   61.30370   26.69520
  366.97920  132.71700   33.56450   61.85850   25.98140
  367.13160  129.30300   33.14840   62.27460   24.55390
  367.28400  131.01000   32.80170   62.76010   25.76730
  367.43640  126.10200   33.63380   60.54090   26.12420
  367.58880  128.87600   33.91120   61.09570   25.53500
  367.74120  129.94300   33.98060   60.05550   26.67620
  367.89360  123.96900   33.77250   61.71980   26.74750
  368.04600  129.94300   34.60470   60.05550   25.03570
  368.19840  129.30300   34.81280   59.91680   14.62200
  368.35080  118.84800   33.98060   60.26350   14.05140
  368.50320  120.55500   34.18860   59.29260   13.98000
  368.65560  112.87300   34.11930   59.22330   14.05140
  368.80800  112.23300   33.98060   59.84740   14.18390
  368.96040  113.30000   33.98060   58.11370   14.18390
  369.11280  117.56800   33.42580   59.84740   14.32640
  369.26520  124.39500   33.77250   59.91680   14.32640
  369.41760  115.86100   33.63380   57.83630   14.32640
  369.57000  122.47500   33.35640   57.28160   14.32640
  369.72240  119.91500   33.63380   56.65740   14.32640
  369.87480  125.03600   33.56450   57.62830   14.32640
  370.02720  119.44400   33.56450   57.07350   14.32640
  370.17960  116.23900   33.77250   57.48960   14.32640
  370.33200  122.22200   32.73230   59.01530   14.32640
  370.48440  113.03400   32.73230   59.50070   14.75410
  370.63680  116.45300   32.73230   58.04440   14.75410
  370.78920  117.73500   32.52430   58.87660   14.75410
  370.94160  125.42700   32.50170   57.93490   14.89670
  371.09400  126.28200   32.70960   57.38050   14.89670
  371.24640  121.36800   32.64030   57.03400   14.90730
  371.39880  124.57300   33.14840   55.82520   14.90730
  371.55120  122.43600   33.56450   57.48960   14.47930
  371.70360  120.29900   32.94040   56.96470   14.47930
  371.85600  114.10300   33.33330   58.14280   14.47930
  372.00840  120.08500   32.64030   58.14280   14.47930
  372.16080  125.21400   32.91750   55.64800   14.76460
  372.31320  126.92300   32.50170   55.64800   15.04990
  372.46560  126.92300   32.29380   55.64800   15.04990
  372.61800  126.92300   33.12540    -999.25   15.06070
  372.77040  126.92300   32.70960    -999.25   15.06070
  372.92280  126.92300   33.12540    -999.25   15.06070
  373.07520  126.92300   32.64030    -999.25   15.06070
  373.22760  126.92300   32.64030    -999.25   15.06070
  373.38000  126.92300   36.42660    -999.25   15.06070
  373.53240  126.92300   36.42660    -999.25    3.42612
  373.68480  126.92300   36.42660    -999.25    0.07138
  373.83720  126.92300   36.52110    -999.25    0.07143
  373.98960  126.92300   36.52110    -999.25    0.07143
  374.14200  126.92300   36.52110    -999.25    0.42857
  374.29440  126.92300   36.56510    -999.25    0.07143
  374.44680  126.92300    -999.25    -999.25    0.07143
  374.59920  126.92300    -999.25    -999.25    0.07143
  374.75160  126.92300    -999.25    -999.25    0.07143
  374.90400  126.92300    -999.25    -999.25    0.07143
