~Version ---------------------------------------------------
VERS. 2.0 : CWLS log ASCII Standard -VERSION 2.0
WRAP.  NO : One line per depth step
~Well ------------------------------------------------------
STRT.M            55.0164 : START
STOP.M            374.904 : STOP
STEP.M 0.1524000000000001 : STEP
NULL.             -999.25 : NULL VALUE
COMP.         RAJAMANDALA : Company
WELL.              33S-15 : Well Name
FLD .         RAJAMANDALA : Field
CTRY.         RAJAMANDALA : Country
STAT.         RAJAMANDALA : State
PROV.                     : Province
LOC .                     : Field Location
PD  .                 MSL : Permanent Datum
UWI .         RAJAMANDALA : Unique Well ID
EKB .M               35.0 : Elevation of KB
ELZ .M               35.0 : Elevation Log Zero
MP  .                  KB : Drill measured from
OS  .                     : Services
SRVC.                     : Service company
RUNS.                   1 : Number of runs
DATE.                     : Date
~Curve Information -----------------------------------------
DEPT.M     : 1  Depth
GR  .API   : 2  Gamma-Ray Log
SN  .OHMM  : 3  Short Normal Resistivity
LN  .OHMM  : 4  Long Normal resistivity
NEUT.CPS   : 5  Neutron Log
~Params ----------------------------------------------------
RUN .                1 : Run number
DATE.      29-AUG-2027 : Log date
DD  .M           374.0 : Depth-Driller
DL  .M           373.6 : Depth-Logger
BLI .M           373.0 : Bottom log interval
TLI .M     RAJAMANDALA : Logging unit Loc
LCC . W.  RAJAMANDALA  : Logging Company ID
~Other -----------------------------------------------------
~ASCII -----------------------------------------------------
# ...
  272.94840  116.19100   31.48020   53.92630   43.83950
  273.10080  112.76700   31.27170   53.50940   44.55590
  273.25320  111.27000   31.13270   54.06530   43.98280
  273.40560  103.99400   31.01530   54.79830   42.62180
  273.55800   92.65340   31.36300   53.75520   42.47850
  273.71040   87.73180   31.36300   53.33800   42.19200
  273.86280   86.87590   31.29350   54.24200   42.90830
  274.01520   85.16410   31.15440   51.59940   42.62180
  274.16760   96.71900   31.31520   53.09670   42.19200
  274.32000  109.77200   31.31520   52.60960   42.04870
  274.47240  111.27000   31.31520   53.16630   41.76220
  274.62480  114.69300   31.17610   52.67920   41.47560
  274.77720  112.76700   31.10650   52.95760   41.90540
  274.92960  109.77200   31.03690   51.91370   42.33520
  275.08200  106.28600   31.19780   52.08910   41.33240
  275.23440  109.92900   31.05850   51.88020   41.18910
  275.38680  106.71400   31.05850   52.43730   42.19200
  275.53920  109.07100   30.98890   50.00000   42.47850
  275.69160  109.50000   30.84960   51.81060   42.76500
  275.84400  105.64300   30.84960   50.83570   43.05160
  275.99640  113.35700   30.68890   50.69640   43.05160
  276.14880  107.14300   30.48020   52.74880   41.90540
  276.30120  106.28600   30.57100   52.78550   42.33520
  276.45360  107.41800   30.08360   50.48750   43.26650
  276.60600  101.64100   30.77990   51.46240   43.83950
  276.75840   95.64910   30.64070   51.46240   44.12610
  276.91080   96.71900   30.43180   53.62120   44.12610
  277.06320   95.86310   30.82810   53.86220   44.84240
  277.21560   94.15120   30.61930   52.40080   43.98280
  277.36800   89.44360   30.13220   51.91370   43.69630
  277.52040   89.87160   30.77990   51.39280   44.55590
  277.67280   92.65340   30.98890   51.39280   45.12890
  277.82520   93.93720   31.05850   51.39280   45.27220
  277.97760   89.87160   30.84960   53.86220   45.48710
  278.13000   87.51780   31.17610   54.34930   44.98570
  278.28240   85.16410   30.82810   53.51430   44.69910
  278.43480   81.31240   30.82810   54.34930   46.20340
  278.58720   80.88450   30.82810   55.94990   46.49000
  278.73960   85.89740   30.84960   53.83010   45.12890
  278.89200   85.47010   30.77990   53.27300   43.83950
  279.04440   83.97440   31.17610   55.69440   43.83950
  279.19680   86.32480   31.45440   55.74110   44.55590
  279.34920   88.67520   31.52400   55.04520   45.12890
  279.50160   80.98290   32.15030   54.55810   45.12890
  279.65400   79.70090   32.15030   53.86220   45.27220
  279.80640   89.31620   31.80240   52.67920   44.12610
  279.95880  107.69200   32.15030   53.37510   43.98280
  280.11120  120.29900   32.15030   53.58390   44.69910
  280.26360  119.44400   32.49830   54.55810   45.63040
  280.41600  120.72600   32.01110   55.25400   46.06020
  280.56840  115.17100   31.80240   55.04520   44.98570
  280.72080  107.47900   31.66320   52.67920   44.41260
  280.87320  109.61500   31.31520   54.34930   44.69910
  281.02560  107.90600   31.36300   55.69440   44.41260
  281.17800  109.61500   31.66320   52.99030   43.83950
  281.33040   82.69230   31.45440   55.53240   43.05160
  281.48280   82.05130   31.17610   54.69730   42.47850
  281.63520   95.29910   31.10650   54.69730   43.69630
  281.78760  111.53800   31.10650   53.58390   43.83950
  281.94000  116.88000   30.96730   53.72300   43.98280
  282.09240  119.44400   30.59810   53.26840   44.41260
  282.24480  118.16200   31.15440   55.28510   46.06020
  282.39720  114.31600   30.87620   53.54660   46.34670
  282.54960  115.81200   30.82810   53.72300   45.63040
  282.70200  113.03400   31.17610   54.07100   45.41550
  282.85440  112.82100   30.96730   54.90610   44.98570
  283.00680  120.51300   31.29350   55.69440   45.41550
  283.15920  121.15400   31.29350   54.45060   45.12890
  283.31160  121.79500   31.29350   54.86790   44.41260
  283.46400  115.59800   31.01530   53.68570   44.84240
  283.61640  114.31600   31.15440   53.12930   45.27220
  283.76880  125.21400   31.45440   53.54660   44.69910
  283.92120  130.34200   31.64120   53.93180   44.98570
  284.07360  125.64100   31.64120   53.96380   44.98570
  284.22600  118.37600   31.64120   55.14600   44.69910
  284.37840  117.94900   31.36300   55.28510   43.98280
  284.53080  127.77800   31.64120   54.24200   43.26650
  284.68320  124.57300   31.50210   53.12930   43.98280
  284.83560  127.99100   31.64120   54.86790   45.63040
  284.98800  129.27300   31.64120   56.05010   46.20340
  285.14040  129.27300   31.78030   52.99030   46.63320
  285.29280  119.44400   31.64120   54.58970   45.27220
  285.44520  125.21400   31.50210   53.12930   45.12890
  285.59760  125.42700   31.50210   52.99030   45.63040
  285.75000  121.58100   31.29350   54.45060   45.12890
  285.90240  113.03400   31.29350   54.58970   45.63040
  286.05480  115.59800   31.41070   54.20430   45.48710
  286.20720  115.81200   31.68870   53.82480   44.69910
  286.35960  113.24800   31.50210   53.68570   44.02290
  286.51200   98.07690   31.36300   55.14600   45.45450
  286.66440   92.30770   31.50210   54.72880   47.17250
  286.81680   85.47010   31.50210   53.12930   47.24410
  286.96920   85.25640   31.50210   53.30090   46.45670
  287.12160   86.32480   31.41070   54.20430   47.24410
  287.27400   82.90600   31.41070   53.43990   47.17250
  287.42640   88.88890   31.54970   52.99030   46.81460
  287.57880  100.21400   31.50210   52.78160   46.35190
  287.73120  108.76100   31.50210   53.40750   46.06580
  287.88360  112.17900   31.50210   52.99030   45.99430
  288.03600  107.69200   31.41070   53.02290   45.63660
  288.18840  109.18800   31.41070   52.11950   47.35340
  288.34080  106.62400   31.27170   53.16190   46.35190
  288.49320  117.09400   31.13270   52.81450   46.99570
  288.64560  129.91500   31.13270   53.30090   47.28180
  288.79800  131.62400   31.15440   52.99030   49.53540
  288.95040  129.91500   31.01530   52.85120   49.96430
  289.10280  124.78600   30.85480   52.88390   48.89210
  289.25520  124.35900   30.71580   53.71790   47.03360
  289.40760  130.76900   31.13270   54.48230   45.81840
  289.56000  127.99100   30.99370   53.02290   45.67550
  289.71240  131.62400   30.99370   52.88390   46.24730
  289.86480  120.72600   30.71580   53.57890   46.31880
  290.01720  121.58100   31.13270   53.85680   46.10440
  290.16960  135.89700   31.13270   52.39750   45.50000
  290.32200  137.39300   31.27170   51.98050   46.28570
  290.47440  126.49600   30.99370   53.02290   46.00000
  290.62680  120.51300   31.13270   51.21610   45.64290
  290.77920  116.88000   31.13270   53.02290   46.64290
  290.93160  125.21400   31.13270   52.11950   48.42860
  291.08400  116.66700   31.04170   51.73610   49.35710
  291.23640  109.18800   30.99370   52.11950   48.35710
  291.38880  110.47000   30.99370   51.35510   48.21430
  291.54120  103.84600   30.85480   52.81450   48.07140
  291.69360  106.62400   31.13270   52.11950   48.42860
  291.84600  104.91500   30.99370   52.67550   48.78570
  291.99840  110.47000   31.04170   54.93060   48.28570
  292.15080  114.74400   30.90280   52.29170   47.78570
  292.30320  113.03400   30.69440   51.45830   47.50000
  292.45560  114.53000   31.11110   51.49410   47.78570
  292.60800  108.97400   31.27170   53.16190   47.64290
  292.76040  114.31600   31.41070   54.89920   47.28570
  292.91280  114.74400   31.41070   54.89920   46.35710
  293.06520  109.18800   31.25000   54.93060   43.35710
  293.21760  103.84600   31.18060   53.26390   45.64290
  293.37000   96.36750   31.25000   54.09720   44.35710
  293.52240   96.58120   31.66670   55.06940   43.50000
  293.67480   96.79490   31.66670   55.06940   42.92860
  293.82720  101.49600   31.68870   54.62130   39.42860
  293.97960  108.33300   31.54970   54.09720   43.00000
  294.13200  119.23100   31.38890   54.72220   46.35710
  294.28440  115.38500   31.52780   54.09720   47.78570
  294.43680  115.59800   31.52780   54.93060   47.42860
  294.58920  105.12800   31.52780   54.09720   46.28570
