~Version ---------------------------------------------------
VERS. 2.0 : CWLS log ASCII Standard -VERSION 2.0
WRAP.  NO : One line per depth step
~Well ------------------------------------------------------
STRT.M            55.0164 : START
STOP.M            374.904 : STOP
STEP.M 0.1524000000000001 : STEP
NULL.             -999.25 : NULL VALUE
COMP.         RAJAMANDALA : Company
WELL.              33S-15 : Well Name
FLD .         RAJAMANDALA : Field
CTRY.         RAJAMANDALA : Country
STAT.         RAJAMANDALA : State
PROV.                     : Province
LOC .                     : Field Location
PD  .                 MSL : Permanent Datum
UWI .         RAJAMANDALA : Unique Well ID
EKB .M               35.0 : Elevation of KB
ELZ .M               35.0 : Elevation Log Zero
MP  .                  KB : Drill measured from
OS  .                     : Services
SRVC.                     : Service company
RUNS.                   1 : Number of runs
DATE.                     : Date
~Curve Information -----------------------------------------
DEPT.M     : 1  Depth
GR  .API   : 2  Gamma-Ray Log
SN  .OHMM  : 3  Short Normal Resistivity
LN  .OHMM  : 4  Long Normal resistivity
NEUT.CPS   : 5  Neutron Log
~Params ----------------------------------------------------
RUN .                1 : Run number
DATE.      29-AUG-2027 : Log date
DD  .M           374.0 : Depth-Driller
DL  .M           373.6 : Depth-Logger
BLI .M           373.0 : Bottom log interval
TLI .M     RAJAMANDALA : Logging unit Loc
LCC . W.  RAJAMANDALA  : Logging Company ID
~Other -----------------------------------------------------
~ASCII -----------------------------------------------------
# ...
  229.36200  120.29900   31.19780   53.76040   27.31810
  229.51440  114.31600   31.19780   53.27300   27.60340
  229.66680  105.34200   31.12810   54.17830   27.38940
  229.81920   92.73500   31.05850   53.55150   26.74750
  229.97160  105.76900   30.98890   54.03900   26.96150
  230.12400   93.58970   30.84960   54.38720   25.89160
  230.27640  109.18800   31.05850   53.48190   25.24960
  230.42880  106.62400   31.05850   54.03900   25.89160
  230.58120  100.64100   31.19780   54.03900   25.46360
  230.73360  101.92300   31.05850   53.62120   25.46360
  230.88600   75.00000   31.05850   52.64620   25.32100
  231.03840   71.79490   30.98890   51.88020   25.89160
  231.19080   65.07820   30.98890   51.39280   25.96290
  231.34320   65.07820   30.98890   52.43730   25.73060
  231.49560   85.56190   30.98890   51.88020   26.79970
  231.64800   85.89740   30.98890   52.22840   27.74610
  231.80040   79.70090   30.84960   52.01950   27.31810
  231.95280   78.63250   30.84960   51.81060   27.10410
  232.10520   90.59830   30.84960   51.88020   26.46220
  232.25760  111.32500   30.98890   52.43730   26.46220
  232.41000  120.72600   30.98890   52.64620   26.53350
  232.56240  128.45000   30.82810   51.56580   26.58590
  232.71480  126.31600   30.82810   52.19210   26.30080
  232.86720  120.34100   30.96730   51.56580   27.08480
  233.01960  119.06100   31.31520   51.56580   25.87310
  233.17200  132.50400   31.10650   52.54000   25.44550
  233.32440  139.31600   31.31520   52.54000   26.10560
  233.47680  141.23900   31.31520   52.26170   26.74750
  233.62920  130.76900   31.45440   52.26170   27.31810
  233.78160  145.30600   31.45440   51.91370   28.08270
  233.93400  146.15900   31.45440   51.42660   26.94230
  234.08640  129.94300   31.45440   51.91370   27.08480
  234.23880  131.22300   31.31520   51.56580   26.79970
  234.39120  130.15600   31.31520   52.19210   27.51250
  234.54360  136.55800   31.31520   51.70490   28.08270
  234.69600  136.98400   31.17610   51.91370   28.15400
  234.84840  131.01000   31.17610   51.84410   28.29650
  235.00080  116.28700   31.01530   52.99030   27.36990
  235.15320  115.00700   31.01530   52.85120   26.79970
  235.30560  121.62200   31.01530   53.12930   26.94230
  235.45800  129.94300   31.01530   53.26840   28.43910
  235.61040  127.59600   30.87620   53.68570   28.43910
  235.76280  121.83500   30.87620   52.85120   28.29650
  235.91520  113.94000   30.87620   53.82480   28.86670
  236.06760  113.72700   30.87620   53.40750   29.13110
  236.22000  118.04000   30.87620   52.78160   29.05980
  236.37240  115.69600   31.01530   52.36440   28.91740
  236.52480  123.15300   31.01530   52.08620   29.84330
  236.67720  121.87500   30.87620   51.66900   29.79330
  236.82960  126.31600   31.01530   52.36440   29.65070
  236.98200  126.52900   31.01530   51.80810   30.22100
  237.13440  127.59600   31.01530   52.22530   30.19940
  237.28680  121.40800   31.01530   52.08620   30.19940
  237.43920  126.31600   31.01530   51.49410   29.62960
  237.59160  121.87500   30.99370   52.53650   29.48720
  237.74400  124.85800   30.99370   52.67550   29.48720
  237.89640  122.51400   30.99370   51.35510   29.48720
  238.04880  128.69300   30.99370   52.11950   29.46620
  238.20120  130.39800   30.99370   52.53650   29.25270
  238.35360  134.63700   30.99370   51.63310   28.77490
  238.50600  131.22300   30.99370   51.63310   28.34760
  238.65840  133.57000   30.99370   52.11950   28.70370
  238.81080  131.25000   30.99370   51.84160   28.56130
  238.96320  123.58000   30.99370   51.98050   29.05980
  239.11560  119.53100   30.99370   52.11950   28.96800
  239.26800  112.50000   30.99370   51.63310   30.03560
  239.42040  111.64800   30.99370   52.39750   29.60850
  239.57280  121.02300   30.99370   52.53650   30.10680
  239.72520  115.27000   30.99370   51.84160   29.60850
  239.87760  112.92600   30.99370   52.39750   30.10680
  240.03000  106.96000   30.90280   51.59720   30.32030
  240.18240   94.38920   30.90280   52.43060   31.17440
  240.33480   94.38920   30.90280   51.73610   31.45910
  240.48720  103.76400   30.90280   51.45830   30.88970
  240.63960  116.33500   30.90280   51.94440   30.81850
  240.79200  124.64500   30.90280   51.31940   32.24200
  240.94440  121.66200   30.90280   51.11110   31.86340
  241.09680  119.53100   30.90280   52.08330   31.43670
  241.24920  126.34900   30.90280   51.59720   30.60500
  241.40160  128.05400   30.90280   51.80560   30.24910
  241.55400  115.48300   30.90280   51.73610   29.53740
  241.70640  110.15600   30.90280   51.25000   28.96800
  241.85880  109.30400   30.90280   51.80560   29.03910
  242.01120  110.79500   30.90280   52.43060   29.37410
  242.16360  113.13900   30.90280   51.94440   29.72970
  242.31600  110.79500   30.90280   51.31940   29.16070
  242.46840  107.81300   30.90280   51.45830   30.08530
  242.62080  105.89500   30.88130   51.90840   29.82210
  242.77320  111.64800   31.02010   51.83900   30.81850
  242.92560   96.73300   30.88130   51.70020   31.60140
  243.07800   99.07670   30.88130   51.56140   32.29020
  243.23040   99.71590   30.81190   52.46360   33.14370
  243.38280   96.73300   30.88130   53.01870   32.93030
  243.53520  105.46900   30.88130   52.04720   32.78810
  243.68760  108.45200   30.81190   53.50450   32.00570
  243.84000  116.12200   30.88130   52.46360   31.38790
  243.99240  110.15600   31.02010   52.11660   30.58320
  244.14480  114.84400   31.02010   52.04720   30.08530
  244.29720  106.10800   31.08950   52.94930   31.15220
  244.44960  109.30400   31.02010   52.25540   30.86770
  244.60200  111.43500   31.08950   53.15750   30.51210
  244.75440  106.74700   31.02010   52.81050   30.22760
  244.90680  110.15600   31.02010   52.11660   30.51210
  245.05920  112.50000   30.92930   52.42720   30.51210
  245.21160  113.13900   30.92930   51.80310   30.58320
  245.36400  119.53100   30.92930   52.21910   30.58320
  245.51640  125.07100   30.99860   52.84330   29.23190
  245.66880  119.70100   30.92930   52.98200   28.44950
  245.82120  111.16600   30.92930   52.77390   30.10680
  245.97360  111.16600   30.92930   51.73370   31.17440
  246.12600  115.00700   30.92930   51.59500   30.81850
  246.27840  107.53900   30.99860   52.14980   31.10320
  246.43080  104.97900   30.99860   52.56590   30.88970
  246.58320  107.75200   30.99860   52.01110   31.03200
  246.73560  117.56800   30.92930   52.42720   29.84330
  246.88800  121.58100   30.79060   51.80310   29.13110
  247.04040  118.16200   30.92930   51.80310   28.77490
  247.19280  115.59800   30.92930   51.38700   29.98580
  247.34520  117.30800   30.92930   51.73370   29.84330
  247.49760  108.12000   30.92930   51.80310   30.55560
  247.65000  110.47000   30.92930   52.14980   30.12820
  247.80240  106.62400   30.92930   52.56590   30.69800
  247.95480  106.83800   30.79060   52.98200   31.05410
  248.10720  107.05100   30.92930   52.01110   31.62390
  248.25960  109.13000   30.92930   51.94170   32.54990
  248.41200  100.57100   30.92930   51.80310   32.50180
  248.56440   98.00290   30.99860   52.56590   31.86030
  248.71680   98.43080   30.99860   52.98200   31.86030
  248.86920  100.99900   31.13730   53.05130   32.28800
  249.02160   95.00710   30.92930   52.42720   32.35920
  249.17400   94.36520   31.13730   52.77390   32.59630
  249.32640  105.21400   31.13730   52.35780   32.59630
  249.47880  105.85700   31.13730   53.39810   31.88300
  249.63120   93.85710   31.13730   52.77390   32.59630
  249.78360   96.85710   31.13730   51.80310   32.95290
  249.93600   98.57140   31.13730   52.42720   32.95290
  250.08840  111.85700   31.18500   52.32160   32.16830
  250.24080  112.92900   31.25430   52.04440   32.38230
  250.39320  103.92900   31.25430   51.76720   33.38090
  250.54560  111.00000   31.18500   52.39090   33.16690
  250.69800  113.78600   31.04640   52.66810   34.80740
  250.85040  120.85700   31.25430   53.08390   35.30670
  251.00280  112.98100   31.18500   51.49000   35.52070
