~Version ---------------------------------------------------
VERS. 2.0 : CWLS log ASCII Standard -VERSION 2.0
WRAP.  NO : One line per depth step
~Well ------------------------------------------------------
STRT.M            55.0164 : START
STOP.M            374.904 : STOP
STEP.M 0.1524000000000001 : STEP
NULL.             -999.25 : NULL VALUE
COMP.         RAJAMANDALA : Company
WELL.              33S-15 : Well Name
FLD .         RAJAMANDALA : Field
CTRY.         RAJAMANDALA : Country
STAT.         RAJAMANDALA : State
PROV.                     : Province
LOC .                     : Field Location
PD  .                 MSL : Permanent Datum
UWI .         RAJAMANDALA : Unique Well ID
EKB .M               35.0 : Elevation of KB
ELZ .M               35.0 : Elevation Log Zero
MP  .                  KB : Drill measured from
OS  .                     : Services
SRVC.                     : Service company
RUNS.                   1 : Number of runs
DATE.                     : Date
~Curve Information -----------------------------------------
DEPT.M     : 1  Depth
GR  .API   : 2  Gamma-Ray Log
SN  .OHMM  : 3  Short Normal Resistivity
LN  .OHMM  : 4  Long Normal resistivity
NEUT.CPS   : 5  Neutron Log
~Params ----------------------------------------------------
RUN .                1 : Run number
DATE.      29-AUG-2027 : Log date
DD  .M           374.0 : Depth-Driller
DL  .M           373.6 : Depth-Logger
BLI .M           373.0 : Bottom log interval
TLI .M     RAJAMANDALA : Logging unit Loc
LCC . W.  RAJAMANDALA  : Logging Company ID
~Other -----------------------------------------------------
~ASCII -----------------------------------------------------
# ...
  294.74160  101.49600   31.52780   53.95830   46.07140
  294.89400   99.14530   31.73610   54.93060   45.64290
  295.04640  102.77800   31.73610   54.37500   45.64290
  295.19880  117.94900   31.73610   54.37500   45.42860
  295.35120  118.59000   31.52780   54.93060   47.00000
  295.50360  107.90600   31.66670   55.06940   45.57140
  295.65600  108.97400   31.73610   55.20830   45.50000
  295.80840  110.47000   31.73610   54.58330   45.50000
  295.96080  111.75200   31.52780   53.88890   45.57140
  296.11320  115.59800   31.78350   55.03120   45.28570
  296.26560  117.30800   31.78350   55.20830   44.64290
  296.41800  115.81200   31.87500   54.37500   44.64290
  296.57040  119.65800   31.73610   56.87500   44.92860
  296.72280  117.09400   31.87500   56.38890   45.14290
  296.87520  120.29900   31.87500   57.01390   45.07140
  297.02760  109.18800   32.13050   57.73770   44.64290
  297.18000  108.33300   31.92230   57.94590   44.92860
  297.33240  113.24800   31.99170   55.86400   44.00000
  297.48480  114.10300   32.47740   57.01390   45.92860
  297.63720  122.22200   32.22220   55.41670   46.28570
  297.78960  127.35000   32.56940   56.73610   45.64290
  297.94200  129.70100   32.56940   57.52950   45.28570
  298.09440  132.47900   32.82440   58.15410   45.00000
  298.24680  130.76900   32.68560   58.29290   45.00000
  298.39920  132.05100   32.68560   57.52950   45.00000
  298.55160  141.45300   32.33870   58.08470   44.85710
  298.70400  147.43600   32.84720   56.66670   45.42860
  298.85640  149.57300   33.33330   57.36110   44.64290
  299.00880  142.52100   33.44900   57.52950   44.64290
  299.16120  142.30800   33.37960   57.73770   46.07140
  299.31360  139.31600   33.37960   57.73770   42.92860
  299.46600  141.02600   33.24080   57.18250   42.42860
  299.61840  136.32500   33.03260   59.05620   42.71430
  299.77080  135.89700   33.37960   58.43160   43.28570
  299.92320  127.77800   33.24080   58.63980   43.35710
  300.07560  126.92300   33.24080   57.94590   43.25480
  300.22800  139.74400   33.44900   58.29290   44.89650
  300.38040  138.03400   33.44900   59.19500   45.03930
  300.53280  145.08500   33.79600   59.05620   45.18200
  300.68520  144.44400   33.79600   59.05620   44.96790
  300.83760  141.45300   33.65720   58.29290   45.61030
  300.99000  143.37600   33.65720   57.94590   47.03780
  301.14240  139.31600   33.79600   58.77860   48.46540
  301.29480  133.76100   33.81940   58.54170   47.46610
  301.44720  125.64100   33.68060   59.02780   47.03780
  301.59960  135.47000   33.68060   59.65280   46.75230
  301.75200  124.35900   33.65720   58.63980   46.10990
  301.90440  123.71800   33.58780   59.19500   44.18270
  302.05680  132.90600   33.58780   59.33380   44.25410
  302.20920  132.26500   33.65720   58.98680   43.82580
  302.36160  120.51300   33.58780   58.29290   44.96790
  302.51400  124.57300   33.54170   57.50000   46.25270
  302.66640  117.94900   33.47220   57.36110   46.32410
  302.81880  100.64100   33.33330   58.88890   45.61030
  302.97120  100.64100   33.33330   57.70830   44.25410
  303.12360  109.18800   33.33330   57.50000   42.82660
  303.27600  118.37600   33.19440   59.79170   42.54100
  303.42840  122.00900   32.89380   57.52950   43.25480
  303.58080  124.14500   33.44900   57.18250   43.54030
  303.73320  121.58100   33.58780   58.68060   45.03930
  303.88560  119.65800   33.33330   60.34720   45.53890
  304.03800  116.88000   33.19440   60.00000   45.96720
  304.19040  118.59000   33.33330   58.19440   46.10990
  304.34280  107.47900   33.05560   57.08330   44.96790
  304.49520   94.01710   33.33330   57.84720   45.18200
  304.64760   91.88030   33.54170   58.81940   45.32480
  304.80000  103.20500   33.54170   59.37500   46.10990
  304.95240  105.76900   33.54170   58.33330   46.32410
  305.10480  105.76900   33.47220   57.36110   45.50640
  305.25720  114.74400   33.05560   57.70830   45.50640
  305.40960  121.58100   33.05560   58.47220   44.86450
  305.56200  126.70900   33.47220   58.81940   43.36660
  305.71440  110.68400   33.33330   59.16670   42.51070
  305.86680  105.55600   33.05560   57.98610   42.36800
  306.01920  101.92300   32.98610   58.68060   41.72610
  306.17160   90.38460   32.98610   59.16670   41.29810
  306.32400   91.45300   33.33330   57.22220   41.08420
  306.47640   97.64960   33.54170   58.33330   42.93870
  306.62880  123.29100   33.54170   57.50000   43.65190
  306.78120  118.37600   33.33330   57.70830   42.79600
  306.93360  117.09400   33.47220   57.70830   42.58200
  307.08600  138.67500   33.19440   58.68060   42.15410
  307.23840  131.19700   33.19440   59.16670   41.72610
  307.39080  138.88900   33.33330   58.05560   40.87020
  307.54320  132.47900   33.33330   58.54170   40.72750
  307.69560  132.05100   33.47220   57.50000   40.94150
  307.84800  132.47900   33.47220   57.70830   40.29960
  308.00040  134.40200   33.54170   57.84720   39.87160
  308.15280  136.32500   33.54170   57.84720   38.37380
  308.30520  130.98300   33.54170   59.02780   37.94580
  308.45760  120.72600   33.33330   57.50000   36.30530
  308.61000  111.96600   33.19440   57.70830   36.09130
  308.76240   99.14530   33.33330   57.70830   36.73320
  308.91480   97.86330   33.33330   58.19440   36.94720
  309.06720   98.29060   33.68060   58.19440   36.09130
  309.21960   89.95730   33.47220   58.33330   36.94720
  309.37200   75.64100   33.05560   58.05560   37.37520
  309.52440   78.20510   33.19440   56.87500   36.73320
  309.67680   81.41030   32.84720   58.68060   36.51930
  309.82920   87.60680   33.19440   58.19440   37.30390
  309.98160  107.69200   33.05560   56.73610   37.37520
  310.13400  108.97400   33.05560   58.47220   36.51930
  310.28640  128.63200   32.84720   57.01390   36.73320
  310.43880  132.05100   32.70830   56.04170   36.37660
  310.59120  130.76900   33.19440   58.33330   36.51930
  310.74360  138.46200   33.05560   57.22220   36.51930
  310.89600  138.46200   32.84720   57.01390   35.73470
  311.04840  130.76900   32.98610   57.84720   35.52070
  311.20080  134.61500   32.56940   57.50000   35.44940
  311.35320  139.74400   32.50000   55.90280   35.44940
  311.50560  134.82900   32.98610   57.50000   34.87870
  311.65800  134.61500   33.05560   58.33330   34.66480
  311.81040  129.27300   33.05560   59.37500   34.59340
  311.96280  123.50400   33.05560   56.87500   35.52070
  312.11520  130.76900   32.98610   56.18060   35.66330
  312.26760  127.13700   32.84720   55.41670   34.80740
  312.42000  135.89700   32.84720   55.55560   34.66480
  312.57240  146.36800   33.47220   57.56940   35.30670
  312.72480  141.88000   33.19440   58.88890   34.87870
  312.87720  141.88000   32.70830   56.87500   34.23680
  313.02960  149.57300   32.36110   58.05560   33.88020
  313.18200  130.34200   32.22220   57.22220   33.88020
  313.33440  129.91500   32.70830   56.66670   34.45080
  313.48680  124.57300   32.56940   56.52780   33.88020
  313.63920  128.41900   33.19440   57.22220   33.80880
  313.79160  130.76900   32.84720   56.87500   33.23820
  313.94400  124.78600   32.70830   56.04170   33.38090
  314.09640  127.77800   32.84720   55.55560   32.81030
  314.24880  128.20500   32.70830   55.55560   31.31240
  314.40120  126.92300   32.50000   56.04170   31.95440
  314.55360  126.92300   32.22220   55.20830   30.95580
  314.70600  127.99100   32.84720   59.16670   30.67050
  314.85840  133.12000   32.84720   57.84720   30.88450
  315.01080  128.20500   33.19440   56.66670   31.62030
  315.16320  121.58100   32.84720   56.04170   32.19130
  315.31560  121.58100   32.84720   55.76390   33.47610
  315.46800  133.33300   32.84720   55.90280   32.69090
  315.62040  136.96600   32.98610   58.19440   33.54750
  315.77280  140.81200   33.05560   57.98610   34.11850
  315.92520  138.67500   32.70830   58.54170   35.18920
  316.07760  136.75200   33.03260   56.28040   34.83230
  316.23000  135.89700   33.24080   57.18250   35.18920
  316.38240  139.74400   33.03260   58.63980   35.47470
