~Version ---------------------------------------------------
VERS. 2.0 : CWLS log ASCII Standard -VERSION 2.0
WRAP.  NO : One line per depth step
~Well ------------------------------------------------------
STRT.M            55.0164 : START
STOP.M            374.904 : STOP
STEP.M 0.1524000000000001 : STEP
NULL.             -999.25 : NULL VALUE
COMP.         RAJAMANDALA : Company
WELL.              33S-15 : Well Name
FLD .         RAJAMANDALA : Field
CTRY.         RAJAMANDALA : Country
STAT.         RAJAMANDALA : State
PROV.                     : Province
LOC .                     : Field Location
PD  .                 MSL : Permanent Datum
UWI .         RAJAMANDALA : Unique Well ID
EKB .M               35.0 : Elevation of KB
ELZ .M               35.0 : Elevation Log Zero
MP  .                  KB : Drill measured from
OS  .                     : Services
SRVC.                     : Service company
RUNS.                   1 : Number of runs
DATE.                     : Date
~Curve Information -----------------------------------------
DEPT.M     : 1  Depth
GR  .API   : 2  Gamma-Ray Log
SN  .OHMM  : 3  Short Normal Resistivity
LN  .OHMM  : 4  Long Normal resistivity
NEUT.CPS   : 5  Neutron Log
~Params ----------------------------------------------------
RUN .                1 : Run number
DATE.      29-AUG-2027 : Log date
DD  .M           374.0 : Depth-Driller
DL  .M           373.6 : Depth-Logger
BLI .M           373.0 : Bottom log interval
TLI .M     RAJAMANDALA : Logging unit Loc
LCC . W.  RAJAMANDALA  : Logging Company ID
~Other -----------------------------------------------------
~ASCII -----------------------------------------------------
# ...
  207.56880   68.06540   32.03880   54.50760   25.84110
  207.72120   69.98580   31.96950   54.50760   25.84110
  207.87360   69.98580   31.90010   54.36890   26.41370
  208.02600   62.85510   31.90010   53.95280   27.20110
  208.17840   62.42900   31.90010   53.95280   27.63060
  208.33080   62.85510   32.03880   53.95280   26.79080
  208.48320   66.26420   31.96950   54.23020   26.36100
  208.63560   73.29550   31.96950   54.50760   26.21780
  208.78800   75.32010   31.96950   54.36890   26.36100
  208.94040   76.38690   31.96950   54.09150   26.27060
  209.09280   76.27840   31.90010   53.67540   27.20110
  209.24520   74.14770   31.90010   54.29960   28.15190
  209.39760   71.80400   31.90010   53.74480   29.01150
  209.55000   73.72160   31.90010   54.23020   29.15470
  209.70240   78.62220   31.90010   53.74480   28.15190
  209.85480   77.13070   31.90010   53.67540   26.79080
  210.00720   72.65630   31.71410   54.02220   26.64760
  210.15960   72.23010   31.78350   53.71270   26.93410
  210.31200   65.83810   31.92230   53.57390   27.72210
  210.46440   58.80680   31.92230   53.78210   26.79080
  210.61680   57.74150   31.78350   54.26790   26.93410
  210.76920   62.85510   31.78350   54.19850   26.62850
  210.92160   64.34660   31.92230   53.29630   26.98640
  211.07400   64.34660   31.99170   54.68420   26.98640
  211.22640   58.80680   31.99170   54.40670   25.62630
  211.37880   54.54550   31.99170   54.19850   26.62850
  211.53120   53.05400   31.92230   54.89240   26.62850
  211.68360   60.51140   31.92230   54.89240   26.41370
  211.83600   62.42900   31.92230   53.85150   26.05580
  211.98840   67.11650   32.06110   54.19850   25.82260
  212.14080   73.72160   31.99170   54.12910   26.68100
  212.29320   81.17900   32.06110   54.82300   26.25180
  212.44560   84.80110   32.06110   54.26790   25.96570
  212.59800   80.96590   32.06110   54.75360   26.32330
  212.75040   77.34380   32.06110   53.85150   25.96570
  212.90280   77.34380   32.19990   54.68420   26.60940
  213.05520   78.83520   32.06110   54.54550   26.60940
  213.20760   75.42610   32.06110   54.40670   25.73270
  213.36000   75.42610   32.06110   53.71270   27.01930
  213.51240   68.60800   31.99170   53.01870   27.01930
  213.66480   67.54260   31.99170   53.15750   26.73340
  213.81720   70.52560   31.99170   53.78210   26.66190
  213.96960   67.54260   31.99170   53.78210   26.37600
  214.12200   63.28130   31.92230   54.33730   26.01860
  214.27440   69.03410   31.71410   54.33730   26.37600
  214.42680   66.26420   31.71410   54.19850   25.92860
  214.57920   72.23010   31.92230   54.33730   25.71430
  214.73160   69.88640   31.92230   54.33730   26.85710
  214.88400   66.69030   31.92230   54.54550   27.57140
  215.03640   67.11650   32.01390   54.58330   27.14290
  215.18880   60.08520   31.87500   54.58330   26.64290
  215.34120   64.77270   32.01390   54.58330   27.42860
  215.49360   69.88640   32.01390   54.58330   27.57140
  215.64600   75.63920   32.01390   54.58330   27.05210
  215.79840   84.37500   32.01390   53.75000   25.69590
  215.95080   88.21020   32.01390   53.75000   26.40970
  216.10320   82.67050   32.01390   54.86110   26.40970
  216.25560   78.62220   32.01390   54.93060   26.05280
  216.40800   75.00000   32.01390   54.58330   26.05280
  216.56040   70.52560   32.01390   54.09720   24.62530
  216.71280   69.46020   32.01390   53.61110   23.34050
  216.86520   74.57390   32.01390   53.12500   24.03710
  217.01760   76.27840   32.01390   53.61110   24.03710
  217.17000   82.67050   32.01390   53.75000   24.17970
  217.32240   79.68750   32.01390   53.61110   24.17970
  217.47480   75.42610   32.01390   53.43990   24.67900
  217.62720   78.62220   31.89720   53.85680   24.82170
  217.77960   78.19600   31.89720   53.71790   24.89300
  217.93200   74.57390   32.03610   53.43990   23.96580
  218.08440   73.72160   32.03610   53.85680   25.03570
  218.23680   71.37780   32.03610   53.57890   25.30290
  218.38920   62.00280   32.03610   54.48230   24.94650
  218.54160   62.00280   32.03610   53.85680   24.94650
  218.69400   57.31530   32.03610   53.57890   25.08910
  218.84640   61.57670   31.89720   53.57890   23.44980
  218.99880   57.31530   32.03610   53.85680   24.23380
  219.15120   55.82390   31.89720   53.71790   24.80400
  219.30360   56.88920   32.03610   53.16190   25.44550
  219.45600   66.69030   31.89720   53.71790   26.56700
  219.60840   67.11650   31.89720   53.57890   26.99430
  219.76080   69.03410   31.89720   54.34330   27.49290
  219.91320   69.88640   31.89720   53.99580   28.06270
  220.06560   63.49430   31.75820   53.30090   28.70370
  220.21800   64.34660   31.75820   53.30090   29.13110
  220.37040   61.57670   31.75820   53.57890   28.56130
  220.52280   63.92050   31.68870   52.53650   27.84900
  220.67520   61.15060   31.68870   53.43990   27.63530
  220.82760   68.18180   31.68870   52.67550   28.77490
  220.98000   74.57390   31.54970   53.43990   28.77490
  221.13240   75.00000   31.54970   53.30090   27.99150
  221.28480   72.97300   31.54970   52.53650   27.51250
  221.43720   73.18630   31.54970   53.16190   28.72420
  221.58960   72.97300   31.54970   53.71790   28.86670
  221.74200   71.80400   31.54970   53.57890   28.56130
  221.89440   79.04830   31.54970   53.16190   27.99150
  222.04680   75.42610   31.54970   53.16190   27.13680
  222.19920   73.72160   31.54970   53.02290   28.06270
  222.35160   85.86650   31.54970   52.81450   28.20510
  222.50400   90.25600   31.50210   53.30090   27.65500
  222.65640   89.40260   31.50210   52.64260   28.58160
  222.80880   91.53630   31.36300   52.99030   29.00930
  222.96120   81.72120   31.50210   52.50350   29.79330
  223.11360   82.78800   31.29350   52.85120   29.00930
  223.26600   88.12230   31.29350   52.78160   27.94010
  223.41840  101.63400   31.29350   52.78160   27.63530
  223.57080  110.15600   31.29350   52.64260   28.34760
  223.72320  110.79500   31.29350   52.36440   28.34760
  223.87560  109.03300   31.29350   52.08620   28.58160
  224.02800  100.28400   31.15440   52.22530   29.29440
  224.18040   84.92180   31.15440   52.64260   28.58160
  224.33280   83.00140   31.15440   52.78160   28.86670
  224.48520   83.42820   31.15440   52.64260   28.08270
  224.63760   75.53340   31.15440   52.78160   27.51250
  224.79000   69.77240   31.01530   52.50350   27.51250
  224.94240   63.79800   31.01530   52.36440   26.79970
  225.09480   62.51780   30.82810   52.95760   26.44330
  225.24720   62.51780   30.96730   52.95760   26.44330
  225.39960   63.58460   30.96730   52.67920   25.30290
  225.55200   66.14510   30.96730   52.60960   26.01570
  225.70440   67.42530   30.96730   52.88800   26.79970
  225.85680   73.18630   30.96730   52.60960   26.79970
  226.00920   74.25320   31.03690   53.72300   26.15820
  226.16160   71.90610   31.03690   53.16630   26.15820
  226.31400   71.15380   31.17610   53.02710   26.46220
  226.46640   71.15380   31.31520   53.44470   26.67620
  226.61880   77.88050   31.38480   52.54000   26.53350
  226.77120   78.73400   31.45440   52.05290   26.30080
  226.92360   79.37410   31.45440   52.81840   26.94230
  227.07600   94.09670   31.45440   52.47040   26.58590
  227.22840  108.60600   31.45440   52.47040   26.44330
  227.38080  125.24900   31.45440   52.81840   27.08480
  227.53320  123.29100   31.47630   52.29800   25.96290
  227.68560  114.31600   31.47630   51.94990   25.03570
  227.83800  106.62400   31.47630   53.27300   24.89300
  227.99040   99.57260   31.47630   53.34260   25.53500
  228.14280   97.43590   31.33700   52.15880   25.96290
  228.29520  111.75200   31.47630   53.83010   25.24960
  228.44760  122.26200   31.47630   54.10860   25.44550
  228.60000  131.22300   31.47630   53.89970   25.58800
  228.75240  133.57000   31.40670   53.62120   26.17690
  228.90480  127.13700   31.33700   54.03900   26.53350
  229.05720  131.19700   31.26740   53.48190   27.17550
  229.20960  126.06800   31.26740   54.73540   27.10410
