~Version ---------------------------------------------------
VERS. 2.0 : CWLS log ASCII Standard -VERSION 2.0
WRAP.  NO : One line per depth step
~Well ------------------------------------------------------
STRT.M                  7.9248 : START
STOP.M                334.9752 : STOP
STEP.M      0.1523999999999992 : STEP
NULL.                  -999.25 : NULL VALUE
COMP.              RAJAMANDALA : Company
CN1 .              RAJAMANDALA : Company Name Line 1
WELL.              RAJAMANDALA : Well Name
FLD .              RAJAMANDALA : Field
CTRY.              RAJAMANDALA : Country
STAT.              RAJAMANDALA : State
PROV.                          : Province
LOC .                          : Field Location
LATI. 000 01' 00.000" S    DMS : Latitude
LONG. 000 01' 01.000" E    DMS : Longitude
PD  .                      MSL : Permanent Datum
UWI .              RAJAMANDALA : Unique Well ID
EKB .M                     9.0 : Elevation of KB
EGL .M                     6.0 : Elevation Ground lv
ELZ .M                     9.0 : Elevation Log Zero
LMF .                       KB : Log measured from
MP  .                       KB : Drill measured from
OS  .                COMPOSITE : Services
OS1 .                      LAT : Other Services Ln 1
OS2 .                 DENS-CAL : Other Services Ln 2
OS3 .                      BHC : Other Services Ln 3
OS4 .                   GR-NEU : Other Services Ln 4
SRVC.                          : Service company
RUNS.                        2 : Number of runs
DATE.                          : Date
~Curve Information -----------------------------------------
DEPT   .M     : 1  Depth
GR     .CPS   : 2  Gamma-Ray Log
CALI   .INCH  : 3  Caliper Log
LAT    .OHMM  : 4  Lateral
DT     .US/F  : 5  Delta T
DEN    .CPS   : 6  Density Log
NEUTRON.CPS   : 7  Neutron
~Params ----------------------------------------------------
RUN .           1 : Run number
DATE.    22-07-24 : Log date
DD  .M      231.0 : Depth-Driller
DL  .M      231.8 : Depth-Logger
BLI .M      231.0 : Bottom log interval
TLI .M        5.0 : Top log interval
CBD1.M       63.7 : Casing-Driller
CBL1.M       36.3 : Casing-Logger
CS  .IN     9.625 : Casing Diameter
BS  .IN       8.5 : Bit Size
DFT .    GEL-CHEM : Hole Fluid type
DFD .LB/G    10.6 : Fluid Density
DFV .S       43.0 : Fluid Viscosity
DFPH.         8.5 : Fluid PH
DFL .C3       8.5 : Fluid Loss
MSS .    FLOWLINE : Mud Sample Source
RMS .OHMM     2.9 : RM  @ Surface
RMT .DEGF    90.0 : Mud temp Surface
RMFS.OHMM    2.15 : RMF @ Surface
RMTF.DEGF    79.0 : MF temp Surface
RMCS.OHMM    2.25 : RMC @ Surface
RMTC.DEGF    79.0 : MC Temp Surface
TCS .       2 HRS : Time circ. stopped
LUN .       AAR 1 : Logging unit No
LUL .      RJMNDL : Logging unit Loc
ENGI.      RJMNDL : Recorded by
WITN.      RJMNDL : Witness
RUN .           2 : Run number
DATE.    23-02-27 : Log date
DD  .M      342.0 : Depth-Driller
DL  .M      331.0 : Depth-Logger
BLI .M      331.0 : Bottom log interval
TLI .M      195.0 : Top log interval
CBD1.M        8.0 : Casing-Driller
CBL1.M       36.3 : Casing-Logger
CS  .IN    13.375 : Casing Diameter
BS  .IN       7.5 : Bit Size
DFT .    GEL-CHEM : Hole Fluid type
MSS .    FLOWLINE : Mud Sample Source
LUL .        BULA : Logging unit Loc
~Other -----------------------------------------------------
GAMMA RAY SCALE : 0 - 150 CPS
CALIPER SCALE : 0 - 20 INCH
LATERAL SCALE : 0 - 200 OHMM
DENSITY SCALE : 0 - 300 CPS
NEUTRON SCALE : 600 - 900 CPS
~ASCII -----------------------------------------------------
# ...
  180.59400    -999.25    8.43750   10.44390  426.11300  206.52600  707.57200
  180.74640    -999.25    8.43750   10.26980  430.40700  197.38800  705.48300
  180.89880    -999.25    8.36806    9.57355  432.55400  188.77200  695.56100
  181.05120    -999.25    8.33333   10.09570  429.87000  190.07700  699.73900
  181.20360    -999.25    8.33333    9.39950  425.84400  206.52600  701.04400
  181.35600    -999.25    8.33333    9.39950  432.82300  215.40600  698.95600
  181.50840    -999.25    8.33333    9.57355  421.01300  208.09500  698.95600
  181.66080    -999.25    8.33333    9.74760  427.99100  202.61100  701.04400
  181.81320    -999.25    8.33333    9.57355  422.62300  205.48200  702.35000
  181.96560    -999.25    8.36806    9.57355  428.79700  221.14800  703.13300
  182.11800    -999.25    8.43750    9.73915  415.37700  214.62000  707.57200
  182.27040    -999.25    8.43750    9.73915  411.08200  204.17700  712.79400
  182.42280    -999.25    8.45217   10.60870  415.37700  202.95600  714.88300
  182.57520    -999.25    8.52174   10.43480  421.28100  202.95600  718.27700
  182.72760   78.24960    8.52174   10.95650  431.21200  190.43400  724.80400
  182.88000   80.32920    8.59130   11.30430  424.23400  195.91200  726.11000
  183.03240   70.45050    8.62609   11.65220  421.81800  204.26100  735.24800
  183.18480   64.47150    8.52174   11.65220  419.13400  191.21700  741.77600
  183.33720   59.53200    8.34783   11.30430  408.93500  199.04400  752.48000
  183.48960   62.65170    8.34783   11.65220  420.74500  195.12900  753.78600
  183.64200   68.11080    8.38261   10.95650  427.72300  191.21700  755.35300
  183.79440   65.25120    8.34783   10.95650  411.08200  206.87100  760.31300
  183.94680   50.52090    8.27826   10.26980  421.81800  218.61000  767.24700
  184.09920   44.53140    8.34783   10.96610  417.79200  213.39000  777.70000
  184.25160   41.92710    8.45217   10.79200  410.81400  214.43400  781.35900
  184.40400   39.84390    8.45217   10.79200  419.67100  217.30500  780.83600
  184.55640   42.18750    8.38261   10.96610  419.13400  208.69500  774.82600
  184.70880   46.87500    8.31304   10.96610  423.96500  219.65100  771.69000
  184.86120   51.56250    8.31304   10.96610  408.39800  217.30500  771.69000
  185.01360    -999.25    8.29268   11.14010  402.76200  201.39000  763.85000
  185.16600    -999.25    8.29268   11.83640  410.81400  204.26100  761.23700
  185.31840    -999.25    8.25784   12.01040  397.39400  213.65100  756.27200
  185.47080    -999.25    8.18815   12.53260  413.76600  217.04400  757.05600
  185.62320    -999.25    8.18815   12.70670  404.10400  223.04400  756.27200
  185.77560    -999.25    8.18815   13.40300  381.29000  218.08800  759.93000
  185.92800    -999.25    8.22300   13.75110  418.06100  220.43400  757.57800
  186.08040    -999.25    8.22300   14.08700  409.47200  223.82700  754.96500
  186.23280    -999.25    8.25784   14.08700  423.96500  234.78300  753.13600
  186.38520    -999.25    8.25784   14.43480  430.67500  221.73900  751.30700
  186.53760    -999.25    8.25784   14.43480  423.96500  213.65100  745.29600
  186.69000    -999.25    8.29268   14.78260  427.99100  225.65100  743.46700
  186.84240    -999.25    8.29268   14.78260  428.79700  214.43400  739.80800
  186.99480    -999.25    8.39721   14.43480  425.84400  213.65100  731.18500
  187.14720    -999.25    8.39721   14.43480  421.55000  225.39000  723.08400
  187.29960    -999.25    8.39721   14.43480  431.21200  223.30500  718.38000
  187.45200    -999.25    8.39721   13.21740  436.31200  216.00000  720.20900
  187.60440    -999.25    8.39721   12.86960  429.60200  210.00000  722.56100
  187.75680    -999.25    8.39721   12.86960  425.30700  207.65100  722.56100
  187.90920    -999.25    8.46690   11.31420  423.96500  214.43400  723.08400
  188.06160    -999.25    8.39721   11.31420  423.96500  214.43400  726.22000
  188.21400    -999.25    8.36237   11.14010  413.22900  198.26100  731.70700
  188.36640    -999.25    8.29268   11.14010  409.74000  199.56600  732.23000
  188.51880    -999.25    8.29268   11.14010  405.71400  161.73900  734.32000
  188.67120    -999.25    8.25784   12.01040  411.35100  171.39000  734.32000
  188.82360    -999.25    8.22300   11.66230  414.84000  162.78300  737.97900
  188.97600    -999.25    8.18815   11.31420  417.25500  173.47800  737.97900
  189.12840    -999.25    8.18815   12.01040  402.22500  178.95600  734.32000
  189.28080    -999.25    8.22300   12.01040  396.32000  191.21700  737.19500
  189.43320   83.18880    8.29268   12.53260  407.32500  179.47800  739.02400
  189.58560   84.74880    8.29268   12.18450  401.15200  192.52200  732.23000
  189.73800   86.04840    8.36237   12.18450  407.05600  188.87100  728.04900
  189.89040   83.96880    8.29268   11.14010  396.85700  192.00000  734.05900
  190.04280   82.66890    8.27826   11.30430  416.42100  204.00000  737.97900
  190.19520   83.18880    8.27826   11.30430  408.89900  207.65100  736.67200
  190.34760   82.66890    8.27826   11.30430  396.00500  199.30500  723.86800
  190.50000   71.49060    8.27826   12.17390  384.18500  194.61000  731.70700
  190.65240   59.53200    8.31304   11.30430  392.78200  184.17300  733.01400
  190.80480   57.45240    8.41739   11.65220  369.67900  177.12900  728.57100
  190.95720   54.85260    8.55652   11.82610  384.18500  182.87100  719.42500
  191.10960   52.51290    8.55652   11.82610  411.04900  190.95600  713.93700
  191.26200   54.59280    8.59130   11.30430  416.95800  208.95600  713.41500
  191.41440   58.49220    8.59130   11.65220  419.10700  200.61000  713.93700
  191.56680   61.61190    8.38261   11.65220  414.00300  202.95600  715.76600
  191.71920   62.13180    8.31304   12.17390  416.69000  190.95600  718.38000
  191.87160   58.75230    8.31304   12.52170  369.14200  185.73900  722.19300
  192.02400   57.45240    8.38261   13.39130  370.75400  164.34900  729.50400
  192.17640   56.41260    8.45217   14.08700  411.04900  169.04400  734.72600
  192.32880   55.37250    8.45217   15.30430  415.07800  173.73900  738.64200
  192.48120   57.71220    8.41739   16.86960  415.34700  165.39000  743.86400
  192.63360   52.51290    8.38261   17.56520  409.13300  185.47800  747.25900
  192.78600   50.43330    8.31304   17.21740  404.83100  205.04400  749.87000
  192.93840   54.59280    8.31304   17.56520  417.19900  202.95600  748.56400
  193.09080   59.53200    8.31304   17.21740  411.82100  200.34900  746.47500
  193.24320   24.55090    8.27826   17.21740  409.13300  219.91200  749.08600
  193.39560   26.94610    8.24348   15.65220  418.27400  214.43400  754.30800
  193.54800   28.44310    8.24348   16.00000  408.59500  197.47800  773.10700
  193.70040   29.94010    8.24348   14.95650  407.52000  208.95600  778.85100
  193.85280   27.84430    8.24348   14.95650  417.73600  201.39000  786.94500
  194.00520   28.14370    8.24348   14.43480  415.04800  197.47800  785.37900
  194.15760   24.25150    8.24348   14.08700  410.20800  210.00000  781.46200
  194.31000   23.65270    8.24348   13.39130  426.34000  195.65100  780.15700
  194.46240   26.04790    8.27826   13.39130  418.27400  192.26100  772.32400
  194.61480   29.94010    8.34783   12.52170  409.67000  180.52200  764.49100
  194.76720   31.43700    8.34783   12.52170  423.11400  194.61000  757.96400
  194.91960   33.23340    8.31304   11.65220  414.24100  182.87100  757.96400
  195.07200   30.83820    8.31304   11.65220  423.89800  191.83200  763.70800
  195.22440   30.23940    8.38261   11.65220  426.58900  208.51500  762.40200
  195.37680   29.34130    8.38261   10.08700  417.97700  201.21600  757.70200
  195.52920   29.04190    8.31304    9.73915  416.90100  198.60900  753.00300
  195.68160   29.04190    8.31304    9.73915  429.28000  214.77000  751.95800
  195.83400   29.94010    8.45217    9.73915  429.81800  204.34500  749.87000
  195.98640   30.53880    8.45217    9.39130  421.20700  217.89900  746.47500
  196.13880   32.03580    8.45217    9.73915  417.43900  205.38600  746.47500
