~Version ---------------------------------------------------
VERS. 2.0 : CWLS log ASCII Standard -VERSION 2.0
WRAP.  NO : One line per depth step
~Well ------------------------------------------------------
STRT.M                  7.9248 : START
STOP.M                334.9752 : STOP
STEP.M      0.1523999999999992 : STEP
NULL.                  -999.25 : NULL VALUE
COMP.              RAJAMANDALA : Company
CN1 .              RAJAMANDALA : Company Name Line 1
WELL.              RAJAMANDALA : Well Name
FLD .              RAJAMANDALA : Field
CTRY.              RAJAMANDALA : Country
STAT.              RAJAMANDALA : State
PROV.                          : Province
LOC .                          : Field Location
LATI. 000 01' 00.000" S    DMS : Latitude
LONG. 000 01' 01.000" E    DMS : Longitude
PD  .                      MSL : Permanent Datum
UWI .              RAJAMANDALA : Unique Well ID
EKB .M                     9.0 : Elevation of KB
EGL .M                     6.0 : Elevation Ground lv
ELZ .M                     9.0 : Elevation Log Zero
LMF .                       KB : Log measured from
MP  .                       KB : Drill measured from
OS  .                COMPOSITE : Services
OS1 .                      LAT : Other Services Ln 1
OS2 .                 DENS-CAL : Other Services Ln 2
OS3 .                      BHC : Other Services Ln 3
OS4 .                   GR-NEU : Other Services Ln 4
SRVC.                          : Service company
RUNS.                        2 : Number of runs
DATE.                          : Date
~Curve Information -----------------------------------------
DEPT   .M     : 1  Depth
GR     .CPS   : 2  Gamma-Ray Log
CALI   .INCH  : 3  Caliper Log
LAT    .OHMM  : 4  Lateral
DT     .US/F  : 5  Delta T
DEN    .CPS   : 6  Density Log
NEUTRON.CPS   : 7  Neutron
~Params ----------------------------------------------------
RUN .           1 : Run number
DATE.    22-07-24 : Log date
DD  .M      231.0 : Depth-Driller
DL  .M      231.8 : Depth-Logger
BLI .M      231.0 : Bottom log interval
TLI .M        5.0 : Top log interval
CBD1.M       63.7 : Casing-Driller
CBL1.M       36.3 : Casing-Logger
CS  .IN     9.625 : Casing Diameter
BS  .IN       8.5 : Bit Size
DFT .    GEL-CHEM : Hole Fluid type
DFD .LB/G    10.6 : Fluid Density
DFV .S       43.0 : Fluid Viscosity
DFPH.         8.5 : Fluid PH
DFL .C3       8.5 : Fluid Loss
MSS .    FLOWLINE : Mud Sample Source
RMS .OHMM     2.9 : RM  @ Surface
RMT .DEGF    90.0 : Mud temp Surface
RMFS.OHMM    2.15 : RMF @ Surface
RMTF.DEGF    79.0 : MF temp Surface
RMCS.OHMM    2.25 : RMC @ Surface
RMTC.DEGF    79.0 : MC Temp Surface
TCS .       2 HRS : Time circ. stopped
LUN .       AAR 1 : Logging unit No
LUL .      RJMNDL : Logging unit Loc
ENGI.      RJMNDL : Recorded by
WITN.      RJMNDL : Witness
RUN .           2 : Run number
DATE.    23-02-27 : Log date
DD  .M      342.0 : Depth-Driller
DL  .M      331.0 : Depth-Logger
BLI .M      331.0 : Bottom log interval
TLI .M      195.0 : Top log interval
CBD1.M        8.0 : Casing-Driller
CBL1.M       36.3 : Casing-Logger
CS  .IN    13.375 : Casing Diameter
BS  .IN       7.5 : Bit Size
DFT .    GEL-CHEM : Hole Fluid type
MSS .    FLOWLINE : Mud Sample Source
LUL .        BULA : Logging unit Loc
~Other -----------------------------------------------------
GAMMA RAY SCALE : 0 - 150 CPS
CALIPER SCALE : 0 - 20 INCH
LATERAL SCALE : 0 - 200 OHMM
DENSITY SCALE : 0 - 300 CPS
NEUTRON SCALE : 600 - 900 CPS
~ASCII -----------------------------------------------------
# ...
  133.50240    -999.25    8.29016    9.04350  346.75700  207.39000  877.52600
  133.65480    -999.25    8.29016    6.95650  353.49600  200.61000  881.70700
  133.80720    -999.25    8.29016    7.82610  347.29600  207.91200  883.53700
  133.95960    -999.25    8.29016    7.82610  352.14800  202.17300  879.87800
  134.11200    -999.25    8.29016    7.47825  352.95700  185.21700  872.56100
  134.26440    -999.25    8.29016    7.47825  356.46100  204.00000  865.24400
  134.41680    -999.25    8.35924    7.47825  349.72200  204.26100  861.58500
  134.56920    -999.25    8.35924    7.47825  346.21700  206.87100  858.44900
  134.72160    -999.25    8.35924    7.47825  350.53000  215.21700  855.31300
  134.87400    -999.25    8.35924    7.47825  348.10400  220.69500  855.83600
  135.02640    -999.25    8.29016    7.47825  362.12200  220.69500  857.92700
  135.17880    -999.25    8.22107    7.47825  358.88700  207.65100  855.83600
  135.33120    -999.25    8.18653    7.47825  354.57400  196.17300  861.32400
  135.48360    -999.25    8.11744    7.82610  352.68700  205.56600  868.90200
  135.63600    -999.25    8.11744    7.47825  365.62600  204.26100  866.28900
  135.78840    -999.25    8.11744    7.47825  363.20000  200.61000  866.28900
  135.94080    -999.25    8.11744    7.47825  350.53000  209.21700  873.08400
  136.09320    -999.25    8.18653    7.47825  349.72200  208.17300  878.57100
  136.24560    -999.25    8.18653    7.82610  361.31300  199.04400  876.22000
  136.39800    -999.25    8.18653    7.82610  374.79100  209.21700  876.74200
  136.55040    -999.25    8.18653    7.47825  385.84300  195.91200  874.91300
  136.70280    -999.25    8.22107    7.30435  374.25200  194.87100  876.74200
  136.85520    -999.25    8.22107    7.30435  387.46100  202.69500  869.94800
  137.00760    -999.25    8.22107    7.30435  373.44300  191.47800  865.24400
  137.16000    -999.25    8.22107    6.95650  363.73900  193.30500  861.58500
  137.31240    -999.25    8.22107    6.95650  366.97400  209.21700  857.14300
  137.46480    -999.25    8.22107    7.47825  377.75700  199.04400  849.82600
  137.61720    -999.25    8.18653    7.47825  384.49600  209.21700  848.51900
  137.76960    -999.25    8.18653    6.95650  380.18300  213.39000  840.68000
  137.92200    -999.25    8.29016    6.95650  374.25200  214.95600  834.40800
  138.07440    -999.25    8.29016    6.95650  395.00900  208.95600  829.96500
  138.22680    -999.25    8.29016    6.95650  398.51300  194.34900  836.23700
  138.37920    -999.25    8.29016    7.30435  414.41700  202.69500  841.72500
  138.53160    -999.25    8.29016    7.47825  412.80000  203.21700  846.16700
  138.68400    -999.25    8.29016    7.82610  414.41700  208.95600  848.51900
  138.83640    -999.25    8.29016    7.47825  418.19100  210.26100  840.41800
  138.98880    -999.25    8.29016    7.82610  407.13900  225.39000  841.72500
  139.14120    -999.25    8.29016    7.82610  423.04300  211.30500  846.69000
  139.29360    -999.25    8.29016    7.82610  405.25200  217.30500  853.48400
  139.44600    -999.25    8.29016    7.82610  395.00900  199.04400  855.83600
  139.59840    -999.25    8.29016    7.82610  416.84300  208.17300  857.14300
  139.75080    -999.25    8.29016    7.82610  421.15700  198.26100  859.49500
  139.90320    -999.25    8.29016    8.17390  416.84300  206.61000  862.10800
  140.05560    -999.25    8.29016    7.47825  415.25600  192.69000  868.90200
  140.20800    -999.25    8.29016    7.82610  434.10900  190.33800  874.39000
  140.36040    -999.25    8.29016    7.47825  425.76000  201.30600  874.39000
  140.51280    -999.25    8.29016    7.82610  415.52600  209.40000  869.42500
  140.66520    -999.25    8.29016    7.47825  426.83800  215.92800  869.42500
  140.81760    -999.25    8.29016    7.47825  420.64300  212.79300  865.24400
  140.97000    -999.25    8.29016    7.47825  414.17900  215.92800  867.07300
  141.12240    -999.25    8.29016    7.30435  422.79800  206.79000  862.10800
  141.27480    -999.25    8.29016    7.30435  422.79800  209.40000  872.03800
  141.42720    -999.25    8.29016    7.47825  395.32600  212.01000  870.73200
  141.57960    -999.25    8.35924    7.47825  386.70700  213.83700  877.26500
  141.73200    -999.25    8.35924    7.47825  377.01100  208.61700  876.22000
  141.88440    -999.25    8.35924    7.47825  399.63500  208.87800  876.74200
  142.03680    -999.25    8.35924    6.96260  397.48000  205.22100  876.74200
  142.18920    -999.25    8.35924    7.13665  407.71500  198.17100  868.90200
  142.34160    -999.25    8.35924    7.48475  421.72000  196.86600  868.11800
  142.49400    -999.25    8.35924    7.48475  414.44800  205.22100  871.77700
  142.64640    -999.25    8.35924    6.96260  412.83200  204.69900  874.39000
  142.79880    -999.25    8.35924    6.96260  420.64300  210.70500  876.22000
  142.95120    -999.25    8.35924    7.13665  420.37400  207.31200  876.22000
  143.10360    -999.25    8.35924    7.13665  415.25600  210.70500  876.22000
  143.25600    -999.25    8.35924    6.96260  410.13900  213.83700  874.91300
  143.40840    -999.25    8.29016    6.96260  400.71200  215.14500  876.74200
  143.56080    -999.25    8.29016    6.96260  416.87200  201.56700  867.07300
  143.71320    -999.25    8.29016    6.96260  419.56600  198.95700  857.14300
  143.86560    -999.25    8.29016    7.13665  427.64600  218.53800  854.00700
  144.01800    -999.25    8.29016    6.96260  428.72300  206.79000  855.83600
  144.17040    -999.25    8.29016    7.13665  433.57100  225.84900  850.87100
  144.32280    -999.25    8.35924    6.96260  435.72500  217.75500  852.96200
  144.47520    -999.25    8.35924    6.96260  425.49100  207.83400  856.35900
  144.62760    -999.25    8.35924    6.96260  416.60300  212.53200  850.87100
  144.78000    -999.25    8.35924    7.13665  396.13400  203.39400  858.44900
  144.93240    -999.25    8.29016    6.96260  387.78500  209.92200  855.83600
  145.08480    -999.25    8.33910    6.96260  429.26200  217.23300  849.04200
  145.23720    -999.25    8.30450    6.78850  424.41400  208.61700  847.21300
  145.38960    -999.25    8.30450    7.13665  398.28800  221.14800  844.33800
  145.54200    -999.25    8.26990    7.48475  405.02200  214.62000  844.86100
  145.69440    -999.25    8.26990    7.13665  410.67800  223.23900  841.20200
  145.84680    -999.25    8.20069    7.13665  403.40600  210.70500  838.06600
  145.99920    -999.25    8.16609    7.48475  437.34100  212.01000  829.24300
  146.15160    -999.25    8.16609    7.13665  425.76000  216.71100  830.28700
  146.30400    -999.25    8.13149    7.13665  403.13600  208.09500  823.76000
  146.45640    -999.25    8.13149    7.13665  394.78700  212.53200  815.92700
  146.60880    -999.25    8.13149    7.48475  361.65900  202.08900  814.62200
  146.76120    -999.25    8.13149    7.48475  386.97700  206.79000  821.93200
  146.91360    -999.25    8.20069    7.13665  395.59500  204.69900  826.37100
  147.06600    -999.25    8.20069    8.35510  403.94400  204.69900  830.54800
  147.21840    -999.25    8.20069    7.13665  410.13900  208.09500  830.54800
  147.37080    -999.25    8.16609    7.13665  392.36300  217.23300  839.68700
  147.52320    -999.25    8.16609    7.13665  391.01700  207.31200  836.55400
  147.67560    -999.25    8.16609    7.48475  400.44300  206.00400  833.15900
  147.82800    -999.25    8.23529    7.13665  401.79000  209.92200  835.77000
  147.98040    -999.25    8.30450    7.14285  378.62700  200.78400  833.94300
  148.13280    -999.25    8.37370    7.14285  387.24600  208.61700  834.46500
  148.28520    -999.25    8.44291    7.66550  413.37100  209.40000  831.85400
  148.43760    -999.25    8.26990    7.14285  426.29900  205.48200  823.76000
  148.59000    -999.25    8.20069    8.01395  405.29100  202.61100  829.76500
  148.74240    -999.25    8.20069    7.83970  416.33400  207.83400  832.63700
  148.89480    -999.25    8.20069    8.01395  431.14700  198.17100  832.37600
  149.04720    -999.25    8.20069    8.01395  411.75500  198.69600  834.98700
