~Version ---------------------------------------------------
VERS. 2.0 : CWLS log ASCII Standard -VERSION 2.0
WRAP.  NO : One line per depth step
~Well ------------------------------------------------------
STRT.M                  7.9248 : START
STOP.M                334.9752 : STOP
STEP.M      0.1523999999999992 : STEP
NULL.                  -999.25 : NULL VALUE
COMP.              RAJAMANDALA : Company
CN1 .              RAJAMANDALA : Company Name Line 1
WELL.              RAJAMANDALA : Well Name
FLD .              RAJAMANDALA : Field
CTRY.              RAJAMANDALA : Country
STAT.              RAJAMANDALA : State
PROV.                          : Province
LOC .                          : Field Location
LATI. 000 01' 00.000" S    DMS : Latitude
LONG. 000 01' 01.000" E    DMS : Longitude
PD  .                      MSL : Permanent Datum
UWI .              RAJAMANDALA : Unique Well ID
EKB .M                     9.0 : Elevation of KB
EGL .M                     6.0 : Elevation Ground lv
ELZ .M                     9.0 : Elevation Log Zero
LMF .                       KB : Log measured from
MP  .                       KB : Drill measured from
OS  .                COMPOSITE : Services
OS1 .                      LAT : Other Services Ln 1
OS2 .                 DENS-CAL : Other Services Ln 2
OS3 .                      BHC : Other Services Ln 3
OS4 .                   GR-NEU : Other Services Ln 4
SRVC.                          : Service company
RUNS.                        2 : Number of runs
DATE.                          : Date
~Curve Information -----------------------------------------
DEPT   .M     : 1  Depth
GR     .CPS   : 2  Gamma-Ray Log
CALI   .INCH  : 3  Caliper Log
LAT    .OHMM  : 4  Lateral
DT     .US/F  : 5  Delta T
DEN    .CPS   : 6  Density Log
NEUTRON.CPS   : 7  Neutron
~Params ----------------------------------------------------
RUN .           1 : Run number
DATE.    22-07-24 : Log date
DD  .M      231.0 : Depth-Driller
DL  .M      231.8 : Depth-Logger
BLI .M      231.0 : Bottom log interval
TLI .M        5.0 : Top log interval
CBD1.M       63.7 : Casing-Driller
CBL1.M       36.3 : Casing-Logger
CS  .IN     9.625 : Casing Diameter
BS  .IN       8.5 : Bit Size
DFT .    GEL-CHEM : Hole Fluid type
DFD .LB/G    10.6 : Fluid Density
DFV .S       43.0 : Fluid Viscosity
DFPH.         8.5 : Fluid PH
DFL .C3       8.5 : Fluid Loss
MSS .    FLOWLINE : Mud Sample Source
RMS .OHMM     2.9 : RM  @ Surface
RMT .DEGF    90.0 : Mud temp Surface
RMFS.OHMM    2.15 : RMF @ Surface
RMTF.DEGF    79.0 : MF temp Surface
RMCS.OHMM    2.25 : RMC @ Surface
RMTC.DEGF    79.0 : MC Temp Surface
TCS .       2 HRS : Time circ. stopped
LUN .       AAR 1 : Logging unit No
LUL .      RJMNDL : Logging unit Loc
ENGI.      RJMNDL : Recorded by
WITN.      RJMNDL : Witness
RUN .           2 : Run number
DATE.    23-02-27 : Log date
DD  .M      342.0 : Depth-Driller
DL  .M      331.0 : Depth-Logger
BLI .M      331.0 : Bottom log interval
TLI .M      195.0 : Top log interval
CBD1.M        8.0 : Casing-Driller
CBL1.M       36.3 : Casing-Logger
CS  .IN    13.375 : Casing Diameter
BS  .IN       7.5 : Bit Size
DFT .    GEL-CHEM : Hole Fluid type
MSS .    FLOWLINE : Mud Sample Source
LUL .        BULA : Logging unit Loc
~Other -----------------------------------------------------
GAMMA RAY SCALE : 0 - 150 CPS
CALIPER SCALE : 0 - 20 INCH
LATERAL SCALE : 0 - 200 OHMM
DENSITY SCALE : 0 - 300 CPS
NEUTRON SCALE : 600 - 900 CPS
~ASCII -----------------------------------------------------
# ...
  102.10800    -999.25    8.65052   11.14010  435.18700  194.96100  723.80500
  102.26040    -999.25    8.71972   11.83640  427.64600  202.77900  729.53900
  102.41280    -999.25    8.71972   11.14010  431.14700  196.26300  740.48600
  102.56520    -999.25    8.71972   11.83640  425.49100  205.64700  747.52400
  102.71760    -999.25    8.71972   11.14010  420.91200  202.77900  750.65200
  102.87000    -999.25    8.71972   10.96610  431.14700  193.39800  753.51900
  103.02240    -999.25    8.75432   11.66230  429.80000  203.30100  787.66300
  103.17480    -999.25    8.75432   10.79200  427.10700  200.17500  720.93800
  103.32720    -999.25    8.75432   11.14010  418.75800  198.09000  721.98100
  103.47960    -999.25    8.65052   11.14010  401.25100  192.09300  724.58700
  103.63200    -999.25    8.65052   11.83640  428.45400  197.82900  728.23600
  103.78440    -999.25    8.65052   11.83640  401.79000  186.88200  730.58200
  103.93680    -999.25    8.65052   12.18450  415.52600  203.82300  733.82600
  104.08920    -999.25    8.65052   12.53260  391.55500  191.57400  738.78300
  104.24160    -999.25    8.61592   12.70670  395.59500  203.82300  742.69600
  104.39400    -999.25    8.54671   12.18450  425.76000  184.79700  766.17400
  104.54640    -999.25    8.54671   10.96610  413.64000  198.09000  796.95700
  104.69880    -999.25    8.47751   10.26980  406.63800  192.87600  811.04300
  104.85120    -999.25    8.44291   10.26980  433.30100  185.31600  846.52200
  105.00360    -999.25    8.35924   10.79200  428.18400  200.69400  902.61000
  105.15600   52.60410    8.35924   11.14010  410.94700  183.23100  918.78300
  105.30840   51.56250    8.35924   10.09570  429.53100  192.61500  924.00000
  105.46080   54.16680    8.35924    9.74760  421.18200  204.08400  916.17300
  105.61320   52.86450    8.39378   10.09570  427.37600  196.00200  914.08800
  105.76560   49.21890    8.56649    9.74760  421.18200  188.44500  917.73900
  105.91800   46.35420    8.73921   10.26980  417.14200  193.65900  914.34900
  106.07040   44.79180    8.73921    9.39950  402.86700  205.38600  914.34900
  106.22280   45.31260    8.53195    9.22540  439.76500  194.96100  910.43400
  106.37520   45.57300    8.46287    9.57355  434.91700  193.13700  910.43400
  106.52760   46.35420    8.46287    9.39950  429.80000  200.17500  915.39000
  106.68000   46.61460    8.53195    9.39950  422.52800  188.44500  908.87100
  106.83240   44.27070    8.67012    9.39950  414.17900  173.85000  915.39000
  106.98480   41.14590    8.73921    9.39950  421.45100  190.26900  919.82700
  107.13720   49.21890    8.80829    9.39950  400.98200  197.04600  925.56600
  107.28960   51.82290    8.80829    9.39950  417.14200  191.83200  931.30500
  107.44200   56.25000    8.73921    9.39950  406.36800  186.88200  927.39000
  107.59440   57.29160    8.56649    9.22540  417.14200  186.36000  939.65100
  107.74680   61.19790    8.46287   10.09570  404.21400  191.83200  949.04400
  107.89920   62.76030    8.46287    9.39950  426.56800  199.91400  953.47800
  108.05160   63.02070    8.46287    9.39950  416.60300  173.32800  955.30500
  108.20400   63.28140    8.56649    9.57355  427.37600  187.14300  955.56600
  108.35640   61.71870    8.80829    9.74760  416.33400  171.50400  956.34900
  108.50880   60.93750    8.73921    9.39950  415.52600  173.85000  956.34900
  108.66120   64.32300    8.35924    8.87730  412.02400  180.88500  956.34900
  108.81360   68.22930    8.35924    8.87730  408.52300  187.14300  956.34900
  108.96600   73.43760    8.35924    8.87730  421.99000  199.91400  956.34900
  109.11840   84.37500    8.39378    8.52915  402.32800  198.34800  956.61000
  109.27080   93.22920    8.46287    8.87730  377.55000  199.91400  956.61000
  109.42320   91.40640    8.53195   10.09570  365.16100  198.09000  956.61000
  109.57560    -999.25    8.56649    8.52915  361.39000  203.82300  943.56600
  109.72800    -999.25    8.63558    8.52915  364.08300  205.90800  936.52200
  109.88040   91.66680    8.67012    8.52915  361.39000  194.96100  924.78300
  110.03280   92.70840    8.67012    8.87730  361.92900  198.60900  914.08800
  110.18520   97.39590    8.73921    8.52915  364.08300  202.77900  910.69500
  110.33760   97.91670    8.73921    8.87730  372.70200  199.13100  909.39000
  110.49000   95.83320    8.73921    8.52915  381.85900  197.56800  917.47800
  110.64240   94.01040    8.73921    8.35510  393.17100  208.25400  916.17300
  110.79480   94.01040    8.73921    8.52915  401.79000  202.77900  915.12900
  110.94720   98.95830    8.73921    8.00695  396.40300  201.73800  923.73900
  111.09960  102.08300    8.67012    8.35510  395.59500  199.91400  921.12900
  111.25200  104.94800    8.63558    8.00695  399.09600  206.43000  917.21700
  111.40440  109.89600    8.63558    8.70320  410.94700  197.04600  915.39000
  111.55680  104.42700    8.63558    8.35510  416.06400  177.75900  911.73900
  111.70920   96.35430    8.63558    8.70320  413.10200  173.85000  910.43400
  111.86160   95.05200    8.73921    8.35510  411.75500  166.29000  912.78300
  112.01400   93.48960    8.73921    7.83290  420.91200  178.80000  915.40500
  112.16640   93.48960    8.73921    7.83290  413.37100  178.80000  909.13800
  112.31880   94.53120    8.73921    7.83290  426.29900  173.85000  909.13800
  112.47120   96.09390    8.73921    7.83290  418.21900  182.19000  904.96200
  112.62360   93.22920    8.73921    7.83290  411.48600  175.67400  904.44000
  112.77600   93.22920    8.80829    7.83290  429.26200  191.83200  907.05000
  112.92840   93.48960    8.80829    7.83290  414.71800  174.36900  909.66000
  113.08080    -999.25    8.80829    8.35510  424.95200  196.00200  920.62800
  113.23320    -999.25    8.80829    8.00695  418.21900  185.05500  923.76000
  113.38560    -999.25    8.73921    8.35510  433.30100  170.46000  926.89200
  113.53800    -999.25    8.73921    8.00695  416.33400  179.58300  930.02700
  113.69040    -999.25    8.73921    8.00695  430.33900  187.66200  938.90400
  113.84280    -999.25    8.63558    8.52915  418.21900  184.53600  928.46100
  113.99520    -999.25    8.67012    8.00695  428.99200  194.17800  930.81000
  114.14760    -999.25    8.67012    8.00695  419.56600  180.36600  942.03600
  114.30000    -999.25    8.73921    7.83290  431.14700  175.15200  957.18000
  114.45240    -999.25    8.80829    7.83290  419.02700  194.17800  957.44100
  114.60480    -999.25    9.01554    7.83290  433.30100  185.57700  958.74600
  114.75720    -999.25    9.01554    8.00695  424.14400  184.79700  958.74600
  114.90960    -999.25    8.84283    8.00695  420.37400  191.83200  958.74600
  115.06200    -999.25    8.63558    8.00695  430.87800  188.18400  958.74600
  115.21440    -999.25    8.53195    8.35510  432.22400  186.88200  958.74600
  115.36680    -999.25    8.46287    8.35510  426.03000  197.56800  957.96300
  115.51920    -999.25    8.39378    8.35510  418.21900  209.03700  957.44100
  115.67160    -999.25    8.67012    8.00695  407.71500  196.26300  957.44100
  115.82400    -999.25    8.73921    8.87730  402.32800  201.99900  957.44100
  115.97640    -999.25    8.63558    7.83290  419.83500  206.69100  956.65800
  116.12880    -999.25    8.53195    7.83290  406.36800  189.74700  942.29700
  116.28120    -999.25    8.39378    8.00695  419.29600  196.78500  939.42600
  116.43360    -999.25    8.29016    7.83290  405.56000  199.65300  951.43500
  116.58600    -999.25    8.29016    8.70320  422.52800  191.05200  937.33800
  116.73840    -999.25    8.29016    8.00695  416.60300  206.16900  955.35300
  116.89080    -999.25    8.29016    7.83290  406.90700  211.90200  939.68700
  117.04320    -999.25    8.35924    7.83290  422.52800  198.09000  929.50500
  117.19560    -999.25    8.35924    7.65885  415.25600  206.69100  925.06500
  117.34800    -999.25    8.35924    7.48475  408.52300  190.00800  917.23200
  117.50040    -999.25    8.39378    7.48475  394.29700  209.81700  909.13800
  117.65280    -999.25    8.46287    7.65885  412.59500  213.20700  905.22300
