~Version ---------------------------------------------------
VERS. 2.0 : CWLS log ASCII Standard -VERSION 2.0
WRAP.  NO : One line per depth step
~Well ------------------------------------------------------
STRT.M                  7.9248 : START
STOP.M                334.9752 : STOP
STEP.M      0.1523999999999992 : STEP
NULL.                  -999.25 : NULL VALUE
COMP.              RAJAMANDALA : Company
CN1 .              RAJAMANDALA : Company Name Line 1
WELL.              RAJAMANDALA : Well Name
FLD .              RAJAMANDALA : Field
CTRY.              RAJAMANDALA : Country
STAT.              RAJAMANDALA : State
PROV.                          : Province
LOC .                          : Field Location
LATI. 000 01' 00.000" S    DMS : Latitude
LONG. 000 01' 01.000" E    DMS : Longitude
PD  .                      MSL : Permanent Datum
UWI .              RAJAMANDALA : Unique Well ID
EKB .M                     9.0 : Elevation of KB
EGL .M                     6.0 : Elevation Ground lv
ELZ .M                     9.0 : Elevation Log Zero
LMF .                       KB : Log measured from
MP  .                       KB : Drill measured from
OS  .                COMPOSITE : Services
OS1 .                      LAT : Other Services Ln 1
OS2 .                 DENS-CAL : Other Services Ln 2
OS3 .                      BHC : Other Services Ln 3
OS4 .                   GR-NEU : Other Services Ln 4
SRVC.                          : Service company
RUNS.                        2 : Number of runs
DATE.                          : Date
~Curve Information -----------------------------------------
DEPT   .M     : 1  Depth
GR     .CPS   : 2  Gamma-Ray Log
CALI   .INCH  : 3  Caliper Log
LAT    .OHMM  : 4  Lateral
DT     .US/F  : 5  Delta T
DEN    .CPS   : 6  Density Log
NEUTRON.CPS   : 7  Neutron
~Params ----------------------------------------------------
RUN .           1 : Run number
DATE.    22-07-24 : Log date
DD  .M      231.0 : Depth-Driller
DL  .M      231.8 : Depth-Logger
BLI .M      231.0 : Bottom log interval
TLI .M        5.0 : Top log interval
CBD1.M       63.7 : Casing-Driller
CBL1.M       36.3 : Casing-Logger
CS  .IN     9.625 : Casing Diameter
BS  .IN       8.5 : Bit Size
DFT .    GEL-CHEM : Hole Fluid type
DFD .LB/G    10.6 : Fluid Density
DFV .S       43.0 : Fluid Viscosity
DFPH.         8.5 : Fluid PH
DFL .C3       8.5 : Fluid Loss
MSS .    FLOWLINE : Mud Sample Source
RMS .OHMM     2.9 : RM  @ Surface
RMT .DEGF    90.0 : Mud temp Surface
RMFS.OHMM    2.15 : RMF @ Surface
RMTF.DEGF    79.0 : MF temp Surface
RMCS.OHMM    2.25 : RMC @ Surface
RMTC.DEGF    79.0 : MC Temp Surface
TCS .       2 HRS : Time circ. stopped
LUN .       AAR 1 : Logging unit No
LUL .      RJMNDL : Logging unit Loc
ENGI.      RJMNDL : Recorded by
WITN.      RJMNDL : Witness
RUN .           2 : Run number
DATE.    23-02-27 : Log date
DD  .M      342.0 : Depth-Driller
DL  .M      331.0 : Depth-Logger
BLI .M      331.0 : Bottom log interval
TLI .M      195.0 : Top log interval
CBD1.M        8.0 : Casing-Driller
CBL1.M       36.3 : Casing-Logger
CS  .IN    13.375 : Casing Diameter
BS  .IN       7.5 : Bit Size
DFT .    GEL-CHEM : Hole Fluid type
MSS .    FLOWLINE : Mud Sample Source
LUL .        BULA : Logging unit Loc
~Other -----------------------------------------------------
GAMMA RAY SCALE : 0 - 150 CPS
CALIPER SCALE : 0 - 20 INCH
LATERAL SCALE : 0 - 200 OHMM
DENSITY SCALE : 0 - 300 CPS
NEUTRON SCALE : 600 - 900 CPS
~ASCII -----------------------------------------------------
# ...
   39.31920   74.61000   12.44830    -999.25  336.71000  145.31400  655.72900
   39.47160   74.61000   12.51720    -999.25  328.36800  127.60500  653.12500
   39.62400   72.27030   12.51720    -999.25  333.21200  153.38400  656.77100
   39.77640   71.23050   12.37930    -999.25  265.13000  184.63500  653.38500
   39.92880   71.49060   12.31030    -999.25  283.42900  168.75000  657.55200
   40.08120   74.35020   12.12440    -999.25  292.84700  184.11600  652.86500
   40.23360   74.61000   12.05530    -999.25  245.48600  168.75000  658.85400
   40.38600    -999.25   11.77890    -999.25  300.38200  294.53100  650.26000
   40.53840    -999.25   11.64080    -999.25  327.83000  176.56200  658.07300
   40.69080    -999.25   11.60620    -999.25  293.11600  189.32400  646.35400
   40.84320    -999.25   11.60620    -999.25  277.50900  173.95800  653.38500
   40.99560   66.29130   11.64080    -999.25  313.29900  192.18900  653.90600
   41.14800   66.55110   11.77890    -999.25  303.61100  178.64700  647.91700
   41.30040   67.33110   11.77890    -999.25  346.12800  167.44800  642.70800
   41.45280   67.33110   11.88260    -999.25  330.79000  183.85500  647.91700
   41.60520   66.29130   11.95160    -999.25  375.46000  167.18700  652.34400
   41.75760   64.21140   12.05530    -999.25  363.62000  184.37400  640.88500
   41.91000   63.43140   12.05530    -999.25  416.09400  188.54100  642.18800
   42.06240   63.43140   12.08980    -999.25  397.25700  186.19800  642.96900
   42.21480   65.51130   12.08980    -999.25  393.75900  181.50900  645.31300
   42.36720   66.55110   12.08980    -999.25  382.99500  187.50000  642.70800
   42.51960   69.41070   12.08980    -999.25  359.58300  182.81400  645.31300
   42.67200   70.45050   12.08980    -999.25  331.32800  192.96900  639.84400
   42.82440   70.45050   12.08980    -999.25  345.85900  190.10400  645.57300
   42.97680   70.19070   12.08980    -999.25  348.81900  198.69900  642.96900
   43.12920   68.11080   12.08980    -999.25  312.76000  182.81400  630.72900
   43.28160    -999.25   12.08980    -999.25  295.53800  177.60300  633.59400
   43.43400    -999.25   12.08980    -999.25  313.83700  179.16600  628.38500
   43.58640    -999.25   12.08980    -999.25  297.42200  167.70900  626.82300
   43.73880    -999.25   12.08980    -999.25  330.52100  165.36600  633.59400
   43.89120    -999.25   12.08980    -999.25  353.39400  174.74100  640.88500
   44.04360    -999.25   12.08980    -999.25  338.86300  173.43900  614.84400
   44.19600    -999.25   12.08980    -999.25  327.02300  179.16600  618.22900
   44.34840    -999.25   12.08980    -999.25  343.97600  167.18700  630.46900
   44.50080   69.67080   12.08980    -999.25  373.84500  184.63500  624.47900
   44.65320   70.45050   12.08980    -999.25  336.71000  188.54100  632.03100
   44.80560   64.47150   12.07250    -999.25  346.39800  189.32400  633.33300
   44.95800   62.65170   12.05530    -999.25  380.03500  191.40600  631.77100
   45.11040   61.35180   12.05530    -999.25  388.64600  178.12500  635.15600
   45.26280   53.55300   12.05530    -999.25  417.97700  186.19800  635.67700
   45.41520   48.61350   12.05530    -999.25  426.58900  188.54100  628.64600
   45.56760   43.93410   12.05530    -999.25  380.30400  182.81400  633.85400
   45.72000   45.49380   12.05530    -999.25  399.67900  200.78100  642.70800
   45.87240   50.69310   12.05530    -999.25  402.37000  197.39700  642.70800
   46.02480   50.69310   12.05530    -999.25  382.72600  189.32400  631.77100
   46.17720   50.69310   12.05530    -999.25  352.04900  192.18900  621.35400
   46.32960   54.85260   12.05530    -999.25  384.07100  200.78100  631.25000
   46.48200   64.21140   12.05530    -999.25  424.70500  201.56400  620.57300
   46.63440   63.43140   12.05530    -999.25  402.10100  200.25900  619.27100
   46.78680   59.27220   12.05530    -999.25  395.91100  208.85400  623.95800
   46.93920   61.35180   11.88260    -999.25  389.72200  217.44900  619.79200
   47.09160   56.15250   11.77890    -999.25  339.40100  202.60500  624.47900
   47.24400   57.71220   11.77890    -999.25  358.50700  198.17700  626.04200
   47.39640   58.49220   11.60620    -999.25  332.67400  171.87600  629.42700
   47.54880   52.51290   11.60620    -999.25  345.76900  158.33400  618.75000
   47.70120   51.47310   11.60620    -999.25  377.01100  109.63500  628.64600
   47.85360   56.41260   11.60620    -999.25  362.19800  121.09500  619.27100
   48.00600   55.37250   11.64080    -999.25  383.74500  150.00000  619.79200
   48.15840   53.29290   11.74440    -999.25  343.07600  136.98000  621.87500
   48.31080   55.63260   11.74440    -999.25  370.27800  146.09400  631.25000
   48.46320   59.79210   11.74440    -999.25  347.11600  142.44900  633.33300
   48.61560   63.69150   11.74440    -999.25  410.94700  125.00100  626.56300
   48.76800   60.57180   11.74440    -999.25  405.02200  141.14700  632.03100
   48.92040   65.77110   11.74440    -999.25  392.63300   99.74100  634.37500
   49.07280   63.69150   11.74440    -999.25  356.54200  103.64700  643.22900
   49.22520   61.61190   11.70980    -999.25  371.62500  115.62600  644.01000
   49.37760   60.31200   11.60620    -999.25  336.07300  105.72900  635.15600
   49.53000   60.31200   11.60620    -999.25  364.89100  126.56400  632.81300
   49.68240   63.17160   11.60620    -999.25  343.07600  133.07400  637.76000
   49.83480   67.33110   11.60620    -999.25  377.81900  136.45800  636.71900
   49.98720   69.15090   11.64080    -999.25  364.62200  144.27000  638.02100
   50.13960   69.15090   11.70980    -999.25  383.47500  148.69800  629.42700
   50.29200   68.37090   11.70980    -999.25  350.07800  163.28100  646.87500
   50.44440   67.07100   11.77890    -999.25  365.69900  153.12600  653.38500
   50.59680   64.73130   11.77890    -999.25  355.73400  146.09400  648.69800
   50.74920   62.39160   11.77890    -999.25  391.55500  156.51000  671.35400
   50.90160   60.57180   11.77890    -999.25  355.73400  154.68900  666.66700
   51.05400   51.47310   11.77890    -999.25  372.70200  167.97000  664.32300
   51.20640   48.87360   11.77890    -999.25  354.92600  159.89700  659.11500
   51.35880   52.77300   11.64080    -999.25  365.69900  174.74100  661.71900
   51.51120   50.69310   11.64080    -999.25  380.78200  165.36600  659.63500
   51.66360   54.59280   11.60620    -999.25  399.90400  150.52200  661.71900
   51.81600   49.65330   11.57170    -999.25  420.37400  167.44800  663.80200
   51.96840   50.43330   11.53710    -999.25  405.83000  147.13500  666.14600
   52.12080   49.39350   11.53710    -999.25  426.56800  151.82400  671.35400
   52.27320   48.35370   11.46800    -999.25  406.09900  160.41600  675.00000
   52.42560   53.55300   11.43350    -999.25  428.45400  150.52200  673.69800
   52.57800   51.47310   11.29530    -999.25  411.99100  173.95800  674.47900
   52.73040   60.31200   11.08810    -999.25  391.23500  155.20800  674.21900
   52.88280   63.17160   10.46630    -999.25  423.58300  171.87600  674.21900
   53.03520   64.73130   10.12090    -999.25  414.41700  165.88500  669.01000
   53.18760   67.33110    9.63731    -999.25  422.50400  160.41600  668.75000
   53.34000   69.41070    9.36097    -999.25  431.40000  170.57400  670.57300
   53.49240   69.41070    9.18826    -999.25  424.93000  132.29100  663.80200
   53.64480   62.39160    9.01554    -999.25  431.67000  196.87500  661.19800
   53.79720   62.13180    8.91192    -999.25  416.84300  186.19800  663.80200
   53.94960    -999.25    8.91192    -999.25  427.35700  187.50000  662.29400
   54.10200    -999.25    8.91192    -999.25  413.87800  176.04300  663.85700
   54.25440    -999.25    8.91192    -999.25  421.69600  190.10400  661.25100
   54.40680    -999.25    8.91192    -999.25  434.63500  214.32300  662.29400
   54.55920    -999.25    8.98100    -999.25  425.47000  206.25000  664.11800
   54.71160    -999.25    9.08463    -999.25  428.43500  210.93900  955.77900
   54.86400    -999.25    9.25734    -999.25  421.69600  207.55200  956.29800
