~Version ---------------------------------------------------
VERS. 2.0 : CWLS log ASCII Standard -VERSION 2.0
WRAP.  NO : One line per depth step
~Well ------------------------------------------------------
STRT.M                  7.9248 : START
STOP.M                334.9752 : STOP
STEP.M      0.1523999999999992 : STEP
NULL.                  -999.25 : NULL VALUE
COMP.              RAJAMANDALA : Company
CN1 .              RAJAMANDALA : Company Name Line 1
WELL.              RAJAMANDALA : Well Name
FLD .              RAJAMANDALA : Field
CTRY.              RAJAMANDALA : Country
STAT.              RAJAMANDALA : State
PROV.                          : Province
LOC .                          : Field Location
LATI. 000 01' 00.000" S    DMS : Latitude
LONG. 000 01' 01.000" E    DMS : Longitude
PD  .                      MSL : Permanent Datum
UWI .              RAJAMANDALA : Unique Well ID
EKB .M                     9.0 : Elevation of KB
EGL .M                     6.0 : Elevation Ground lv
ELZ .M                     9.0 : Elevation Log Zero
LMF .                       KB : Log measured from
MP  .                       KB : Drill measured from
OS  .                COMPOSITE : Services
OS1 .                      LAT : Other Services Ln 1
OS2 .                 DENS-CAL : Other Services Ln 2
OS3 .                      BHC : Other Services Ln 3
OS4 .                   GR-NEU : Other Services Ln 4
SRVC.                          : Service company
RUNS.                        2 : Number of runs
DATE.                          : Date
~Curve Information -----------------------------------------
DEPT   .M     : 1  Depth
GR     .CPS   : 2  Gamma-Ray Log
CALI   .INCH  : 3  Caliper Log
LAT    .OHMM  : 4  Lateral
DT     .US/F  : 5  Delta T
DEN    .CPS   : 6  Density Log
NEUTRON.CPS   : 7  Neutron
~Params ----------------------------------------------------
RUN .           1 : Run number
DATE.    22-07-24 : Log date
DD  .M      231.0 : Depth-Driller
DL  .M      231.8 : Depth-Logger
BLI .M      231.0 : Bottom log interval
TLI .M        5.0 : Top log interval
CBD1.M       63.7 : Casing-Driller
CBL1.M       36.3 : Casing-Logger
CS  .IN     9.625 : Casing Diameter
BS  .IN       8.5 : Bit Size
DFT .    GEL-CHEM : Hole Fluid type
DFD .LB/G    10.6 : Fluid Density
DFV .S       43.0 : Fluid Viscosity
DFPH.         8.5 : Fluid PH
DFL .C3       8.5 : Fluid Loss
MSS .    FLOWLINE : Mud Sample Source
RMS .OHMM     2.9 : RM  @ Surface
RMT .DEGF    90.0 : Mud temp Surface
RMFS.OHMM    2.15 : RMF @ Surface
RMTF.DEGF    79.0 : MF temp Surface
RMCS.OHMM    2.25 : RMC @ Surface
RMTC.DEGF    79.0 : MC Temp Surface
TCS .       2 HRS : Time circ. stopped
LUN .       AAR 1 : Logging unit No
LUL .      RJMNDL : Logging unit Loc
ENGI.      RJMNDL : Recorded by
WITN.      RJMNDL : Witness
RUN .           2 : Run number
DATE.    23-02-27 : Log date
DD  .M      342.0 : Depth-Driller
DL  .M      331.0 : Depth-Logger
BLI .M      331.0 : Bottom log interval
TLI .M      195.0 : Top log interval
CBD1.M        8.0 : Casing-Driller
CBL1.M       36.3 : Casing-Logger
CS  .IN    13.375 : Casing Diameter
BS  .IN       7.5 : Bit Size
DFT .    GEL-CHEM : Hole Fluid type
MSS .    FLOWLINE : Mud Sample Source
LUL .        BULA : Logging unit Loc
~Other -----------------------------------------------------
GAMMA RAY SCALE : 0 - 150 CPS
CALIPER SCALE : 0 - 20 INCH
LATERAL SCALE : 0 - 200 OHMM
DENSITY SCALE : 0 - 300 CPS
NEUTRON SCALE : 600 - 900 CPS
~ASCII -----------------------------------------------------
# ...
   23.62200   50.00010    -999.25    -999.25    -999.25    -999.25  665.88500
   23.77440   49.22280    -999.25    -999.25    -999.25    -999.25  664.84400
   23.92680   48.52950    -999.25    -999.25    -999.25    -999.25  659.89600
   24.07920   48.27000    -999.25    -999.25    -999.25    -999.25  667.96900
   24.23160   48.27000    -999.25    -999.25    -999.25    -999.25  659.37500
   24.38400   48.78900    -999.25    -999.25    -999.25    -999.25  647.65600
   24.53640   50.34600    -999.25    -999.25    -999.25    -999.25  657.29200
   24.68880   52.16250    -999.25    -999.25    -999.25    -999.25  622.13500
   24.84120   51.64350    -999.25    -999.25    -999.25    -999.25  628.38500
   24.99360   50.08650    -999.25    -999.25    -999.25    -999.25  653.90600
   25.14600   47.49150    -999.25    -999.25    -999.25    -999.25  666.66700
   25.29840   45.41520    -999.25    -999.25    -999.25    -999.25  669.01000
   25.45080   41.52240    -999.25    -999.25    -999.25    -999.25  669.01000
   25.60320   36.59160    -999.25    -999.25    -999.25    -999.25  667.44800
   25.75560   37.88940    -999.25    -999.25    -999.25    -999.25  660.15600
   25.90800   37.11060    -999.25    -999.25    -999.25    -999.25  661.45800
   26.06040   37.37010    -999.25    -999.25    -999.25    -999.25  661.45800
   26.21280   42.56070    -999.25    -999.25    -999.25    -999.25  648.43700
   26.36520   44.89620    -999.25    -999.25    -999.25    -999.25  645.05200
   26.51760   47.75100    -999.25    -999.25    -999.25    -999.25  654.16700
   26.67000   45.67470    -999.25    -999.25    -999.25    -999.25  640.62500
   26.82240   41.26290    -999.25    -999.25    -999.25    -999.25  647.39600
   26.97480   38.92740    -999.25    -999.25    -999.25    -999.25  656.77100
   27.12720   43.33920    -999.25    -999.25    -999.25    -999.25  654.68800
   27.27960   44.11770    -999.25    -999.25    -999.25    -999.25  659.11500
   27.43200   44.89620    -999.25    -999.25    -999.25    -999.25  660.93800
   27.58440   45.41520    -999.25    -999.25    -999.25    -999.25  660.93800
   27.73680   45.41520    -999.25    -999.25    -999.25    -999.25  664.32300
   27.88920   44.71410    -999.25    -999.25    -999.25    -999.25  664.32300
   28.04160   43.67430    -999.25    -999.25    -999.25    -999.25  665.10400
   28.19400   41.85450    -999.25    -999.25    -999.25    -999.25  666.14600
   28.34640   42.89430    -999.25    -999.25    -999.25    -999.25  660.93800
   28.49880   43.67430    -999.25    -999.25    -999.25    -999.25  653.12500
   28.65120   39.25470    -999.25    -999.25    -999.25    -999.25  652.60400
   28.80360   39.25470    -999.25    -999.25    -999.25    -999.25  660.15600
   28.95600   36.13530    -999.25    -999.25    -999.25    -999.25  661.19800
   29.10840   34.57530    -999.25    -999.25    -999.25    -999.25  653.38500
   29.26080   33.79560    -999.25    -999.25    -999.25    -999.25  649.47900
   29.41320   29.11610    -999.25    -999.25    -999.25    -999.25  654.68800
   29.56560   34.57530    -999.25    -999.25    -999.25    -999.25  640.62500
   29.71800   31.97580    -999.25    -999.25    -999.25    -999.25  629.16700
   29.87040   29.84430    -999.25    -999.25    -999.25    -999.25  628.12500
   30.02280   35.03460    -999.25    -999.25    -999.25    -999.25  658.59400
   30.17520   34.51560    -999.25    -999.25    -999.25    -999.25  651.56300
   30.32760   34.51560    -999.25    -999.25    -999.25    -999.25  652.60400
   30.48000   38.66790    -999.25    -999.25    -999.25    -999.25  647.39600
   30.63240   44.37720    -999.25    -999.25  183.05600    -999.25  657.03100
   30.78480   38.92740    -999.25    -999.25  184.93900    -999.25  661.97900
   30.93720   35.55360    -999.25    -999.25  187.63000    -999.25  638.54200
   31.08960   33.21810    -999.25    -999.25  191.66700    -999.25  638.54200
   31.24200   33.73710    -999.25    -999.25  195.70300    -999.25  635.67700
   31.39440   36.33210    -999.25    -999.25  203.50700    -999.25  631.51000
   31.54680   37.88940    -999.25    -999.25  212.92500    -999.25  626.56300
   31.69920   33.73710    -999.25    -999.25  221.80600    -999.25  646.87500
   31.85160   31.66080    -999.25    -999.25  241.98800    -999.25  653.90600
   32.00400   33.53550    8.79310    -999.25  247.90800    -999.25  651.82300
   32.15640   34.83540    8.79310    -999.25  244.67900    -999.25  651.82300
   32.30880   33.79560    8.79310    -999.25  240.10400    -999.25  642.96900
   32.46120   33.27570    8.79310    -999.25  236.06800    -999.25  644.79200
   32.61360   35.09520    8.79310    -999.25  229.87800    -999.25  647.65600
   32.76600   33.27570    8.79310    -999.25  219.38400    -999.25  638.54200
   32.91840   33.01560    8.79310    -999.25  212.65600    -999.25  640.88500
   33.07080   36.13530    8.79310    -999.25  179.28800    -999.25  637.76000
   33.22320   37.17510    8.79310    -999.25  166.10200    -999.25  625.00000
   33.37560   34.83540    8.79310    -999.25  160.99000    -999.25  627.60400
   33.52800   34.83540    8.79310    -999.25  204.58300  303.90600  630.99000
   33.68040   32.49570    8.79310    -999.25  242.25700  257.03100  632.03100
   33.83280   31.45590    8.79310    -999.25  253.02100  253.64700  633.07300
   33.98520   31.66080    8.79310    -999.25  251.40600  264.32400  628.38500
   34.13760   32.69910    8.79310    -999.25  203.50700  258.85500  647.13500
   34.29000   34.25610    8.79310    -999.25  186.55400  256.77000  629.68800
   34.44240   35.29410    8.79310    -999.25  156.41500  269.79300  638.54200
   34.59480   35.03460    8.79310    -999.25  156.41500  269.01000  632.29200
   34.74720   33.47760    8.89655    -999.25  160.18200  260.93700  644.53100
   34.89960   32.69910    8.89655    -999.25  166.10200  260.41800  657.03100
   35.05200   34.77510    8.89655    -999.25  222.88200  265.88400  644.79200
   35.20440   40.74390    8.89655    -999.25  236.33700  260.41800  641.14600
   35.35680   48.01050    8.89655    -999.25  247.10100  258.85500  646.09400
   35.50920   57.61260    8.96552    -999.25  259.21000  254.42700  642.70800
   35.66160   64.35990    9.17241    -999.25  269.97400  265.62600  647.91700
   35.81400   61.50510    9.10345    -999.25  285.58200  265.10400  652.08300
   35.96640   67.85100    8.96552    -999.25  304.95700  275.25900  648.43700
   36.11880   73.05030    9.17241    -999.25  317.33500  273.17700  638.54200
   36.27120   74.87010    9.68966    -999.25  325.67700  280.47000  639.32300
   36.42360   74.09010    9.75862    -999.25  303.88000  271.87500  646.87500
   36.57600   67.33110    9.24138    -999.25  267.28300  267.70800  636.45800
   36.72840   63.95160    8.89655    -999.25  295.26900  252.34500  649.74000
   36.88080   59.27220    9.37931    -999.25  314.64400  216.66600  652.60400
   37.03320   52.25310   10.89660    -999.25  283.69800  191.40600  657.29200
   37.18560   58.75230   12.03450    -999.25  313.56800  156.51000  653.38500
   37.33800   60.31200   11.93100    -999.25  365.77300  146.61600  649.47900
   37.49040   56.41260   12.03450    -999.25  353.66300  183.33300  638.80200
   37.64280   53.55300   10.86210    -999.25  351.51000  165.10500  643.22900
   37.79520   57.71220   10.89660    -999.25  379.76600  183.85500  657.29200
   37.94760   64.21140   11.00000    -999.25  363.08200  147.91800  638.80200
   38.10000   67.33110    9.10345    -999.25  343.97600  144.53100  645.31300
   38.25240   73.31010    9.82759    -999.25  354.74000  125.25900  650.78100
   38.40480   74.35020   11.86210    -999.25  312.49100  130.20900  650.26000
   38.55720   76.16970   12.62070    -999.25  221.53600  176.04300  647.39600
   38.70960   76.94970   12.79310    -999.25  227.72600  160.67700  644.01000
   38.86200   76.42980   12.72410    -999.25  276.97000  157.29300  642.70800
   39.01440   75.64980   10.72410    -999.25  323.25500  173.95800  648.17700
   39.16680   74.61000   12.17240    -999.25  371.96200  127.86600  660.15600
