~Version ---------------------------------------------------
VERS. 2.0 : CWLS log ASCII Standard -VERSION 2.0
WRAP.  NO : One line per depth step
~Well ------------------------------------------------------
STRT.M                  7.9248 : START
STOP.M                334.9752 : STOP
STEP.M      0.1523999999999992 : STEP
NULL.                  -999.25 : NULL VALUE
COMP.              RAJAMANDALA : Company
CN1 .              RAJAMANDALA : Company Name Line 1
WELL.              RAJAMANDALA : Well Name
FLD .              RAJAMANDALA : Field
CTRY.              RAJAMANDALA : Country
STAT.              RAJAMANDALA : State
PROV.                          : Province
LOC .                          : Field Location
LATI. 000 01' 00.000" S    DMS : Latitude
LONG. 000 01' 01.000" E    DMS : Longitude
PD  .                      MSL : Permanent Datum
UWI .              RAJAMANDALA : Unique Well ID
EKB .M                     9.0 : Elevation of KB
EGL .M                     6.0 : Elevation Ground lv
ELZ .M                     9.0 : Elevation Log Zero
LMF .                       KB : Log measured from
MP  .                       KB : Drill measured from
OS  .                COMPOSITE : Services
OS1 .                      LAT : Other Services Ln 1
OS2 .                 DENS-CAL : Other Services Ln 2
OS3 .                      BHC : Other Services Ln 3
OS4 .                   GR-NEU : Other Services Ln 4
SRVC.                          : Service company
RUNS.                        2 : Number of runs
DATE.                          : Date
~Curve Information -----------------------------------------
DEPT   .M     : 1  Depth
GR     .CPS   : 2  Gamma-Ray Log
CALI   .INCH  : 3  Caliper Log
LAT    .OHMM  : 4  Lateral
DT     .US/F  : 5  Delta T
DEN    .CPS   : 6  Density Log
NEUTRON.CPS   : 7  Neutron
~Params ----------------------------------------------------
RUN .           1 : Run number
DATE.    22-07-24 : Log date
DD  .M      231.0 : Depth-Driller
DL  .M      231.8 : Depth-Logger
BLI .M      231.0 : Bottom log interval
TLI .M        5.0 : Top log interval
CBD1.M       63.7 : Casing-Driller
CBL1.M       36.3 : Casing-Logger
CS  .IN     9.625 : Casing Diameter
BS  .IN       8.5 : Bit Size
DFT .    GEL-CHEM : Hole Fluid type
DFD .LB/G    10.6 : Fluid Density
DFV .S       43.0 : Fluid Viscosity
DFPH.         8.5 : Fluid PH
DFL .C3       8.5 : Fluid Loss
MSS .    FLOWLINE : Mud Sample Source
RMS .OHMM     2.9 : RM  @ Surface
RMT .DEGF    90.0 : Mud temp Surface
RMFS.OHMM    2.15 : RMF @ Surface
RMTF.DEGF    79.0 : MF temp Surface
RMCS.OHMM    2.25 : RMC @ Surface
RMTC.DEGF    79.0 : MC Temp Surface
TCS .       2 HRS : Time circ. stopped
LUN .       AAR 1 : Logging unit No
LUL .      RJMNDL : Logging unit Loc
ENGI.      RJMNDL : Recorded by
WITN.      RJMNDL : Witness
RUN .           2 : Run number
DATE.    23-02-27 : Log date
DD  .M      342.0 : Depth-Driller
DL  .M      331.0 : Depth-Logger
BLI .M      331.0 : Bottom log interval
TLI .M      195.0 : Top log interval
CBD1.M        8.0 : Casing-Driller
CBL1.M       36.3 : Casing-Logger
CS  .IN    13.375 : Casing Diameter
BS  .IN       7.5 : Bit Size
DFT .    GEL-CHEM : Hole Fluid type
MSS .    FLOWLINE : Mud Sample Source
LUL .        BULA : Logging unit Loc
~Other -----------------------------------------------------
GAMMA RAY SCALE : 0 - 150 CPS
CALIPER SCALE : 0 - 20 INCH
LATERAL SCALE : 0 - 200 OHMM
DENSITY SCALE : 0 - 300 CPS
NEUTRON SCALE : 600 - 900 CPS
~ASCII -----------------------------------------------------
# ...
  227.68560   51.99210    8.23529   11.14010  406.98200  216.85500  734.40000
  227.83800   47.80890    8.23529   11.14010  406.98200  215.81100  733.20000
  227.99040   46.61340    8.23529   11.14010  406.98200  229.62600  724.20000
  228.14280   45.41820    8.26990   12.01040  406.98200  218.15700  730.80000
  228.29520   43.02780    8.26990   12.01040  406.98200  227.54100  741.00000
  228.44760   43.62540    8.33910   12.01040  407.52000  229.88700  739.80000
  228.60000   48.40650    8.37370   12.01040  407.52000  223.89300  729.00000
  228.75240   53.18730    8.47751   12.70670  408.59500  201.21600  724.50000
  228.90480   55.57770    8.61592   13.57700  408.05700  211.12200  728.10000
  229.05720   53.78490    8.71972   13.75110  407.52000  203.56200  728.10000
  229.20960   44.82060    8.75432   13.75110  408.05700  210.07800  727.20000
  229.36200   43.02780    8.65052   13.75110  408.05700  222.84900  727.20000
  229.51440   43.62540    8.44291   13.57700  408.59500  219.20100  722.10000
  229.66680   53.78490    8.54671   13.75110  408.59500  222.84900  715.20000
  229.81920   57.96810    8.61592   13.57700  408.05700  222.84900  696.60000
  229.97160   57.96810    8.54671   13.57700  435.22500  209.81700  703.20000
  230.12400   65.73690    8.54671   13.73910  447.04500  212.16300  709.50000
  230.27640   59.16330    8.44291   13.73910  450.00000  216.59400  716.40000
  230.42880   68.72520    8.23529   13.73910  450.53700  220.50300  722.10000
  230.58120   68.72520    7.85467   13.73910  450.53700  222.84900  724.20000
  230.73360   62.15130    7.85467   13.73910  450.53700  227.80200  729.00000
  230.88600   57.37050    7.95848   13.73910  450.53700  222.84900  733.20000
  231.03840   59.76090    7.95848   13.73910  450.53700  215.55300  741.90000
  231.19080   59.76090    7.85467   14.08700  450.53700  225.45600  745.80000
  231.34320   60.95610    7.85467   14.08700  450.53700  227.01900  750.90000
  231.49560   61.55370    7.85467   14.08700  450.53700  237.70500  747.60000
  231.64800   62.74890    7.85467   14.08700  450.53700  237.70500  728.10000
  231.80040   62.74890    7.85467   14.08700  450.53700  241.61700  726.30000
  231.95280   67.53000    7.85467   14.08700  450.53700  231.71100  726.00000
  232.10520   69.92040    7.85467   14.08700  450.53700  246.82800  724.50000
  232.25760   69.92040    7.85467   13.73910  450.53700  236.92500  722.10000
  232.41000   74.10360    7.85467   14.43480  450.53700  249.95700  716.40000
  232.56240   77.39040    7.91019   -0.34783  450.53700  227.34300  698.40000
  232.71480   75.29880    7.91019   -0.34783  450.53700  227.34300  678.00000
  232.86720   72.90840    7.84111   -0.34783  450.53700  228.64500  697.50000
  233.01960   63.94410    7.84111   -0.34783  450.53700  234.89700  707.70000
  233.17200   63.94410    7.84111   -0.34783  450.53700  234.37500  709.50000
  233.32440   67.53000    7.84111   -0.34783  450.53700  229.94700  703.20000
  233.47680   64.54170    7.84111   -0.34783  450.53700  226.56300  702.60000
  233.62920   58.56570    7.84111   -0.34783  450.53700  226.56300  703.80000
  233.78160   57.96810    7.84111   -0.34783  450.53700  228.38400  703.20000
  233.93400   62.15130    7.84111   -0.34783  450.53700  228.38400  701.40000
  234.08640   68.12760    7.84111    -999.25  450.53700  225.00000  675.00000
  234.23880   68.72520    7.77202    -999.25  450.53700  226.30200  680.70000
  234.39120   65.13930   -4.38687    -999.25  450.53700  225.78000  684.00000
  234.54360   59.76090   -4.38687    -999.25  450.53700  221.87400  680.10000
  234.69600   60.95610   -4.38687    -999.25  450.53700  221.35500  677.70000
  234.84840   56.77290   -4.38687    -999.25  450.53700  222.65700  681.90000
  235.00080   56.95830   -4.35233    -999.25    -999.25  224.22000  696.20400
  235.15320   59.34390   -4.35233    -999.25    -999.25  225.52200  695.30500
  235.30560   60.83490   -4.35233    -999.25    -999.25  225.26100  694.70500
  235.45800   61.72950   -4.35233    -999.25    -999.25  227.60400  693.20700
  235.61040   60.23850   -4.35233    -999.25    -999.25  229.68900  689.91000
  235.76280   56.36190   -4.35233    -999.25    -999.25  236.19900  685.71400
  235.91520   56.36190   -4.38687    -999.25    -999.25  296.35500  678.22200
  236.06760   53.37960   -4.38687    -999.25    -999.25  296.61600  689.01100
  236.22000   51.59040   -4.38687    -999.25    -999.25  296.61600  687.51300
  236.37240   48.60840   -4.38687    -999.25    -999.25  296.61600  689.91000
  236.52480   47.11740   -4.38687    -999.25    -999.25  296.61600  695.00500
  236.67720   48.60840   -4.38687    -999.25    -999.25  296.61600  689.91000
  236.82960   50.09940   -4.38687    -999.25    -999.25  296.61600  676.42400
  236.98200   50.09940   -4.38687    -999.25    -999.25  296.61600  686.01400
  237.13440   48.01200   -4.38687    -999.25    -999.25  296.61600  686.31400
  237.28680   44.73150   -4.38687    -999.25    -999.25  296.35500  684.21600
  237.43920   48.60840   -4.38687    -999.25    -999.25  296.35500  682.11800
  237.59160   46.42860   -4.34483    -999.25    -999.25  296.35500  686.91300
  237.74400   45.83340   -4.34483    -999.25    -999.25  296.35500  685.41500
  237.89640   50.29770   -4.34483    -999.25    -999.25  296.35500  683.61600
  238.04880   53.86890   -4.34483    -999.25    -999.25  296.35500  683.31700
  238.20120   52.67850   -4.34483    -999.25    -999.25  296.35500  698.60100
  238.35360   51.78570   -4.34483    -999.25    -999.25  296.35500  707.59200
  238.50600   54.16680   -4.34483    -999.25    -999.25  296.35500  705.19500
  238.65840   56.84520   -4.34483    -999.25    -999.25  296.35500  700.10000
  238.81080   52.97610   -4.34483    -999.25    -999.25  296.35500  689.31100
  238.96320   47.91660   -4.34483    -999.25    -999.25  296.35500  685.11500
  239.11560   45.53580   -4.34483    -999.25    -999.25  296.35500  685.11500
  239.26800   45.23820   -4.34483    -999.25    -999.25  296.35500  689.91000
  239.42040   51.48810   -4.34483    -999.25    -999.25  296.35500  691.10900
  239.57280   45.23820   -4.34483    -999.25    -999.25  296.35500  681.81800
  239.72520   52.97610   -4.31034    -999.25    -999.25  296.35500  677.92200
  239.87760   55.05960   -4.31034    -999.25    -999.25  296.35500  682.11800
  240.03000   55.05960    -999.25    -999.25    -999.25    -999.25  682.11800
  240.18240   54.57270    -999.25    -999.25    -999.25    -999.25  681.81800
  240.33480   48.01200    -999.25    -999.25    -999.25    -999.25  688.41200
  240.48720   51.29220    -999.25    -999.25    -999.25    -999.25  686.01400
  240.63960   46.52100    -999.25    -999.25    -999.25    -999.25  691.10900
  240.79200   50.69580    -999.25    -999.25    -999.25    -999.25  692.00800
  240.94440   50.99400    -999.25    -999.25    -999.25    -999.25  691.40900
  241.09680   47.11740    -999.25    -999.25    -999.25    -999.25  693.50700
  241.24920   49.20480    -999.25    -999.25    -999.25    -999.25  695.60400
  241.40160   49.20480    -999.25    -999.25    -999.25    -999.25  688.41200
  241.55400   52.78320    -999.25    -999.25    -999.25    -999.25  697.40300
  241.70640   56.95830    -999.25    -999.25    -999.25    -999.25  696.50400
  241.85880   59.04570    -999.25    -999.25    -999.25    -999.25  696.50400
  242.01120   57.85290    -999.25    -999.25    -999.25    -999.25  701.59800
  242.16360   53.08140    -999.25    -999.25    -999.25    -999.25  702.49700
  242.31600   59.64210    -999.25    -999.25    -999.25    -999.25  706.09400
  242.46840   62.02770    -999.25    -999.25    -999.25    -999.25  706.09400
  242.62080   51.29220    -999.25    -999.25    -999.25    -999.25  695.60400
  242.77320   46.22280    -999.25    -999.25    -999.25    -999.25  700.40000
  242.92560   49.50300    -999.25    -999.25    -999.25    -999.25  703.99600
  243.07800   49.80120    -999.25    -999.25    -999.25    -999.25  700.69900
  243.23040   50.09940    -999.25    -999.25    -999.25    -999.25  706.69300
