~Version ---------------------------------------------------
VERS. 2.0 : CWLS log ASCII Standard -VERSION 2.0
WRAP.  NO : One line per depth step
~Well ------------------------------------------------------
STRT.M                  7.9248 : START
STOP.M                334.9752 : STOP
STEP.M      0.1523999999999992 : STEP
NULL.                  -999.25 : NULL VALUE
COMP.              RAJAMANDALA : Company
CN1 .              RAJAMANDALA : Company Name Line 1
WELL.              RAJAMANDALA : Well Name
FLD .              RAJAMANDALA : Field
CTRY.              RAJAMANDALA : Country
STAT.              RAJAMANDALA : State
PROV.                          : Province
LOC .                          : Field Location
LATI. 000 01' 00.000" S    DMS : Latitude
LONG. 000 01' 01.000" E    DMS : Longitude
PD  .                      MSL : Permanent Datum
UWI .              RAJAMANDALA : Unique Well ID
EKB .M                     9.0 : Elevation of KB
EGL .M                     6.0 : Elevation Ground lv
ELZ .M                     9.0 : Elevation Log Zero
LMF .                       KB : Log measured from
MP  .                       KB : Drill measured from
OS  .                COMPOSITE : Services
OS1 .                      LAT : Other Services Ln 1
OS2 .                 DENS-CAL : Other Services Ln 2
OS3 .                      BHC : Other Services Ln 3
OS4 .                   GR-NEU : Other Services Ln 4
SRVC.                          : Service company
RUNS.                        2 : Number of runs
DATE.                          : Date
~Curve Information -----------------------------------------
DEPT   .M     : 1  Depth
GR     .CPS   : 2  Gamma-Ray Log
CALI   .INCH  : 3  Caliper Log
LAT    .OHMM  : 4  Lateral
DT     .US/F  : 5  Delta T
DEN    .CPS   : 6  Density Log
NEUTRON.CPS   : 7  Neutron
~Params ----------------------------------------------------
RUN .           1 : Run number
DATE.    22-07-24 : Log date
DD  .M      231.0 : Depth-Driller
DL  .M      231.8 : Depth-Logger
BLI .M      231.0 : Bottom log interval
TLI .M        5.0 : Top log interval
CBD1.M       63.7 : Casing-Driller
CBL1.M       36.3 : Casing-Logger
CS  .IN     9.625 : Casing Diameter
BS  .IN       8.5 : Bit Size
DFT .    GEL-CHEM : Hole Fluid type
DFD .LB/G    10.6 : Fluid Density
DFV .S       43.0 : Fluid Viscosity
DFPH.         8.5 : Fluid PH
DFL .C3       8.5 : Fluid Loss
MSS .    FLOWLINE : Mud Sample Source
RMS .OHMM     2.9 : RM  @ Surface
RMT .DEGF    90.0 : Mud temp Surface
RMFS.OHMM    2.15 : RMF @ Surface
RMTF.DEGF    79.0 : MF temp Surface
RMCS.OHMM    2.25 : RMC @ Surface
RMTC.DEGF    79.0 : MC Temp Surface
TCS .       2 HRS : Time circ. stopped
LUN .       AAR 1 : Logging unit No
LUL .      RJMNDL : Logging unit Loc
ENGI.      RJMNDL : Recorded by
WITN.      RJMNDL : Witness
RUN .           2 : Run number
DATE.    23-02-27 : Log date
DD  .M      342.0 : Depth-Driller
DL  .M      331.0 : Depth-Logger
BLI .M      331.0 : Bottom log interval
TLI .M      195.0 : Top log interval
CBD1.M        8.0 : Casing-Driller
CBL1.M       36.3 : Casing-Logger
CS  .IN    13.375 : Casing Diameter
BS  .IN       7.5 : Bit Size
DFT .    GEL-CHEM : Hole Fluid type
MSS .    FLOWLINE : Mud Sample Source
LUL .        BULA : Logging unit Loc
~Other -----------------------------------------------------
GAMMA RAY SCALE : 0 - 150 CPS
CALIPER SCALE : 0 - 20 INCH
LATERAL SCALE : 0 - 200 OHMM
DENSITY SCALE : 0 - 300 CPS
NEUTRON SCALE : 600 - 900 CPS
~ASCII -----------------------------------------------------
# ...
   70.71360   77.86470    9.70639    0.00000  435.71300  188.44500  728.75800
   70.86600   77.86470    9.70639    0.00000  434.09600  189.74700  726.93300
   71.01840   77.34390    9.63731    0.00000  436.52200  189.74700  729.80000
   71.17080   77.08320    9.46459    0.00000  432.74800  205.12500  736.31600
   71.32320   77.08320    9.29188    0.00000  425.47000  209.29500  741.00800
   71.47560   77.08320    9.25734   -5.58465  420.07800  196.00200  743.09300
   71.62800   77.60430    9.18826   -5.58465  415.76500  193.65900  743.35400
   71.78040   78.64590    9.08463   -5.23560  433.55700  196.00200  742.57200
   71.93280   79.68750    9.01554   -5.23560  437.06100  210.07800  741.79000
   72.08520    -999.25    9.01554   -5.23560  435.17400  180.36600  740.74700
   72.23760    -999.25    9.01554   -5.23560  433.55700  186.36000  746.48100
   72.39000    -999.25    9.08463   -5.23560  425.47000  178.53900  749.87000
   72.54240    -999.25    9.01554   -5.23560  413.33900  208.25400  753.77900
   72.69480    -999.25    8.84283   -5.23560  425.47000  198.34800  759.25300
   72.84720    -999.25    8.80829   -5.23560  422.50400  202.52100  763.68400
   72.99960    -999.25    8.80829   -5.23560  413.33900  208.25400  769.15700
   73.15200    -999.25    8.84283   -5.23560  418.73000  211.64100  778.01900
   73.30440    -999.25    8.91192   -5.23560  424.39100  207.21000  775.15200
   73.45680    -999.25    8.91192   -4.88656  408.48700  177.23700  762.90200
   73.60920    -999.25    8.73921   -4.88656  420.61700  194.70000  759.51400
   73.76160    -999.25    8.67012   -5.23560  426.54800  194.70000  752.99700
   73.91400    -999.25    8.73921   -5.23560  411.99100  186.09900  752.99700
   74.06640    -999.25    8.80829   -5.23105  419.27000  200.69400  757.29200
   74.21880    -999.25    8.91192   25.63210  424.93000  205.38600  757.29200
   74.37120    -999.25    8.91192   25.10900  416.84300  211.64100  758.85400
   74.52360    -999.25    8.91192   24.76020  424.93000  215.81100  762.50000
   74.67600    -999.25    8.91192   25.45770  414.95700  223.11000  760.15600
   74.82840    -999.25    8.91192   26.67830  423.04300  217.63800  774.21900
   74.98080    -999.25    8.84283   26.67830  404.17400  212.68500  780.46900
   75.13320    -999.25    8.91192   27.72450  422.23500  204.86400  794.01000
   75.28560    -999.25    9.01554   31.03750  413.87800  206.16900  811.45800
   75.43800    -999.25    9.08463   35.04800  433.28700  193.65900  809.89600
   75.59040    -999.25    9.08463   36.79160  426.81700  211.90200  813.80200
   75.74280    -999.25    9.08463   37.48910  423.04300  199.13100  828.64600
   75.89520   63.54180    9.01554   40.45340  404.17400  196.26300  846.35400
   76.04760   61.97910    9.08463   41.49960  428.43500  210.33900  865.85600
   76.20000   59.63550    9.08463   41.49960  409.02600  190.53000  887.48900
   76.35240   53.90640    9.18826   42.19700  430.86100  197.56800  915.90000
   76.50480   48.69780    9.29188   39.75590  420.07800  188.18400  895.83000
   76.65720   43.48950    9.53368   36.79160  427.89600  189.22800  888.01000
   76.80960   47.13540    9.98273   33.82740  423.04300  198.60900  881.23400
   76.96200   49.21890   10.36270   33.82740  426.00900  183.49200  873.41400
   77.11440   49.21890   10.05180   32.08370  424.12200  198.60900  818.41900
   77.26680   51.04170    9.87910   31.38620  409.56500  184.79700  814.24900
   77.41920   56.25000   10.32820   28.77070  401.74800  173.32800  824.67400
   77.57160   59.89590    9.81002   28.42200  408.48700  173.32800  832.23300
   77.72400   50.26050   10.32820   27.72450  425.47000  169.93800  845.78600
   77.87640   49.47930   10.50090   29.99130  428.43500  169.15800  842.18800
   78.02880   51.56250   10.15540   27.72450  428.43500  176.19600  836.45800
   78.18120   50.00010   10.12090   27.37580  432.20900  181.14600  850.52100
   78.33360   48.17700    9.81002   27.72450  427.89600  179.58300  830.20800
   78.48600   47.13540    8.84283   28.07320  417.38300  185.57700  795.83300
   78.63840   49.21890    8.73921   27.72450  426.54800  175.93500  807.81200
   78.79080   52.60410    8.67012   28.42200  424.12200  184.53600  827.08300
   78.94320   57.03120    8.67012   27.37580  402.28700  182.19000  839.58300
   79.09560   63.28140    8.63558   27.72450  414.41700  171.24300  835.41700
   79.24800   64.58340    8.63558   27.02700  410.10400  164.98800  834.37500
   79.40040   66.92700    8.63558   27.02700  385.03500  184.79700  864.58300
   79.55280   72.13530    8.67012   27.72450  390.69600  172.54500  851.04200
   79.70520   66.92700    8.73921   26.67830  377.75700  170.19900  857.81300
   79.85760   63.54180    8.80829   26.67830  383.41700  180.10500  872.13500
   80.01000   64.58340    8.80829   27.02700  386.38300  180.36600  911.99100
   80.16240   67.70820    8.80829   26.67830  400.40000  157.68900  898.69700
   80.31480   69.01050    8.84283   26.32960  396.62600  159.25200  896.61200
   80.46720   70.05210    8.98100   26.32960  402.28700  165.50700  882.53700
   80.61960   67.44780    9.01554   26.32960  404.71300  173.85000  884.10100
   80.77200   65.88540    9.01554   25.98080  421.69600  180.88500  875.76000
   80.92440   64.06260    8.98100   25.98080  427.89600  183.49200  899.21800
   81.07680   64.58340    8.80829   27.02700  410.10400  189.22800  889.83500
   81.22920   65.62500    8.73921   25.98080  426.00900  188.96700  911.46900
   81.38160   63.02070    8.80829   25.63210  420.61700  196.26300  906.25500
   81.53400   61.97910    8.91192   25.10900  426.54800  184.53600  904.17000
   81.68640   65.62500    8.91192   25.98080  418.19100  198.34800  899.73900
   81.83880   63.28140    8.91192   25.63210  430.32200  199.91400  895.56900
   81.99120   67.70820    9.08463   25.45770  435.71300  184.79700  901.56300
   82.14360   69.01050    8.98100   25.98080  431.67000  190.53000  898.69800
   82.29600   69.27090    8.73921   25.98080  423.58300  196.52400  890.88500
   82.44840   66.40620    8.84283   25.98080  431.67000  166.29000  903.12600
   82.60080   64.32300    8.91192   26.32960  435.17400  170.98200  898.69800
   82.75320   63.28140    8.73921   25.98080  429.24300  183.23100  897.13500
   82.90560   64.32300    8.56649   26.32960  412.80000  174.89100  918.75000
   83.05800   66.66660    8.56649   27.37580  425.47000  191.83200  924.99900
   83.21040   65.88540    8.53195   26.32960  431.67000  178.02000  954.16800
   83.36280   63.28140    8.53195   26.32960  431.67000  172.80600  957.29100
   83.51520   62.76030    8.67012   25.98080  418.19100  178.53900  957.81300
   83.66760   65.10420    8.73921   25.98080  405.79100  188.18400  957.81300
   83.82000   61.97910    8.73921   25.63210  399.32200  187.92300  957.81300
   83.97240   63.28140    8.73921   25.60980  413.87800  191.57400  957.60300
   84.12480   72.39570    8.67012   25.78400  397.43500  199.39200  957.60300
   84.27720   70.57290    8.67012   26.48080  375.33000  200.17500  957.60300
   84.42960   67.96890    8.67012   26.65510  407.67800  194.43900  957.60300
   84.58200    -999.25    8.73921   26.82930  413.33900  176.19600  957.60300
   84.73440    -999.25    8.80829   27.52610  424.12200  190.26900  957.60300
   84.88680    -999.25    8.91192   27.87460  426.54800  179.58300  958.12200
   85.03920    -999.25    8.96194   27.70030  424.12200  181.82700  958.12200
   85.19160   61.97910    9.03114   27.00350  405.79100  200.61000  958.12200
   85.34400   60.93750    9.13495   26.65510  409.56500  187.30500  958.64400
   85.49640   59.89590    9.30796   26.65510  402.82600  185.47800  958.64400
   85.64880   59.89590    9.34256   25.78400  422.50400  199.30500  958.64400
   85.80120   65.10420    9.03114   25.26130  426.00900  186.52200  958.64400
   85.95360   67.96890    8.61592   24.41150  410.64300  195.91200  959.11500
   86.10600   66.40620    8.37370   24.41150  431.67000  182.87100  959.11500
   86.25840   64.58340    8.37370   24.06280  419.27000  199.56600  959.11500
