~Version ---------------------------------------------------
VERS. 2.0 : CWLS log ASCII Standard -VERSION 2.0
WRAP.  NO : One line per depth step
~Well ------------------------------------------------------
STRT.M                  7.9248 : START
STOP.M                334.9752 : STOP
STEP.M      0.1523999999999992 : STEP
NULL.                  -999.25 : NULL VALUE
COMP.              RAJAMANDALA : Company
CN1 .              RAJAMANDALA : Company Name Line 1
WELL.              RAJAMANDALA : Well Name
FLD .              RAJAMANDALA : Field
CTRY.              RAJAMANDALA : Country
STAT.              RAJAMANDALA : State
PROV.                          : Province
LOC .                          : Field Location
LATI. 000 01' 00.000" S    DMS : Latitude
LONG. 000 01' 01.000" E    DMS : Longitude
PD  .                      MSL : Permanent Datum
UWI .              RAJAMANDALA : Unique Well ID
EKB .M                     9.0 : Elevation of KB
EGL .M                     6.0 : Elevation Ground lv
ELZ .M                     9.0 : Elevation Log Zero
LMF .                       KB : Log measured from
MP  .                       KB : Drill measured from
OS  .                COMPOSITE : Services
OS1 .                      LAT : Other Services Ln 1
OS2 .                 DENS-CAL : Other Services Ln 2
OS3 .                      BHC : Other Services Ln 3
OS4 .                   GR-NEU : Other Services Ln 4
SRVC.                          : Service company
RUNS.                        2 : Number of runs
DATE.                          : Date
~Curve Information -----------------------------------------
DEPT   .M     : 1  Depth
GR     .CPS   : 2  Gamma-Ray Log
CALI   .INCH  : 3  Caliper Log
LAT    .OHMM  : 4  Lateral
DT     .US/F  : 5  Delta T
DEN    .CPS   : 6  Density Log
NEUTRON.CPS   : 7  Neutron
~Params ----------------------------------------------------
RUN .           1 : Run number
DATE.    22-07-24 : Log date
DD  .M      231.0 : Depth-Driller
DL  .M      231.8 : Depth-Logger
BLI .M      231.0 : Bottom log interval
TLI .M        5.0 : Top log interval
CBD1.M       63.7 : Casing-Driller
CBL1.M       36.3 : Casing-Logger
CS  .IN     9.625 : Casing Diameter
BS  .IN       8.5 : Bit Size
DFT .    GEL-CHEM : Hole Fluid type
DFD .LB/G    10.6 : Fluid Density
DFV .S       43.0 : Fluid Viscosity
DFPH.         8.5 : Fluid PH
DFL .C3       8.5 : Fluid Loss
MSS .    FLOWLINE : Mud Sample Source
RMS .OHMM     2.9 : RM  @ Surface
RMT .DEGF    90.0 : Mud temp Surface
RMFS.OHMM    2.15 : RMF @ Surface
RMTF.DEGF    79.0 : MF temp Surface
RMCS.OHMM    2.25 : RMC @ Surface
RMTC.DEGF    79.0 : MC Temp Surface
TCS .       2 HRS : Time circ. stopped
LUN .       AAR 1 : Logging unit No
LUL .      RJMNDL : Logging unit Loc
ENGI.      RJMNDL : Recorded by
WITN.      RJMNDL : Witness
RUN .           2 : Run number
DATE.    23-02-27 : Log date
DD  .M      342.0 : Depth-Driller
DL  .M      331.0 : Depth-Logger
BLI .M      331.0 : Bottom log interval
TLI .M      195.0 : Top log interval
CBD1.M        8.0 : Casing-Driller
CBL1.M       36.3 : Casing-Logger
CS  .IN    13.375 : Casing Diameter
BS  .IN       7.5 : Bit Size
DFT .    GEL-CHEM : Hole Fluid type
MSS .    FLOWLINE : Mud Sample Source
LUL .        BULA : Logging unit Loc
~Other -----------------------------------------------------
GAMMA RAY SCALE : 0 - 150 CPS
CALIPER SCALE : 0 - 20 INCH
LATERAL SCALE : 0 - 200 OHMM
DENSITY SCALE : 0 - 300 CPS
NEUTRON SCALE : 600 - 900 CPS
~ASCII -----------------------------------------------------
# ...
  117.80520    -999.25    8.46287    7.65885  405.86800  198.60900  895.30000
  117.95760    -999.25    8.46287    7.65885  414.47900  198.60900  889.29500
  118.11000    -999.25    8.56649    7.65885  424.97400  204.86400  873.34500
  118.26240    -999.25    8.67012    7.65885  423.35900  216.59400  873.60600
  118.41480    -999.25    8.63558    7.83290  408.82800  203.30100  875.95800
  118.56720    -999.25    8.63558    7.65885  427.39600  213.72600  882.23000
  118.71960    -999.25    8.63558    7.48475  423.89800  203.82300  884.84300
  118.87200    -999.25    8.63558    7.48475  420.39900  203.30100  882.75300
  119.02440    -999.25    8.63558    7.13665  419.32300  218.41800  880.92300
  119.17680    -999.25    8.63558    7.65885  425.24300  200.43300  874.65100
  119.32920    -999.25    8.56649    7.48475  414.21000  199.13100  871.77700
  119.48160    -999.25    8.56649    6.96260  423.89800  192.61500  868.90200
  119.63400    -999.25    8.53195    7.83290  418.51600  188.44500  868.11800
  119.78640    -999.25    8.46287    6.96260  431.16300  178.02000  870.99300
  119.93880    -999.25    8.35924    7.13665  416.63200  175.93500  865.76600
  120.09120    -999.25    8.35924    6.96260  433.30100  169.82700  862.63100
  120.24360    -999.25    8.35924    6.96260  434.91700  172.69500  861.32400
  120.39600    -999.25    8.29016    7.48475  429.26200  201.65100  862.63100
  120.54840    -999.25    8.29016    7.48475  417.95000  193.56600  865.24400
  120.70080    -999.25    8.29016    7.65885  419.29600  192.52200  868.90200
  120.85320    -999.25    8.35924    7.83290  406.90700  201.65100  870.73200
  121.00560    -999.25    8.35924    8.00695  427.37600  191.47800  874.91300
  121.15800    -999.25    8.35924    8.00695  426.29900  185.21700  873.86800
  121.31040    -999.25    8.39378    8.70320  423.06700  184.43400  879.35600
  121.46280    -999.25    8.35924    8.52915  427.10700  195.91200  883.01400
  121.61520    -999.25    8.35924    8.70320  428.45400  193.56600  884.05900
  121.76760    -999.25    8.35924    8.35510  425.22200  199.82700  885.88900
  121.92000   83.85420    8.35924    8.35510  410.13900  189.65100  882.49100
  122.07240   78.90630    8.35924    8.00695  431.14700  187.56600  885.88900
  122.22480   66.66660    8.35924    8.70320  425.22200  187.82700  884.32000
  122.37720   63.28140    8.39378    8.70320  432.76300  191.21700  886.67200
  122.52960   61.71870    8.39378    9.22540  427.91500  178.17300  887.97900
  122.68200   56.25000    8.39378    9.22540  423.60600  186.26100  891.63800
  122.83440   66.66660    8.39378   10.09570  419.29600  189.65100  893.46700
  122.98680   69.01050    8.39378   10.09570  407.44600  189.91200  895.29600
  123.13920   70.31250    8.35924   10.09570  411.75500  201.91200  902.09100
  123.29160   69.01050    8.29016   10.09570  434.10900  198.26100  916.72500
  123.44400   66.92700    8.29016   10.26980  437.34100  177.39000  916.20300
  123.59640   64.06260    8.35924   10.26980  431.41600  198.26100  911.23800
  123.74880   59.89590    8.29016   10.26980  411.21600  187.82700  917.50800
  123.90120   56.25000    8.29016   10.26980  432.22400  202.69500  913.06500
  124.05360   55.72920    8.35924    9.39950  411.21600  195.91200  907.57800
  124.20600   60.41670    8.35924    9.39950  430.60800  195.12900  909.40800
  124.35840   64.32300    8.39378    8.35510  424.14400  202.69500  903.92100
  124.51080   67.96890    8.39378    7.65885  408.52300  187.82700  897.64800
  124.66320   65.62500    8.29016    7.83290  435.45600  185.21700  888.50200
  124.81560   64.32300    8.29016    8.00695  423.60600  202.17300  883.53700
  124.96800   68.22930    8.29016    7.83290  434.09600  218.61000  879.87800
  125.12040   75.00000    8.29016    7.83290  424.93000  213.91200  877.52600
  125.27280   76.82280    8.29016    8.70320  422.23500  211.30500  878.04900
  125.42520   76.30200    8.29016    9.22540  404.98300  232.43400  879.87800
  125.57760   82.81260    8.29016    9.22540  424.66100  234.00000  881.18500
  125.73000   87.23970    8.29016    8.70320  420.61700  207.91200  881.70700
  125.88240   92.18760    8.29016    9.22540  423.58300  217.30500  884.84300
  126.03480   90.62490    8.29016    8.52175  413.87800  203.21700  889.28600
  126.18720   73.69800    8.29016    8.17390  403.09600  216.00000  892.16000
  126.33960   65.88540    8.29016    8.52175  377.48700  223.04400  894.51200
  126.49200   58.59390    8.29016    8.52175  366.70400  194.61000  895.81900
  126.64440   51.04170    8.29016    9.39130  360.77400  196.69500  893.46700
  126.79680   47.65620    8.35924    9.04350  357.53900  212.61000  892.94400
  126.94920   47.13540    8.35924    9.04350  342.98300  195.91200  894.77300
  127.10160   44.53140    8.39378    9.04350  391.50400  196.69500  892.68300
  127.25400   42.18750    8.39378    8.52175  372.09600  206.87100  903.39600
  127.40640   44.53140    8.46287    8.86955  379.10400  193.56600  901.30800
  127.55880   47.91660    8.39378    8.17390  366.16500  201.91200  897.12500
  127.71120   54.94800    8.35924    7.82610  387.19100  214.43400  903.39600
  127.86360   60.41670    8.18653    7.82610  367.24300  210.52200  903.92100
  128.01600   56.51040    8.22107    7.47825  382.33900  207.39000  900.00000
  128.16840   56.25000    8.39378    7.82610  346.75700  194.87100  898.43200
  128.32080    -999.25    8.35924    7.47825  349.99100  186.52200  893.46700
  128.47320    -999.25    8.29016    7.47825  353.22600  180.78300  893.46700
  128.62560    -999.25    8.29016    7.47825  344.06100  200.34900  886.15000
  128.77800    -999.25    8.29016    7.82610  352.14800  205.30500  884.32000
  128.93040    -999.25    8.29016    7.82610  347.83500  210.26100  878.04900
  129.08280    -999.25    8.35924    7.47825  341.36500  231.12900  874.39000
  129.23520    -999.25    8.35924    7.47825  324.65200  228.26100  874.91300
  129.38760    -999.25    8.35924    7.47825  339.20900  223.82700  876.22000
  129.54000    -999.25    8.35924    7.47825  343.52200  231.39000  881.70700
  129.69240    -999.25    8.35924    7.47825  354.84300  225.39000  881.70700
  129.84480    -999.25    8.35924    6.95650  361.31300  212.61000  882.23000
  129.99720    -999.25    8.29016    7.47825  379.10400  208.17300  878.04900
  130.14960    -999.25    8.29016    6.95650  364.54800  204.26100  878.04900
  130.30200    -999.25    8.29016    6.95650  363.73900  199.56600  876.74200
  130.45440    -999.25    8.29016    7.47825  365.08700  207.65100  878.04900
  130.60680    -999.25    8.29016    6.95650  386.38300  205.82700  875.69700
  130.75920    -999.25    8.29016    6.95650  368.59100  209.21700  877.26500
  130.91160    -999.25    8.29016    6.95650  387.46100  204.52200  875.69700
  131.06400    -999.25    8.29016    7.30435  394.20000  198.52200  875.69700
  131.21640    -999.25    8.35924    7.30435  387.73000  213.65100  875.69700
  131.36880    -999.25    8.46287    7.47825  366.97400  212.87100  877.52600
  131.52120    -999.25    8.56649    7.47825  361.31300  199.56600  875.69700
  131.67360    -999.25    8.56649    8.17390  367.51300  216.00000  881.18500
  131.82600    -999.25    8.53195    8.17390  385.30400  208.69500  879.35600
  131.97840    -999.25    8.39378    7.47825  368.05200  215.21700  875.43500
  132.13080    -999.25    8.35924    8.17390  388.27000  214.43400  873.08400
  132.28320    -999.25    8.29016    7.82610  369.40000  206.87100  878.57100
  132.43560    -999.25    8.29016    7.47825  383.95700  198.52200  884.32000
  132.58800    -999.25    8.29016    7.47825  354.03500  193.56600  887.19500
  132.74040    -999.25    8.35924    7.47825  357.80900  190.17300  888.50200
  132.89280    -999.25    8.35924    7.30435  368.05200  207.65100  887.97900
  133.04520    -999.25    8.29016    7.47825  369.40000  205.04400  887.97900
  133.19760    -999.25    8.29016    7.82610  370.47800  203.21700  876.74200
  133.35000    -999.25    8.29016    7.47825  349.72200  207.91200  876.22000
