~Version ---------------------------------------------------
VERS. 2.0 : CWLS log ASCII Standard -VERSION 2.0
WRAP.  NO : One line per depth step
~Well ------------------------------------------------------
STRT.M                  7.9248 : START
STOP.M                334.9752 : STOP
STEP.M      0.1523999999999992 : STEP
NULL.                  -999.25 : NULL VALUE
COMP.              RAJAMANDALA : Company
CN1 .              RAJAMANDALA : Company Name Line 1
WELL.              RAJAMANDALA : Well Name
FLD .              RAJAMANDALA : Field
CTRY.              RAJAMANDALA : Country
STAT.              RAJAMANDALA : State
PROV.                          : Province
LOC .                          : Field Location
LATI. 000 01' 00.000" S    DMS : Latitude
LONG. 000 01' 01.000" E    DMS : Longitude
PD  .                      MSL : Permanent Datum
UWI .              RAJAMANDALA : Unique Well ID
EKB .M                     9.0 : Elevation of KB
EGL .M                     6.0 : Elevation Ground lv
ELZ .M                     9.0 : Elevation Log Zero
LMF .                       KB : Log measured from
MP  .                       KB : Drill measured from
OS  .                COMPOSITE : Services
OS1 .                      LAT : Other Services Ln 1
OS2 .                 DENS-CAL : Other Services Ln 2
OS3 .                      BHC : Other Services Ln 3
OS4 .                   GR-NEU : Other Services Ln 4
SRVC.                          : Service company
RUNS.                        2 : Number of runs
DATE.                          : Date
~Curve Information -----------------------------------------
DEPT   .M     : 1  Depth
GR     .CPS   : 2  Gamma-Ray Log
CALI   .INCH  : 3  Caliper Log
LAT    .OHMM  : 4  Lateral
DT     .US/F  : 5  Delta T
DEN    .CPS   : 6  Density Log
NEUTRON.CPS   : 7  Neutron
~Params ----------------------------------------------------
RUN .           1 : Run number
DATE.    22-07-24 : Log date
DD  .M      231.0 : Depth-Driller
DL  .M      231.8 : Depth-Logger
BLI .M      231.0 : Bottom log interval
TLI .M        5.0 : Top log interval
CBD1.M       63.7 : Casing-Driller
CBL1.M       36.3 : Casing-Logger
CS  .IN     9.625 : Casing Diameter
BS  .IN       8.5 : Bit Size
DFT .    GEL-CHEM : Hole Fluid type
DFD .LB/G    10.6 : Fluid Density
DFV .S       43.0 : Fluid Viscosity
DFPH.         8.5 : Fluid PH
DFL .C3       8.5 : Fluid Loss
MSS .    FLOWLINE : Mud Sample Source
RMS .OHMM     2.9 : RM  @ Surface
RMT .DEGF    90.0 : Mud temp Surface
RMFS.OHMM    2.15 : RMF @ Surface
RMTF.DEGF    79.0 : MF temp Surface
RMCS.OHMM    2.25 : RMC @ Surface
RMTC.DEGF    79.0 : MC Temp Surface
TCS .       2 HRS : Time circ. stopped
LUN .       AAR 1 : Logging unit No
LUL .      RJMNDL : Logging unit Loc
ENGI.      RJMNDL : Recorded by
WITN.      RJMNDL : Witness
RUN .           2 : Run number
DATE.    23-02-27 : Log date
DD  .M      342.0 : Depth-Driller
DL  .M      331.0 : Depth-Logger
BLI .M      331.0 : Bottom log interval
TLI .M      195.0 : Top log interval
CBD1.M        8.0 : Casing-Driller
CBL1.M       36.3 : Casing-Logger
CS  .IN    13.375 : Casing Diameter
BS  .IN       7.5 : Bit Size
DFT .    GEL-CHEM : Hole Fluid type
MSS .    FLOWLINE : Mud Sample Source
LUL .        BULA : Logging unit Loc
~Other -----------------------------------------------------
GAMMA RAY SCALE : 0 - 150 CPS
CALIPER SCALE : 0 - 20 INCH
LATERAL SCALE : 0 - 200 OHMM
DENSITY SCALE : 0 - 300 CPS
NEUTRON SCALE : 600 - 900 CPS
~ASCII -----------------------------------------------------
# ...
  164.89680    -999.25    8.26990    9.58190  430.62500  198.26100  794.96100
  165.04920    -999.25    8.26990    9.93030  424.72700  205.90800  800.17400
  165.20160    -999.25    8.33910    9.93030  420.42500  210.60000  794.96100
  165.35400    -999.25    8.33910    9.93030  433.33000  210.60000  794.96100
  165.50640    -999.25    8.33910    9.58190  425.80200  210.60000  799.91300
  165.65880    -999.25    8.33910    9.40765  433.86800  213.72600  796.00300
  165.81120    -999.25    8.33910    9.23345  422.03800  207.21000  798.34900
  165.96360    -999.25    8.33910    9.40765  429.02900  221.54700  796.00300
  166.11600    -999.25    8.33910    9.39950  414.51000  204.86400  786.62000
  166.26840    -999.25    8.33910    9.39950  431.18000  214.50900  779.84400
  166.42080    -999.25    8.33910   10.09570  423.11400  216.85500  767.07200
  166.57320    -999.25    8.33910   10.09570  415.58500  209.55600  770.72100
  166.72560    -999.25    8.33910   10.26980  421.50000  202.26000  774.89100
  166.87800    -999.25    8.33910    9.74760  404.29300  193.91700  750.65200
  167.03040    -999.25    8.33910    9.74760  423.11400  200.95500  731.62500
  167.18280    -999.25    8.23529   10.09570  408.59500  213.98700  729.53900
  167.33520    -999.25    8.23529    9.74760  420.96300  213.46800  724.84800
  167.48760    -999.25    8.23529   10.09570  406.98200  228.58500  725.10900
  167.64000    -999.25    8.16609   10.96610  422.03800  235.36200  725.89100
  167.79240    -999.25    8.16609   10.79200  411.28400  228.58500  724.84800
  167.94480    -999.25    8.23529   11.49830  397.84000  229.88700  728.75800
  168.09720    -999.25    8.23529   11.49830  430.10400  221.28600  720.41700
  168.24960    -999.25    8.23529   11.14980  417.73600  206.94900  716.24700
  168.40200    -999.25    8.23529   11.14980  430.10400  204.34500  715.20400
  168.55440    -999.25    8.23529   11.14980  418.81200  211.38000  717.02900
  168.70680    -999.25    8.23529   10.80140  419.88700  217.11600  718.33200
  168.85920    -999.25    8.23529   10.80140  418.54300  214.50900  719.89600
  169.01160    -999.25    8.23529   10.45300  414.51000  223.11000  721.98100
  169.16400    -999.25    8.26990   10.27870  411.55200  198.60900  727.71500
  169.31640    -999.25    8.33910   10.45300  420.42500  200.17500  731.10300
  169.46880    -999.25    8.33910   10.10450  407.78800  212.68500  730.32100
  169.62120    -999.25    8.23529    9.58190  408.32600  210.07800  728.49700
  169.77360    -999.25    8.23529    9.93030  403.21800  207.99300  730.06100
  169.92600    -999.25    8.37370    9.93030  413.16600  213.20700  730.84300
  170.07840    -999.25    8.44291    9.57355  426.89800  201.73800  731.62500
  170.23080    -999.25    8.44291    9.57355  415.34700  206.94900  726.15100
  170.38320    -999.25    8.44291    9.74760  409.16800  204.86400  724.58700
  170.53560    -999.25    8.44291    9.57355  417.22700  201.21600  729.53900
  170.68800    -999.25    8.44291    9.74760  409.16800  215.29200  734.49200
  170.84040    -999.25    8.44291    9.57355  402.72100  207.73200  736.05600
  170.99280    -999.25    8.54671   10.26980  419.91300  214.50900  729.80000
  171.14520    -999.25    8.54671   10.26980  405.94500  216.33300  724.06600
  171.29760    -999.25    8.65052   10.09570  422.60000  207.99300  719.89600
  171.45000    -999.25    8.65052   10.26980  407.55600  201.99900  722.76300
  171.60240    -999.25    8.65052   11.14010  408.63100  212.68500  718.85300
  171.75480    -999.25    8.47751   11.14010  417.76400  207.21000  720.67800
  171.90720    -999.25    8.44291   11.14010  396.27400  228.58500  720.41700
  172.05960    -999.25    8.33910   12.88080  400.03500  214.50900  722.50200
  172.21200    -999.25    8.23529   13.75110  397.88600  227.54100  724.06600
  172.36440    -999.25    8.23529   14.44730  413.46600  224.41500  724.84800
  172.51680    -999.25    8.23529   14.44730  417.76400  212.94600  725.63000
  172.66920    -999.25    8.23529   14.44730  415.88400  216.59400  725.10900
  172.82160    -999.25    8.23529   14.44730  415.07800  222.84900  725.10900
  172.97400    -999.25    8.33910   14.44730  410.24300  218.94000  729.80000
  173.12640    -999.25    8.33910   14.44730  417.76400  210.07800  739.96500
  173.27880    -999.25    8.33910   12.70670  425.82300  219.72300  741.79000
  173.43120    -999.25    8.33910   10.44390  419.91300  223.89300  739.96500
  173.58360    -999.25    8.33910   10.44390  433.88200  219.98400  743.61400
  173.73600    -999.25    8.37370   10.26980  426.36000  214.77000  739.70500
  173.88840    -999.25    8.44291   10.26980  411.31700  219.98400  739.70500
  174.04080    -999.25    8.44291   10.26980  423.13700  224.41500  729.80000
  174.19320    -999.25    8.44291   10.26980  419.37600  219.46200  728.75800
  174.34560    -999.25    8.44291   11.31420  417.22700  223.89300  724.06600
  174.49800    -999.25    8.37370   11.31420  420.98800  213.20700  725.10900
  174.65040    -999.25    8.33910   11.31420  431.97000  204.08400  725.89100
  174.80280    -999.25    8.26990   11.31420  420.71900  214.77000  725.10900
  174.95520    -999.25    8.23529   11.66230  418.83900  201.91200  724.84800
  175.10760   74.35020    8.23529   11.66230  429.31500  208.69500  733.97000
  175.26000   72.27030    8.23529   10.26980  419.37600  205.04400  739.96500
  175.41240   55.37250    8.23529   10.44390  409.97400  193.82700  745.96000
  175.56480   52.51290    8.26990   10.26980  413.73500  202.17300  741.52900
  175.71720   51.47310    8.33910   10.44390  435.76300  197.47800  736.83800
  175.86960   53.55300    8.33910   10.44390  434.95700  202.95600  733.97000
  176.02200   54.59280    8.33910   11.14010  427.97200  194.61000  735.39100
  176.17440   54.59280    8.33910   11.66230  433.34500  188.87100  735.39100
  176.32680   54.59280    8.33910   11.14010  430.92700  192.00000  735.39100
  176.47920   54.59280    8.33910   10.79200  423.94300  199.56600  735.65200
  176.63160   58.75230    8.54671   10.79200  427.43500  207.91200  723.91300
  176.78400   69.15090    8.47751   10.44390  430.12100  207.39000  723.65200
  176.93640   72.53040    8.33910   10.44390  426.09200  212.87100  727.30400
  177.08880   65.25120    8.23529   10.44390  422.60000  201.91200  728.34800
  177.24120   60.31200    8.26990   10.44390  418.83900  212.08800  730.17400
  177.39360   55.63260    8.33910   10.79200  414.27200  202.17300  731.21700
  177.54600   53.55300    8.23529   10.79200  418.03300  210.00000  734.34800
  177.69840   54.33270    8.23529   10.09570  423.13700  207.91200  734.60900
  177.85080   62.13180    8.23529   10.09570  419.91300  196.69500  738.26100
  178.00320   63.69150    8.23529    9.39950  429.31500  205.82700  741.39100
  178.15560   61.35180    8.23529    9.22540  423.13700  202.69500  742.69600
  178.30800   58.49220    8.33910    9.22540  422.33100  194.87100  741.39100
  178.46040   59.53200    8.33910    9.22540  424.21100  201.91200  737.73900
  178.61280   59.53200    8.33910    8.87730  426.62900  214.95600  738.78300
  178.76520   58.49220    8.33910    8.87730  415.34700  214.43400  744.00000
  178.91760   58.49220    8.26990    8.70320  424.21100  207.39000  736.43500
  179.07000   63.17160    8.26990    8.70320  416.15300  203.21700  732.00000
  179.22240   74.61000    8.33910    8.52915  427.70400  210.00000  726.52200
  179.37480   83.44890    8.33910    8.70320  423.94300  211.30500  716.60900
  179.52720   88.38810    8.33910    8.70320  408.36200  213.65100  711.13000
  179.67960   92.54760    8.33910    9.22540  425.55500  205.30500  708.78300
  179.83200   95.40720    8.33910    9.22540  412.12300  212.34900  710.60900
  179.98440    -999.25    8.33333    9.74760  407.86100  219.32100  710.96600
  180.13680    -999.25    8.36806    9.74760  425.57600  226.37100  703.65500
  180.28920    -999.25    8.40278   10.96610  403.56700  219.32100  706.78900
  180.44160    -999.25    8.40278   11.14010  411.08200  213.31500  705.74400
