~Version ---------------------------------------------------
VERS. 2.0 : CWLS log ASCII Standard -VERSION 2.0
WRAP.  NO : One line per depth step
~Well ------------------------------------------------------
STRT.M                  7.9248 : START
STOP.M                334.9752 : STOP
STEP.M      0.1523999999999992 : STEP
NULL.                  -999.25 : NULL VALUE
COMP.              RAJAMANDALA : Company
CN1 .              RAJAMANDALA : Company Name Line 1
WELL.              RAJAMANDALA : Well Name
FLD .              RAJAMANDALA : Field
CTRY.              RAJAMANDALA : Country
STAT.              RAJAMANDALA : State
PROV.                          : Province
LOC .                          : Field Location
LATI. 000 01' 00.000" S    DMS : Latitude
LONG. 000 01' 01.000" E    DMS : Longitude
PD  .                      MSL : Permanent Datum
UWI .              RAJAMANDALA : Unique Well ID
EKB .M                     9.0 : Elevation of KB
EGL .M                     6.0 : Elevation Ground lv
ELZ .M                     9.0 : Elevation Log Zero
LMF .                       KB : Log measured from
MP  .                       KB : Drill measured from
OS  .                COMPOSITE : Services
OS1 .                      LAT : Other Services Ln 1
OS2 .                 DENS-CAL : Other Services Ln 2
OS3 .                      BHC : Other Services Ln 3
OS4 .                   GR-NEU : Other Services Ln 4
SRVC.                          : Service company
RUNS.                        2 : Number of runs
DATE.                          : Date
~Curve Information -----------------------------------------
DEPT   .M     : 1  Depth
GR     .CPS   : 2  Gamma-Ray Log
CALI   .INCH  : 3  Caliper Log
LAT    .OHMM  : 4  Lateral
DT     .US/F  : 5  Delta T
DEN    .CPS   : 6  Density Log
NEUTRON.CPS   : 7  Neutron
~Params ----------------------------------------------------
RUN .           1 : Run number
DATE.    22-07-24 : Log date
DD  .M      231.0 : Depth-Driller
DL  .M      231.8 : Depth-Logger
BLI .M      231.0 : Bottom log interval
TLI .M        5.0 : Top log interval
CBD1.M       63.7 : Casing-Driller
CBL1.M       36.3 : Casing-Logger
CS  .IN     9.625 : Casing Diameter
BS  .IN       8.5 : Bit Size
DFT .    GEL-CHEM : Hole Fluid type
DFD .LB/G    10.6 : Fluid Density
DFV .S       43.0 : Fluid Viscosity
DFPH.         8.5 : Fluid PH
DFL .C3       8.5 : Fluid Loss
MSS .    FLOWLINE : Mud Sample Source
RMS .OHMM     2.9 : RM  @ Surface
RMT .DEGF    90.0 : Mud temp Surface
RMFS.OHMM    2.15 : RMF @ Surface
RMTF.DEGF    79.0 : MF temp Surface
RMCS.OHMM    2.25 : RMC @ Surface
RMTC.DEGF    79.0 : MC Temp Surface
TCS .       2 HRS : Time circ. stopped
LUN .       AAR 1 : Logging unit No
LUL .      RJMNDL : Logging unit Loc
ENGI.      RJMNDL : Recorded by
WITN.      RJMNDL : Witness
RUN .           2 : Run number
DATE.    23-02-27 : Log date
DD  .M      342.0 : Depth-Driller
DL  .M      331.0 : Depth-Logger
BLI .M      331.0 : Bottom log interval
TLI .M      195.0 : Top log interval
CBD1.M        8.0 : Casing-Driller
CBL1.M       36.3 : Casing-Logger
CS  .IN    13.375 : Casing Diameter
BS  .IN       7.5 : Bit Size
DFT .    GEL-CHEM : Hole Fluid type
MSS .    FLOWLINE : Mud Sample Source
LUL .        BULA : Logging unit Loc
~Other -----------------------------------------------------
GAMMA RAY SCALE : 0 - 150 CPS
CALIPER SCALE : 0 - 20 INCH
LATERAL SCALE : 0 - 200 OHMM
DENSITY SCALE : 0 - 300 CPS
NEUTRON SCALE : 600 - 900 CPS
~ASCII -----------------------------------------------------
# ...
  211.98840   23.26040    8.36806   30.26090  420.13000  206.51100  718.17400
  212.14080   24.15510    8.57639   27.13040  403.98400  202.08300  720.00000
  212.29320   21.17300    8.43750   25.04350  409.90500  196.09500  719.21700
  212.44560   22.66400    8.22917   22.78260  394.29700  200.00100  725.21700
  212.59800   27.73360    8.22917   19.65220  417.43900  206.77200  725.21700
  212.75040   29.22470    8.22917   16.52170  403.44600  197.91600  730.95700
  212.90280   30.41760    8.22917   15.30430  418.51600  207.29100  732.26100
  213.05520   31.31220    8.15972   14.08700  403.44600  194.01000  732.52200
  213.20760   33.39960    8.15972   11.65220  386.76200  188.28000  735.65200
  213.36000   38.76750    8.26389   11.65220  374.38400  183.85500  740.34800
  213.51240   46.52100    8.26389   11.30430  393.22000  189.84300  752.60900
  213.66480   48.01200    8.29861   10.95650  377.61300  160.67700  755.47800
  213.81720   44.73150    8.29861   11.30430  360.92900  178.64700  746.34800
  213.96960   45.62610    8.29861   10.95650  363.62000  190.36500  744.91700
  214.12200   51.59040    8.29861   11.30430  370.07800  202.34400  743.87500
  214.27440   56.36190    8.29861   11.30430  373.03800  203.38500  738.92300
  214.42680   51.59040    8.29861   11.30430  384.87800  190.62600  736.31600
  214.57920   52.48500    8.40278   12.52170  410.44300  188.80200  737.62000
  214.73160   48.90660    8.43750   13.73910  402.37000  218.22900  739.44400
  214.88400   44.73150    8.47222   14.43480  407.75200  221.35500  743.35400
  215.03640   48.60840    8.52174   14.95650  388.91500  235.15500  749.08800
  215.18880   48.60840    8.52174   15.65220  400.75500  232.03200  757.16800
  215.34120   46.52100    8.52174   15.65220  412.05700  222.91800  766.55100
  215.49360   45.62610    8.52174   16.00000  411.25000  221.35500  774.37000
  215.64600   48.60840    8.52174   16.52170  405.59900  227.34300  780.62500
  215.79840   50.99400    8.52174   16.52170  422.82100  219.00900  784.79600
  215.95080   51.88860    8.52174   17.56520  432.24000  219.79200  786.36000
  216.10320   45.62610    8.59130   19.30430  433.58500  221.09400  776.45500
  216.25560   49.50300    8.59130   20.00000  433.04700  228.64500  775.67300
  216.40800   42.64410    8.48696   20.34780  428.74100  235.15500  774.63100
  216.56040   40.85490    8.34783   20.00000  422.28300  233.59500  784.53500
  216.71280   45.62610    8.24348   19.65220  387.03100  229.68900  787.66300
  216.86520   42.64410    8.27826   18.08700  388.64600  221.09400  791.57300
  217.01760   50.09940    8.31304   16.52170  430.62500  222.65700  790.53000
  217.17000   48.60840    8.48696   14.08700  428.74100  228.64500  784.79600
  217.32240   43.53870    8.48696   12.86960  427.39600  226.04100  781.92900
  217.47480   52.48500    8.48696   12.17390  424.70500  232.81200  775.15200
  217.62720   57.25650    8.45217   11.82610  416.63200  239.06400  762.12000
  217.77960   55.76550    8.38261   12.17390  410.17400  236.19900  751.43300
  217.93200   60.83490    8.27826   11.82610  394.83500  238.54200  746.22100
  218.08440   53.97600    8.27826   12.01040  416.09400  240.88500  735.27400
  218.23680   51.88860    8.31304   12.01040  402.10100  244.79100  730.06100
  218.38920   55.76550    8.41739   11.83640  388.91500  242.44800  728.23600
  218.54160   51.88860    8.41739   12.01040  393.49000  233.85300  728.75800
  218.69400   49.50300    8.34783   12.01040  410.44300  237.75900  726.93300
  218.84640   51.88860    8.27826   11.66230  402.37000  248.69700  728.49700
  218.99880   49.50300    8.27826   11.83640  385.95500  244.53000  731.10300
  219.15120   52.48500    8.27826   12.18450  404.25300  232.55100  731.62500
  219.30360   58.74750    8.34783   12.53260  409.09700  233.33400  729.80000
  219.45600   60.23850    8.41739   12.88080  423.62800  229.94700  728.49700
  219.60840   57.85290    8.41739   12.88080  419.86100  226.04100  730.84300
  219.76080   53.37960    8.41739   13.57700  404.52300  224.47800  731.62500
  219.91320   51.59040    8.38261   13.40300  404.25300  238.02000  731.36400
  220.06560   51.88860    8.40278   13.75110  448.65600  226.82400  730.58200
  220.21800   48.70530    8.40278   13.75110  445.96700  225.26100  735.79500
  220.37040   48.40650    8.36806   14.44730  404.02400  221.35500  741.79000
  220.52280   54.38250    8.36806   14.44730  404.02400  221.61600  744.13600
  220.67520   54.38250    8.36806   14.44730  404.02400  215.62500  749.87000
  220.82760   50.19930    8.36806   14.27330  404.02400  231.51000  746.48100
  220.98000   49.00410    8.43750   13.57700  404.02400  224.22000  744.13600
  221.13240   55.27890    8.40278   13.57700  404.29300  224.22000  750.13000
  221.28480   51.39450    8.36806   13.57700  404.56200  231.51000  740.74700
  221.43720   55.87650    8.43750   13.57700  404.56200  226.04100  736.83800
  221.58960   55.57770    8.54167   12.70670  404.02400  220.31400  729.27900
  221.74200   55.57770    8.57639   12.70670  403.48700  219.00900  724.06600
  221.89440   56.17530    8.61111   12.70670  404.02400  223.43700  723.54500
  222.04680   54.98010    8.61111   12.53260  404.56200  209.63400  728.23600
  222.19920   57.96810    8.33333   12.53260  404.56200  220.83300  725.10900
  222.35160   57.07170    8.19444   12.70670  404.56200  222.13500  726.67300
  222.50400   52.88850    8.14558   12.53260  404.56200  216.07200  724.58700
  222.65640   55.87650    8.14558   12.53260  404.56200  229.36500  723.54500
  222.80880   58.56570    8.14558   11.83640  404.56200  213.20700  729.53900
  222.96120   60.05970    8.21490   11.14010  404.56200  225.45600  730.32100
  223.11360   63.04770    8.31889   12.01040  404.56200  221.80800  730.84300
  223.26600   65.13930    8.28423   11.31420  404.02400  218.41800  728.75800
  223.41840   63.04770    8.28423   11.14010  404.02400  214.77000  729.53900
  223.57080   56.77290    8.35355   10.96610  404.02400  224.93400  726.30000
  223.72320   61.85250    8.38822   11.14010  404.02400  239.27100  722.40000
  223.87560   59.46210    8.38822   11.14010  404.02400  235.36200  710.40000
  224.02800   55.87650    8.31889   10.96610  404.02400  223.63200  699.30000
  224.18040   52.88850    8.38822   10.96610  404.02400  219.20100  713.40000
  224.33280   51.39450    8.49220   11.14010  403.48700  212.68500  714.30000
  224.48520   48.40650    8.59619   11.66230  402.94900  210.86100  717.60000
  224.63760   38.84460    8.63085   11.83640  403.48700  219.46200  717.00000
  224.79000   40.63740    8.59619   12.01040  402.94900  221.28600  712.50000
  224.94240   43.02780    8.42288   12.01040  403.21800  218.94000  711.60000
  225.09480   40.63740    8.56153   12.01040  404.02400  213.46800  727.20000
  225.24720   39.44220    8.45754   12.01040  404.02400  210.07800  728.10000
  225.39960   41.83260    8.31889   13.75110  404.02400  211.90200  728.10000
  225.55200   44.22300    8.31889   14.27330  404.02400  225.45600  724.20000
  225.70440   40.63740    8.31889   13.92520  405.63700  219.98400  718.50000
  225.85680   40.03980    8.31889   13.57700  406.71300  224.41500  718.20000
  226.00920   37.64940    8.31889   13.05480  406.17500  230.40900  718.20000
  226.16160   34.66140    8.31889   12.70670  405.63700  214.50900  717.60000
  226.31400   36.45420    8.31889   12.88080  406.71300  219.72300  713.40000
  226.46640   36.15540    8.31889   12.70670  406.98200  234.31800  707.40000
  226.61880   36.15540    8.18024   12.01040  406.98200  238.48800  700.20000
  226.77120   40.03980    8.18024   12.01040  406.71300  213.98700  729.30000
  226.92360   41.23500    8.18024   12.01040  406.17500  223.37100  741.90000
  227.07600   41.83260    8.18024   11.14010  406.17500  221.02500  744.90000
  227.22840   40.03980    8.18024   11.66230  406.71300  221.02500  744.00000
  227.38080   40.03980    8.18024   11.14010  407.52000  231.97200  739.80000
  227.53320   53.78490    8.23529   11.14010  406.71300  226.23900  734.40000
