~Version ---------------------------------------------------
VERS. 2.0 : CWLS log ASCII Standard -VERSION 2.0
WRAP.  NO : One line per depth step
~Well ------------------------------------------------------
STRT.M                  7.9248 : START
STOP.M                334.9752 : STOP
STEP.M      0.1523999999999992 : STEP
NULL.                  -999.25 : NULL VALUE
COMP.              RAJAMANDALA : Company
CN1 .              RAJAMANDALA : Company Name Line 1
WELL.              RAJAMANDALA : Well Name
FLD .              RAJAMANDALA : Field
CTRY.              RAJAMANDALA : Country
STAT.              RAJAMANDALA : State
PROV.                          : Province
LOC .                          : Field Location
LATI. 000 01' 00.000" S    DMS : Latitude
LONG. 000 01' 01.000" E    DMS : Longitude
PD  .                      MSL : Permanent Datum
UWI .              RAJAMANDALA : Unique Well ID
EKB .M                     9.0 : Elevation of KB
EGL .M                     6.0 : Elevation Ground lv
ELZ .M                     9.0 : Elevation Log Zero
LMF .                       KB : Log measured from
MP  .                       KB : Drill measured from
OS  .                COMPOSITE : Services
OS1 .                      LAT : Other Services Ln 1
OS2 .                 DENS-CAL : Other Services Ln 2
OS3 .                      BHC : Other Services Ln 3
OS4 .                   GR-NEU : Other Services Ln 4
SRVC.                          : Service company
RUNS.                        2 : Number of runs
DATE.                          : Date
~Curve Information -----------------------------------------
DEPT   .M     : 1  Depth
GR     .CPS   : 2  Gamma-Ray Log
CALI   .INCH  : 3  Caliper Log
LAT    .OHMM  : 4  Lateral
DT     .US/F  : 5  Delta T
DEN    .CPS   : 6  Density Log
NEUTRON.CPS   : 7  Neutron
~Params ----------------------------------------------------
RUN .           1 : Run number
DATE.    22-07-24 : Log date
DD  .M      231.0 : Depth-Driller
DL  .M      231.8 : Depth-Logger
BLI .M      231.0 : Bottom log interval
TLI .M        5.0 : Top log interval
CBD1.M       63.7 : Casing-Driller
CBL1.M       36.3 : Casing-Logger
CS  .IN     9.625 : Casing Diameter
BS  .IN       8.5 : Bit Size
DFT .    GEL-CHEM : Hole Fluid type
DFD .LB/G    10.6 : Fluid Density
DFV .S       43.0 : Fluid Viscosity
DFPH.         8.5 : Fluid PH
DFL .C3       8.5 : Fluid Loss
MSS .    FLOWLINE : Mud Sample Source
RMS .OHMM     2.9 : RM  @ Surface
RMT .DEGF    90.0 : Mud temp Surface
RMFS.OHMM    2.15 : RMF @ Surface
RMTF.DEGF    79.0 : MF temp Surface
RMCS.OHMM    2.25 : RMC @ Surface
RMTC.DEGF    79.0 : MC Temp Surface
TCS .       2 HRS : Time circ. stopped
LUN .       AAR 1 : Logging unit No
LUL .      RJMNDL : Logging unit Loc
ENGI.      RJMNDL : Recorded by
WITN.      RJMNDL : Witness
RUN .           2 : Run number
DATE.    23-02-27 : Log date
DD  .M      342.0 : Depth-Driller
DL  .M      331.0 : Depth-Logger
BLI .M      331.0 : Bottom log interval
TLI .M      195.0 : Top log interval
CBD1.M        8.0 : Casing-Driller
CBL1.M       36.3 : Casing-Logger
CS  .IN    13.375 : Casing Diameter
BS  .IN       7.5 : Bit Size
DFT .    GEL-CHEM : Hole Fluid type
MSS .    FLOWLINE : Mud Sample Source
LUL .        BULA : Logging unit Loc
~Other -----------------------------------------------------
GAMMA RAY SCALE : 0 - 150 CPS
CALIPER SCALE : 0 - 20 INCH
LATERAL SCALE : 0 - 200 OHMM
DENSITY SCALE : 0 - 300 CPS
NEUTRON SCALE : 600 - 900 CPS
~ASCII -----------------------------------------------------
# ...
  196.29120   33.83220    8.45217    9.39130  429.81800  214.77000  736.55300
  196.44360   35.62860    8.45217    9.73915  430.62500  204.86400  727.93700
  196.59600   34.13160    8.52174    9.73915  428.74100  224.15400  724.28200
  196.74840   29.04190    8.52174    9.73915  435.45600  218.41800  726.11000
  196.90080   32.33520    8.45217    9.39130  438.14900  226.75800  724.02100
  197.05320   33.23340    8.45217    9.39130  426.29900  212.68500  728.72100
  197.20560   31.43700    8.38261    9.73915  419.83500  201.73800  731.85400
  197.35800   30.53880    8.31304    9.73915  422.52800  204.86400  736.03100
  197.51040   32.33520    8.24348    9.73915  426.83800  196.52400  737.33700
  197.66280   34.13160    8.24348    9.73915  412.29400  206.43000  731.33200
  197.81520   32.03580    8.24348    9.73915  423.06700  195.48300  730.80900
  197.96760   31.43700    8.31304   10.43480  413.37100  213.72600  735.91300
  198.12000   29.94010    8.31304    9.73915  429.53100  194.96100  730.95700
  198.27240   32.03580    8.31304   10.08700  422.52800  202.26000  727.56500
  198.42480   33.83220    8.31304    9.73915  416.84300  205.38600  726.26100
  198.57720   35.92800    8.31304    9.73915  411.45200  184.53600  728.60900
  198.72960   37.42500    8.31304    9.73915  431.40000  209.55600  727.56500
  198.88200   37.42500    8.31304    9.73915  414.14800  201.21600  731.73900
  199.03440   33.83220    8.31304    9.73915  410.37400  207.99300  738.78300
  199.18680   35.62860    8.24348    9.73915  402.82600  205.90800  729.91300
  199.33920   32.63460    8.24348    9.39130  398.51300  211.64100  731.73900
  199.49160   40.41930    8.24348    9.39130  385.57400  201.73800  735.65200
  199.64400   33.53280    8.24348    9.73915  359.96500  207.99300  738.78300
  199.79640   30.23940    8.31304    9.73915  351.33900  199.65300  734.34800
  199.94880   30.23940    8.33333    9.73915  349.18300  207.73200  727.30400
  200.10120   32.03580    8.33333   10.43480  346.21700  208.25400  726.26100
  200.25360   35.02980    8.36806   10.08700  344.33000  203.56200  728.34800
  200.40600   37.42500    8.36806   10.60870  327.88700  201.73800  724.95700
  200.55840   41.31750    8.43750   11.30430  351.60900  212.94600  725.47800
  200.71080   39.82050    8.43750   11.82610  340.01700  209.81700  727.30400
  200.86320   44.91030    8.40278   12.52170  346.75700  201.21600  724.17400
  201.01560   38.92230    8.19444   12.86960  346.21700  210.07800  722.60900
  201.16800   38.92230    8.12500   12.86960  340.01700  196.00200  717.91300
  201.32040   40.41930    8.12500   12.17390  346.75700  191.57400  718.95700
  201.47280   39.82050    8.12500   11.65220  344.87000  205.38600  721.56500
  201.62520   40.41930    8.05556   11.82610  344.33000  203.30100  721.82600
  201.77760   40.11990    8.02083   11.82610  348.64300  201.73800  721.82600
  201.93000   37.72470    8.02083   11.65220  349.72200  193.65900  717.13000
  202.08240   38.62290    8.02083   11.65220  351.60900  191.83200  715.56500
  202.23480   39.82050    8.02083   11.65220  355.38300  201.21600  716.60900
  202.38720   40.11990    8.02083   11.30430  354.03500  203.04000  721.30400
  202.53960   38.84460    8.02083   11.65220  351.60900  209.81700  723.91300
  202.69200   38.24700    8.02083   11.65220  345.67800  207.73200  720.26100
  202.84440   40.63740    7.98611   11.30430  343.79100  218.15700  720.00000
  202.99680   42.43020    7.95139   10.60870  356.46100  223.11000  721.56500
  203.14920   41.83260    8.05556   10.43480  353.49600  204.34500  724.95700
  203.30160   44.82060    8.12500   10.95650  344.87000  205.90800  725.47800
  203.45400   40.63740    8.19444   10.60870  368.86100  209.03700  727.82600
  203.60640   38.24700    8.26389   10.95650  382.87800  198.87000  724.95700
  203.75880   40.63740    8.26389   10.95650  379.10400  196.52400  724.95700
  203.91120   36.15540    8.36806   10.95650  374.25200  192.61500  723.91300
  204.06360   37.05180    8.57639   10.95650  385.30400  202.52100  723.91300
  204.21600   33.46620    8.43750   11.30430  402.82600  191.31300  724.95700
  204.36840   32.86860    8.85417   10.60870  427.89600  191.05200  719.21700
  204.52080   35.85660    8.57639   10.95650  419.27000  210.33900  719.21700
  204.67320   35.85660    8.36806   10.95650  415.76500  214.50900  715.56500
  204.82560   25.99600    8.33333   10.95650  427.89600  218.15700  720.26100
  204.97800   28.98410    8.29861   10.60870  415.25600  217.96800  726.52200
  205.13040   32.80320    8.26389   10.60870  397.48000  222.65700  725.47800
  205.28280   30.71580    8.26389   10.95650  409.33100  225.78000  721.56500
  205.43520   33.10140    8.26389   11.30430  407.71500  204.94800  724.69600
  205.58760   37.87290    8.36806   12.52170  389.40100  221.09400  728.60900
  205.74000   36.38160    8.36806   12.52170  418.48800  205.98900  724.95700
  205.89240   40.55670    8.36806   14.43480  402.32800  202.34400  713.47800
  206.04480   37.27620    8.40278   14.78260  412.02400  202.34400  708.78300
  206.19720   36.97800    8.40278   14.95650  400.17400  209.11500  711.91300
  206.34960   31.01400    8.29861   14.95650  398.55800  201.30300  714.52200
  206.50200   36.08340    8.26389   15.65220  360.31300  196.61400  719.21700
  206.65440   34.89060    8.26389   15.65220  373.24100  205.47000  721.82600
  206.80680   39.06570    8.29861   15.30430  354.38700  213.28200  726.00000
  206.95920   33.39960    8.29861   15.30430  364.62200  214.32300  732.00000
  207.11160   29.52290    8.29861   14.95650  360.85100  201.82200  734.87000
  207.26400   32.20680    8.29861   15.30430  359.23500  208.59300  740.08700
  207.41640   27.13720    8.36806   14.78260  363.54500  203.64600  745.30400
  207.56880   28.62820    8.36806   14.95650  367.85400  195.57300  740.87000
  207.72120   30.11940    8.36806   14.95650  416.33400  199.21800  741.65200
  207.87360   30.71580    8.36806   15.30430  410.40800  208.07400  737.73900
  208.02600   31.61040    8.36806   15.65220  420.10400  201.82200  737.73900
  208.17840   31.61040    8.29861   15.30430  414.17900  203.38500  735.91300
  208.33080   33.39960    8.29861   15.30430  401.25100  208.07400  742.43500
  208.48320   33.69780    8.22917   15.65220  412.56300  200.25900  739.30400
  208.63560   37.27620    8.26389   15.65220  394.78700  207.03000  742.69600
  208.78800   35.78520    8.36806   15.65220  406.63800  196.35300  739.30400
  208.94040   37.57470    8.43750   17.21740  416.87200  201.82200  738.00000
  209.09280   35.78520    8.40278   17.21740  389.93900  206.25000  730.95700
  209.24520   38.76750    8.29861   19.65220  377.55000  203.12400  731.73900
  209.39760   34.29420    8.29861   21.21740  394.78700  204.94800  734.87000
  209.55000   30.41760    8.26389   22.26090  403.40600  196.35300  737.73900
  209.70240   26.54080    8.22917   23.82610  408.79200  211.45800  734.60900
  209.85480   26.54080    8.09028   24.00000  387.78500  204.42600  728.60900
  210.00720   25.34790    8.15972   24.00000  403.44600  197.39700  723.65200
  210.15960   26.54080    8.29861   26.26090  422.82100  186.19800  722.60900
  210.31200   30.41760    8.40278   26.60870  405.06100  185.41800  722.60900
  210.46440   30.41760    8.40278   27.47830  424.97400  198.69900  719.47800
  210.61680   29.22470    8.36806   29.04350  422.28300  204.68700  723.91300
  210.76920   26.54080    8.36806   30.26090  421.20700  208.59300  727.56500
  210.92160   24.75150    8.26389   31.47830  425.51200  196.87500  721.82600
  211.07400   23.85690    8.26389   34.08700  433.04700  197.39700  721.56500
  211.22640   25.04970    8.26389   35.82610  428.20300  200.25900  725.21700
  211.37880   25.94430    8.40278   38.08700  414.74800  196.87500  724.69600
  211.53120   22.06760    8.43750   37.39130  419.05400  201.82200  723.91300
  211.68360   21.17300    8.47222   36.52170  428.74100  196.09500  724.17400
  211.83600   23.26040    8.43750   33.04350  406.67500  207.29100  723.91300
