~Version ---------------------------------------------------
VERS. 2.0 : CWLS log ASCII Standard -VERSION 2.0
WRAP.  NO : One line per depth step
~Well ------------------------------------------------------
STRT.M                  7.9248 : START
STOP.M                334.9752 : STOP
STEP.M      0.1523999999999992 : STEP
NULL.                  -999.25 : NULL VALUE
COMP.              RAJAMANDALA : Company
CN1 .              RAJAMANDALA : Company Name Line 1
WELL.              RAJAMANDALA : Well Name
FLD .              RAJAMANDALA : Field
CTRY.              RAJAMANDALA : Country
STAT.              RAJAMANDALA : State
PROV.                          : Province
LOC .                          : Field Location
LATI. 000 01' 00.000" S    DMS : Latitude
LONG. 000 01' 01.000" E    DMS : Longitude
PD  .                      MSL : Permanent Datum
UWI .              RAJAMANDALA : Unique Well ID
EKB .M                     9.0 : Elevation of KB
EGL .M                     6.0 : Elevation Ground lv
ELZ .M                     9.0 : Elevation Log Zero
LMF .                       KB : Log measured from
MP  .                       KB : Drill measured from
OS  .                COMPOSITE : Services
OS1 .                      LAT : Other Services Ln 1
OS2 .                 DENS-CAL : Other Services Ln 2
OS3 .                      BHC : Other Services Ln 3
OS4 .                   GR-NEU : Other Services Ln 4
SRVC.                          : Service company
RUNS.                        2 : Number of runs
DATE.                          : Date
~Curve Information -----------------------------------------
DEPT   .M     : 1  Depth
GR     .CPS   : 2  Gamma-Ray Log
CALI   .INCH  : 3  Caliper Log
LAT    .OHMM  : 4  Lateral
DT     .US/F  : 5  Delta T
DEN    .CPS   : 6  Density Log
NEUTRON.CPS   : 7  Neutron
~Params ----------------------------------------------------
RUN .           1 : Run number
DATE.    22-07-24 : Log date
DD  .M      231.0 : Depth-Driller
DL  .M      231.8 : Depth-Logger
BLI .M      231.0 : Bottom log interval
TLI .M        5.0 : Top log interval
CBD1.M       63.7 : Casing-Driller
CBL1.M       36.3 : Casing-Logger
CS  .IN     9.625 : Casing Diameter
BS  .IN       8.5 : Bit Size
DFT .    GEL-CHEM : Hole Fluid type
DFD .LB/G    10.6 : Fluid Density
DFV .S       43.0 : Fluid Viscosity
DFPH.         8.5 : Fluid PH
DFL .C3       8.5 : Fluid Loss
MSS .    FLOWLINE : Mud Sample Source
RMS .OHMM     2.9 : RM  @ Surface
RMT .DEGF    90.0 : Mud temp Surface
RMFS.OHMM    2.15 : RMF @ Surface
RMTF.DEGF    79.0 : MF temp Surface
RMCS.OHMM    2.25 : RMC @ Surface
RMTC.DEGF    79.0 : MC Temp Surface
TCS .       2 HRS : Time circ. stopped
LUN .       AAR 1 : Logging unit No
LUL .      RJMNDL : Logging unit Loc
ENGI.      RJMNDL : Recorded by
WITN.      RJMNDL : Witness
RUN .           2 : Run number
DATE.    23-02-27 : Log date
DD  .M      342.0 : Depth-Driller
DL  .M      331.0 : Depth-Logger
BLI .M      331.0 : Bottom log interval
TLI .M      195.0 : Top log interval
CBD1.M        8.0 : Casing-Driller
CBL1.M       36.3 : Casing-Logger
CS  .IN    13.375 : Casing Diameter
BS  .IN       7.5 : Bit Size
DFT .    GEL-CHEM : Hole Fluid type
MSS .    FLOWLINE : Mud Sample Source
LUL .        BULA : Logging unit Loc
~Other -----------------------------------------------------
GAMMA RAY SCALE : 0 - 150 CPS
CALIPER SCALE : 0 - 20 INCH
LATERAL SCALE : 0 - 200 OHMM
DENSITY SCALE : 0 - 300 CPS
NEUTRON SCALE : 600 - 900 CPS
~ASCII -----------------------------------------------------
# ...
   55.01640    -999.25    9.23875    -999.25  419.27000  207.73200  956.29800
   55.16880    -999.25    9.23875    -999.25  429.78300  215.03100  956.82000
   55.32120    -999.25    9.06574    -999.25  420.07800  211.90200  956.82000
   55.47360    -999.25    9.03114    -999.25  419.27000  206.69100  956.82000
   55.62600    -999.25    8.96194    -999.25  417.65200  217.11600  956.82000
   55.77840    -999.25    8.96194    -999.25  412.53000  213.46800  956.82000
   55.93080    -999.25    8.92734    -999.25  404.17400  214.50900  957.29100
   56.08320   60.57180    8.85813    -999.25  409.56500  220.76400  957.81300
   56.23560   59.01210    8.85813    -999.25  430.32200  211.38000  957.81300
   56.38800   57.45240    8.85813    -999.25  407.67800  209.29500  957.81300
   56.54040   57.97230    8.85813    -999.25  423.58300  215.55300  957.81300
   56.69280   56.15250    8.85813    -999.25  405.25200  201.47700  957.81300
   56.84520   52.25310    8.85813    -999.25  428.97400  194.70000  957.29100
   56.99760   50.95320    8.96194    -999.25  418.19100  196.78500  932.29200
   57.15000   57.45240    9.13495    -999.25  432.20900  203.56200  940.10400
   57.30240   66.29130    9.13495    -999.25  421.69600  210.86100  920.83200
   57.45480   61.87170    9.16955    -999.25  435.17400  216.33300  924.99900
   57.60720   61.35180    9.16955    -999.25  424.93000  224.08800  889.32300
   57.75960   59.79210    9.13495    -999.25  416.30400  222.52200  904.16700
   57.91200   54.94800    8.92734    -999.25  426.54800  219.91200  922.15500
   58.06440   55.98960    9.03114    -999.25  413.87800  216.26100  907.56000
   58.21680   56.77080    8.85813    -999.25  402.82600  204.52200  876.54200
   58.36920   57.55200    8.75432    -999.25  390.15700  200.34900  863.51000
   58.52160   57.81240    8.65052    -999.25  412.53000  199.82700  896.87200
   58.67400   54.94800    8.54671    -999.25  407.67800  209.21700  946.13400
   58.82640   53.38530    8.54671    -999.25  390.69600  196.95600  936.22800
   58.97880   54.68760    8.54671    -999.25  396.08700  194.61000  938.83500
   59.13120   47.65620    8.54671    -999.25  421.15700  189.39000  956.03700
   59.28360   48.43740    8.71972    -999.25  429.24300  200.08800  956.03700
   59.43600   46.35420    8.82353    -999.25  425.47000  192.78300  956.03700
   59.58840   50.00010    8.92734    -999.25  417.65200  213.65100  956.03700
   59.74080   48.95820    8.96194    -999.25  426.00900  241.82700  956.03700
   59.89320   48.35370    8.75432    -999.25  418.73000  229.82700  956.29800
   60.04560   62.39160    9.01554    -999.25  413.87800  227.15400  956.51100
   60.19800   71.23050    8.70466    -999.25  389.34800  217.75500  956.51100
   60.35040   79.02960    8.63558    -999.25  396.62600  213.31500  956.51100
   60.50280   82.92900    8.84283    -999.25  413.33900  225.32700  955.98900
   60.65520    -999.25    8.84283    -999.25  404.71300  233.94300  955.98900
   60.80760    -999.25    8.73921    -999.25  419.80900  226.37100  955.98900
   60.96000    -999.25    8.73921    -999.25  413.33900  207.31200  955.98900
   61.11240    -999.25    8.84283    -999.25  406.06100  188.25000  955.98900
   61.26480    -999.25    8.91192    -999.25  396.08700  169.71300  955.98900
   61.41720    -999.25    8.94646    -999.25  390.69600  152.48100  955.98900
   61.56960    -999.25    8.94646    -999.25  432.74800  159.79200  955.98900
   61.72200    -999.25    8.94646    -999.25  409.02600  174.93600  955.98900
   61.87440    -999.25    8.91192    -999.25  424.12200  166.32000  955.72800
   62.02680    -999.25    8.84283    -999.25  416.84300  176.24100  955.77900
   62.17920   79.68750    8.70466    -999.25  404.71300  177.54600  955.77900
   62.33160   79.42710    8.70466    -999.25  415.22600  183.55200  955.77900
   62.48400   78.90630    8.72414    -999.25  417.65200  189.55500  955.77900
   62.63640   78.12510    8.72414    -999.25  403.36500  195.65100  955.25700
   62.78880   77.60430    8.72414    -999.25  425.47000  199.30500  955.25700
   62.94120   77.08320    8.72414    -999.25  408.48700  192.52200  955.25700
   63.09360   77.08320    8.72414    -999.25  422.50400  199.56600  954.73500
   63.24600   77.08320    8.72414    -999.25  413.33900  195.91200  954.73500
   63.39840   77.08320    8.75862    -999.25  430.86100  190.43400  954.73500
   63.55080   77.34390    8.75862    -999.25  421.69600  188.87100  954.73500
   63.70320   77.86470    8.79310    -999.25  432.20900  181.82700  954.73500
   63.85560   78.90630    8.79310    -999.25  419.27000  176.61000  954.73500
   64.00800   78.64590    8.72414    -999.25  432.74800  184.43400  954.99600
   64.16040   76.56240    8.72414    -999.25  421.69600  196.69500  954.99600
   64.31280   74.47920    8.65517    -999.25  404.71300  198.26100  954.99600
   64.46520   72.39570    8.62069    -999.25  433.55700  193.56600  954.99600
   64.61760   68.75010    8.62069    -999.25  427.89600  200.61000  954.99600
   64.77000   68.22930    8.65517    -999.25  419.27000  214.95600  949.52100
   64.92240   68.22930    8.79310    -999.25  435.98300  210.00000  864.03100
   65.07480   67.96890    8.86207    -999.25  425.47000  204.86400  820.76500
   65.22720   68.75010    8.86207    -999.25  432.20900  203.04000  786.09900
   65.37960   68.75010    8.65517    -999.25  421.69600  204.86400  769.41800
   65.53200   68.75010    8.65517    -999.25  430.86100  191.31300  756.90700
   65.68440   66.40620    8.72414    -999.25  422.50400  200.43300  742.83200
   65.83680   63.54180    8.72414    -999.25  434.09600  203.04000  748.30600
   65.98920   63.54180    8.79310    -999.25  424.93000  189.74700  752.99700
   66.14160   73.43760    8.89655    -999.25  416.84300  189.48600  742.05000
   66.29400   75.52080    8.89655    -999.25  429.24300  186.88200  737.88000
   66.44640   75.78120    9.03448    -999.25  416.84300  200.95500  738.66200
   66.59880   75.78120    9.03448    -999.25  430.32200  189.74700  735.27400
   66.75120   75.78120    9.10345    -999.25  410.91300  209.29500  740.22600
   66.90360   75.78120    9.24138    -999.25  430.32200  199.39200  742.05000
   67.05600   76.56240    9.17241    -999.25  421.69600  198.87000  749.34800
   67.20840   77.86470    9.17241    -999.25  434.63500  219.20100  744.39600
   67.36080   78.90630    9.17241    -999.25  419.27000  207.21000  746.22100
   67.51320   79.16670    9.17241    -999.25  429.78300  193.13700  746.48100
   67.66560   78.64590    9.31034    -999.25  416.84300  185.31600  744.39600
   67.81800   77.34390    9.41379    -999.25  426.54800  197.04600  733.18900
   67.97040   77.08320    9.31034    -999.25  422.50400  197.04600  733.44900
   68.12280   76.82280    9.24138    0.00000  388.27000  188.18400  733.44900
   68.27520   76.82280    9.24138    0.00000  406.06100  187.92300  733.71000
   68.42760   77.34390    9.17241    0.00000  423.04300  201.47700  733.18900
   68.58000   77.86470    9.03448    0.00000  434.09600  199.13100  739.96500
   68.73240   78.12510    9.03448    0.00000  428.97400  190.00800  740.22600
   68.88480   78.64590    9.03448    0.00000  426.00900  196.52400  735.01300
   69.03720   78.90630    8.96552    0.00000  420.61700  199.39200  733.71000
   69.18960   79.68750    8.96552    0.00000  410.91300  214.77000  734.75300
   69.34200   79.68750    8.96552    0.00000  388.27000  208.51500  732.14600
   69.49440   78.90630    9.03448    0.00000  382.60900  203.82300  729.80000
   69.64680   77.60430    9.03448    0.00000  404.71300  204.86400  732.14600
   69.79920   77.08320    9.10345    0.00000  420.07800  189.74700  729.27900
   69.95160   76.82280    9.15371    0.00000  413.33900  192.61500  728.49700
   70.10400   76.82280    9.25734    0.00000  394.20000  197.82900  730.06100
   70.25640   76.82280    9.36097    0.00000  418.73000  183.23100  728.75800
   70.40880   77.34390    9.46459    0.00000  425.47000  199.39200  725.36900
   70.56120   77.86470    9.60276    0.00000  415.76500  193.91700  731.62500
