~Version ---------------------------------------------------
VERS. 2.0 : CWLS log ASCII Standard -VERSION 2.0
WRAP.  NO : One line per depth step
~Well ------------------------------------------------------
STRT.M                  7.9248 : START
STOP.M                334.9752 : STOP
STEP.M      0.1523999999999992 : STEP
NULL.                  -999.25 : NULL VALUE
COMP.              RAJAMANDALA : Company
CN1 .              RAJAMANDALA : Company Name Line 1
WELL.              RAJAMANDALA : Well Name
FLD .              RAJAMANDALA : Field
CTRY.              RAJAMANDALA : Country
STAT.              RAJAMANDALA : State
PROV.                          : Province
LOC .                          : Field Location
LATI. 000 01' 00.000" S    DMS : Latitude
LONG. 000 01' 01.000" E    DMS : Longitude
PD  .                      MSL : Permanent Datum
UWI .              RAJAMANDALA : Unique Well ID
EKB .M                     9.0 : Elevation of KB
EGL .M                     6.0 : Elevation Ground lv
ELZ .M                     9.0 : Elevation Log Zero
LMF .                       KB : Log measured from
MP  .                       KB : Drill measured from
OS  .                COMPOSITE : Services
OS1 .                      LAT : Other Services Ln 1
OS2 .                 DENS-CAL : Other Services Ln 2
OS3 .                      BHC : Other Services Ln 3
OS4 .                   GR-NEU : Other Services Ln 4
SRVC.                          : Service company
RUNS.                        2 : Number of runs
DATE.                          : Date
~Curve Information -----------------------------------------
DEPT   .M     : 1  Depth
GR     .CPS   : 2  Gamma-Ray Log
CALI   .INCH  : 3  Caliper Log
LAT    .OHMM  : 4  Lateral
DT     .US/F  : 5  Delta T
DEN    .CPS   : 6  Density Log
NEUTRON.CPS   : 7  Neutron
~Params ----------------------------------------------------
RUN .           1 : Run number
DATE.    22-07-24 : Log date
DD  .M      231.0 : Depth-Driller
DL  .M      231.8 : Depth-Logger
BLI .M      231.0 : Bottom log interval
TLI .M        5.0 : Top log interval
CBD1.M       63.7 : Casing-Driller
CBL1.M       36.3 : Casing-Logger
CS  .IN     9.625 : Casing Diameter
BS  .IN       8.5 : Bit Size
DFT .    GEL-CHEM : Hole Fluid type
DFD .LB/G    10.6 : Fluid Density
DFV .S       43.0 : Fluid Viscosity
DFPH.         8.5 : Fluid PH
DFL .C3       8.5 : Fluid Loss
MSS .    FLOWLINE : Mud Sample Source
RMS .OHMM     2.9 : RM  @ Surface
RMT .DEGF    90.0 : Mud temp Surface
RMFS.OHMM    2.15 : RMF @ Surface
RMTF.DEGF    79.0 : MF temp Surface
RMCS.OHMM    2.25 : RMC @ Surface
RMTC.DEGF    79.0 : MC Temp Surface
TCS .       2 HRS : Time circ. stopped
LUN .       AAR 1 : Logging unit No
LUL .      RJMNDL : Logging unit Loc
ENGI.      RJMNDL : Recorded by
WITN.      RJMNDL : Witness
RUN .           2 : Run number
DATE.    23-02-27 : Log date
DD  .M      342.0 : Depth-Driller
DL  .M      331.0 : Depth-Logger
BLI .M      331.0 : Bottom log interval
TLI .M      195.0 : Top log interval
CBD1.M        8.0 : Casing-Driller
CBL1.M       36.3 : Casing-Logger
CS  .IN    13.375 : Casing Diameter
BS  .IN       7.5 : Bit Size
DFT .    GEL-CHEM : Hole Fluid type
MSS .    FLOWLINE : Mud Sample Source
LUL .        BULA : Logging unit Loc
~Other -----------------------------------------------------
GAMMA RAY SCALE : 0 - 150 CPS
CALIPER SCALE : 0 - 20 INCH
LATERAL SCALE : 0 - 200 OHMM
DENSITY SCALE : 0 - 300 CPS
NEUTRON SCALE : 600 - 900 CPS
~ASCII -----------------------------------------------------
# ...
   86.41080   64.58340    8.54671   23.36530  410.10400  188.87100  959.11500
   86.56320   64.32300    8.65052   23.71400  396.08700  201.91200  959.11500
   86.71560   63.02070    8.33910   23.01660  390.69600  189.91200  959.11500
   86.86800   62.76030    8.54671   23.01660  402.82600  181.56600  959.11500
   87.02040   67.96890    8.65052   23.01660  421.15700  192.26100  958.59300
   87.17280   66.40620    8.71972   23.01660  423.58300  184.43400  958.07400
   87.32520   64.06260    8.65052   23.36530  422.50400  180.52200  957.55200
   87.47760   62.76030    8.54671   23.01660  440.83500  179.47800  957.55200
   87.63000   64.06260    8.54671   23.01660  438.40900  196.17300  953.90700
   87.78240   65.10420    8.61592   23.01660  436.52200  195.65100  932.03100
   87.93480   63.28140    8.65052   23.01660  431.67000  200.61000  926.82300
   88.08720   63.02070    8.65052   22.82230  420.07800  191.21700  921.09300
   88.23960   67.96890    8.61592   22.29970  429.24300  200.61000  892.18700
   88.39200   65.36460    8.54671   21.95120  424.93000  199.56600  876.56300
   88.54440   61.97910    8.54671   21.95120  414.95700  193.56600  854.42700
   88.69680   60.93750    8.54671   21.95120  429.24300  186.52200  838.54200
   88.84920   58.59390    8.61592   21.95120  414.41700  193.56600  872.13500
   89.00160   57.55200    8.65052   21.95120  426.81700  201.91200  859.37500
   89.15400   60.41670    8.65052   21.77700  421.69600  191.83200  870.57300
   89.30640   61.97910    8.65052   21.95120  409.02600  187.56600  858.59400
   89.45880   63.28140    8.65052   21.60280  419.27000  196.17300  835.41700
   89.61120   66.92700    8.61592   22.99650  409.02600  179.73900  831.51000
   89.76360   64.32300    8.54671   22.47390  386.92200  177.12900  820.31300
   89.91600   60.67710    8.33910   23.17070  388.27000  185.73900  779.42700
   90.06840   58.33320    8.23529   22.66780  393.12200  200.78400  785.41700
   90.22080   57.55200    8.16609   23.01660  387.73000  184.85700  778.12500
   90.37320   62.76030    8.16609   22.31910  404.71300  176.76300  787.50000
   90.52560   66.40620    8.33910   21.97040  385.84300  187.46700  809.89600
   90.67800   69.01050    8.37370   20.74980  389.34800  179.11200  809.63500
   90.83040   63.28140    8.44291   20.74980  394.20000  200.78400  822.13500
   90.98280   59.63550    8.44291   20.40100  380.18300  184.85700  805.20800
   91.13520   59.37510    8.44291   20.40100  377.21700  198.69600  795.83300
   91.28760   60.41670    8.37370   20.74980  365.62600  185.64000  809.89600
   91.44000   60.41670    8.37370   21.62160  385.30400  197.38800  817.44800
   91.59240   59.37510    8.37370   21.62160  388.27000  186.68400  813.54200
   91.74480   60.67710    8.37370   21.27290  368.05200  202.61100  830.72900
   91.89720   62.23950    8.37370   20.90590  368.05200  193.47300  833.59400
   92.04960   59.63550    8.37370   20.55750  344.33000  202.61100  821.35400
   92.20200   59.89590    8.37370   20.73170  357.80900  205.48200  816.14600
   92.35440   60.41670    8.37370   20.55750  369.93900  204.17700  820.31300
   92.50680   56.25000    8.37370   20.03480  385.84300  178.43400  807.55200
   92.65920   52.34370    8.33910   20.55750  390.15700  186.52200  800.26000
   92.81160   54.16680    8.33910   20.90590  405.79100  186.78300  798.69800
   92.96400   50.26050    8.33910   19.68640  414.95700  175.56600  786.71900
   93.11640   45.31260    8.33910   19.68640  403.36500  191.21700  793.22900
   93.26880   44.53140    8.33910   19.51220  391.77400  188.61000  779.68700
   93.42120   46.87500    8.33910   19.68640  392.04300  185.73900  771.09400
   93.57360   51.30210    8.33910   18.81530  376.13900  192.26100  767.96900
   93.72600   58.33320    8.33910   18.81530  387.46100  188.61000  778.38500
   93.87840   55.20840    8.37370   18.81530  373.44300  185.21700  772.13500
   94.03080   57.29160    8.33910   19.33800  396.08700  172.69500  765.62500
   94.18320   54.94800    8.16609   19.68640  394.60400  172.69500  753.38500
   94.33560   49.47930    8.16609   18.64110  391.77400  191.83200  745.83300
   94.48800   52.34370    8.16609   18.46690  398.51300  200.61000  741.66700
   94.64040   53.90640    8.16609   17.77000  401.20900  193.56600  749.21900
   94.79280   56.25000    8.16609   17.59580  376.67800  184.43400  736.45800
   94.94520   53.38530    8.23529   17.42160  365.62600  188.61000  743.22900
   95.09760   51.82290    8.26990   16.89900  353.84900  167.73900  737.76000
   95.25000   52.34370    8.44291   16.37630  359.23500  173.47800  747.13500
   95.40240   47.91660    8.44291   16.20210  386.70700  173.73900  736.45800
   95.55480   51.30210    8.44291   16.20210  407.17600  178.43400  748.17700
   95.70720   50.26050    8.47751   15.33100  393.71000  187.30500  752.60400
   95.85960   46.87500    8.47751   15.33100  404.48300  185.21700  749.21900
   96.01200   51.56250    8.47751   15.15680  393.17100  200.61000  755.08300
   96.16440   49.47930    8.47751   15.33100  406.63800  190.17300  756.64600
   96.31680   46.87500    8.65052   15.85370  423.33600  197.47800  755.08300
   96.46920   49.21890    8.75432   15.33100  406.36800  200.61000  757.42800
   96.62160   56.25000    8.85813   15.85370  396.67200  192.78300  739.18300
   96.77400   55.20840    8.75432   16.20210  409.06200  199.30500  737.09800
   96.92640   54.94800    8.54671   15.85370  431.95500  202.95600  736.57700
   97.07880   57.29160    8.44291   14.98260  430.33900  207.65100  740.22600
   97.23120   58.59390    8.54671   14.63410  427.10700  209.21700  736.57700
   97.38360   58.33320    8.65052   14.63410  434.64800  213.91200  729.01800
   97.53600   54.68760    8.54671   13.76310  438.41900  216.00000  724.84800
   97.68840   52.86450    8.47751   13.93730  433.30100  223.04400  722.24200
   97.84080   50.00010    8.44291   13.93730  428.18400  200.61000  718.07100
   97.99320   51.82290    8.54671   12.89200  415.52600  199.30500  718.33200
   98.14560   57.03120    8.54671   13.58890  403.40600  216.00000  714.42200
   98.29800   60.41670    8.54671   13.76310  426.03000  201.91200  711.03400
   98.45040   58.07280    8.44291   13.41460  396.67200  198.26100  709.99100
   98.60280   58.59390    8.33910   13.41460  412.02400  207.65100  708.42700
   98.75520    -999.25    8.23529   13.76310  427.10700  199.30500  704.77900
   98.90760    -999.25    8.23529   13.76310  431.95500  209.73900  702.69300
   99.06000    -999.25    8.37370   13.06620  416.60300  197.47800  705.03900
   99.21240    -999.25    8.54671   13.41460  414.44800  205.04400  707.90600
   99.36480    -999.25    8.61592   13.41460  435.72500  197.47800  708.42700
   99.51720    -999.25    8.61592   13.41460  436.53300  201.91200  709.99100
   99.66960    -999.25    8.54671   12.89200  430.87800  213.65100  712.85900
   99.82200    -999.25    8.54671   12.89200  421.72000  214.43400  715.98600
   99.97440    -999.25    8.54671   12.89200  405.83000  221.28600  713.90100
  100.12680    -999.25    8.54671   12.71780  411.48600  221.28600  712.85900
  100.27920    -999.25    8.54671   12.54360  432.76300  218.41800  718.33200
  100.43160    -999.25    8.54671   12.71780  428.99200  202.77900  715.98600
  100.58400    -999.25    8.54671   12.36930  419.02700  209.81700  718.33200
  100.73640    -999.25    8.65052   12.54360  435.18700  208.51500  719.37500
  100.88880    -999.25    8.65052   12.02090  432.49300  204.86400  722.50200
  101.04120    -999.25    8.61592   12.02090  428.99200  215.55300  730.32100
  101.19360    -999.25    8.44291   11.49830  437.61100  213.98700  726.93300
  101.34600    -999.25    8.44291   11.67250  434.10900  207.21000  724.32700
  101.49840    -999.25    8.44291   11.67250  426.29900  201.99900  710.77300
  101.65080    -999.25    8.44291   11.67250  424.14400  205.90800  714.16200
  101.80320    -999.25    8.54671   11.67250  427.64600  194.96100  719.63500
  101.95560    -999.25    8.65052   11.83640  419.56600  204.86400  721.98100
