~Version ---------------------------------------------------
VERS. 2.0 : CWLS log ASCII Standard -VERSION 2.0
WRAP.  NO : One line per depth step
~Well ------------------------------------------------------
STRT.M                  7.9248 : START
STOP.M                334.9752 : STOP
STEP.M      0.1523999999999992 : STEP
NULL.                  -999.25 : NULL VALUE
COMP.              RAJAMANDALA : Company
CN1 .              RAJAMANDALA : Company Name Line 1
WELL.              RAJAMANDALA : Well Name
FLD .              RAJAMANDALA : Field
CTRY.              RAJAMANDALA : Country
STAT.              RAJAMANDALA : State
PROV.                          : Province
LOC .                          : Field Location
LATI. 000 01' 00.000" S    DMS : Latitude
LONG. 000 01' 01.000" E    DMS : Longitude
PD  .                      MSL : Permanent Datum
UWI .              RAJAMANDALA : Unique Well ID
EKB .M                     9.0 : Elevation of KB
EGL .M                     6.0 : Elevation Ground lv
ELZ .M                     9.0 : Elevation Log Zero
LMF .                       KB : Log measured from
MP  .                       KB : Drill measured from
OS  .                COMPOSITE : Services
OS1 .                      LAT : Other Services Ln 1
OS2 .                 DENS-CAL : Other Services Ln 2
OS3 .                      BHC : Other Services Ln 3
OS4 .                   GR-NEU : Other Services Ln 4
SRVC.                          : Service company
RUNS.                        2 : Number of runs
DATE.                          : Date
~Curve Information -----------------------------------------
DEPT   .M     : 1  Depth
GR     .CPS   : 2  Gamma-Ray Log
CALI   .INCH  : 3  Caliper Log
LAT    .OHMM  : 4  Lateral
DT     .US/F  : 5  Delta T
DEN    .CPS   : 6  Density Log
NEUTRON.CPS   : 7  Neutron
~Params ----------------------------------------------------
RUN .           1 : Run number
DATE.    22-07-24 : Log date
DD  .M      231.0 : Depth-Driller
DL  .M      231.8 : Depth-Logger
BLI .M      231.0 : Bottom log interval
TLI .M        5.0 : Top log interval
CBD1.M       63.7 : Casing-Driller
CBL1.M       36.3 : Casing-Logger
CS  .IN     9.625 : Casing Diameter
BS  .IN       8.5 : Bit Size
DFT .    GEL-CHEM : Hole Fluid type
DFD .LB/G    10.6 : Fluid Density
DFV .S       43.0 : Fluid Viscosity
DFPH.         8.5 : Fluid PH
DFL .C3       8.5 : Fluid Loss
MSS .    FLOWLINE : Mud Sample Source
RMS .OHMM     2.9 : RM  @ Surface
RMT .DEGF    90.0 : Mud temp Surface
RMFS.OHMM    2.15 : RMF @ Surface
RMTF.DEGF    79.0 : MF temp Surface
RMCS.OHMM    2.25 : RMC @ Surface
RMTC.DEGF    79.0 : MC Temp Surface
TCS .       2 HRS : Time circ. stopped
LUN .       AAR 1 : Logging unit No
LUL .      RJMNDL : Logging unit Loc
ENGI.      RJMNDL : Recorded by
WITN.      RJMNDL : Witness
RUN .           2 : Run number
DATE.    23-02-27 : Log date
DD  .M      342.0 : Depth-Driller
DL  .M      331.0 : Depth-Logger
BLI .M      331.0 : Bottom log interval
TLI .M      195.0 : Top log interval
CBD1.M        8.0 : Casing-Driller
CBL1.M       36.3 : Casing-Logger
CS  .IN    13.375 : Casing Diameter
BS  .IN       7.5 : Bit Size
DFT .    GEL-CHEM : Hole Fluid type
MSS .    FLOWLINE : Mud Sample Source
LUL .        BULA : Logging unit Loc
~Other -----------------------------------------------------
GAMMA RAY SCALE : 0 - 150 CPS
CALIPER SCALE : 0 - 20 INCH
LATERAL SCALE : 0 - 200 OHMM
DENSITY SCALE : 0 - 300 CPS
NEUTRON SCALE : 600 - 900 CPS
~ASCII -----------------------------------------------------
# ...
  149.19960    -999.25    8.26990    8.01395  390.74700  213.31500  839.68700
  149.35200    -999.25    8.30450    8.01395  374.58700  218.01600  846.99700
  149.50440    -999.25    8.30450    8.01395  391.55500  210.70500  848.82500
  149.65680    -999.25    8.33910    7.66550  396.13400  207.31200  850.39200
  149.80920    -999.25    8.37370    7.66550  410.67800  203.39400  855.61400
  149.96160    -999.25    8.40278    7.31705  437.89100  212.53200  859.00800
  150.11400    -999.25    8.36806    6.96865  434.66100  217.23300  859.00800
  150.26640    -999.25    8.26389    6.96865  422.28300  225.06600  859.53000
  150.41880   62.39160    8.22917    6.96865  408.82800  207.83400  856.13600
  150.57120   62.39160    8.15972    6.96865  429.28000  206.00400  856.13600
  150.72360   58.23210    8.29861    6.96865  417.43900  209.40000  858.22400
  150.87600   54.59280    8.50694    6.96865  415.28600  203.39400  858.22400
  151.02840   52.51290    8.64583    6.96865  430.35600  202.08900  853.52500
  151.18080   52.25310    8.64583    6.96865  391.87500  202.61100  859.00800
  151.33320   56.15250    8.47222    6.96865  403.17700  208.61700  859.53000
  151.48560   58.23210    8.26389    7.14285  420.93800  203.39400  851.43600
  151.63800   54.59280    8.22917    7.31705  391.06800  211.22700  839.16400
  151.79040   54.59280    8.22917    7.66550  395.91100  207.83400  837.07600
  151.94280   57.71220    8.26389    7.66550  407.75200  212.01000  838.90400
  152.09520   60.83190    8.26389    7.31705  425.51200  200.78400  844.90900
  152.24760   57.71220    8.26389    8.01395  437.35200  197.38800  849.08600
  152.40000   55.37250    8.26389    8.01395  406.13700  206.52600  850.13000
  152.55240   57.45240    8.27826    8.01395  435.73800  193.99500  843.60300
  152.70480   62.65170    8.27826    8.36235  425.51200  192.69000  840.99200
  152.85720   70.19070    8.31304    9.23345  418.78500  210.18300  837.59800
  153.00960   71.49060    8.34783    9.23345  406.13700  206.00400  835.77000
  153.16200    -999.25    8.38261    9.40765  428.20300  213.83700  832.63700
  153.31440    -999.25    8.38261   10.10450  422.82100  218.01600  827.15400
  153.46680    -999.25    8.38261    9.58190  408.82800  212.79300  823.76000
  153.61920    -999.25    8.38261    9.23345  427.66500  205.48200  825.84900
  153.77160   76.16970    8.38261    9.40765  409.90500  202.08900  833.15900
  153.92400   73.31010    8.38261    9.58190  432.50900  209.92200  834.98700
  154.07640   69.67080    8.48696    9.93030  429.81800  215.14500  840.47000
  154.22880   69.41070    8.55652    9.58190  425.51200  200.78400  844.90900
  154.38120   73.57020    8.59130    9.93030  429.28000  207.31200  848.30300
  154.53360   72.27030    8.62609    9.40765  428.20300  217.75500  852.21900
  154.68600   66.55110    8.66087   10.45300  424.70500  224.54400  848.82500
  154.83840   64.47150    8.66087   10.27870  426.85800  215.92800  846.47500
  154.99080   63.43140    8.71080   10.10450  400.75500  214.09800  842.55900
  155.14320   67.07100    8.74564   10.10450  419.86100  219.06000  838.90400
  155.29560    -999.25    8.74564   10.10450  428.20300  225.32700  839.68700
  155.44800    -999.25    8.74564   10.10450  419.86100  227.15400  839.68700
  155.60040    -999.25    8.74564   10.10450  416.63200  221.93100  837.59800
  155.75280    -999.25    8.74564    9.23345  429.54900  217.75500  840.47000
  155.90520    -999.25    8.69565    9.58190  424.97400  228.45900  840.20900
  156.05760    -999.25    8.66087    9.40765  411.78800  215.92800  837.39100
  156.21000    -999.25    8.59130    9.23345  428.74100  222.45300  838.69600
  156.36240    -999.25    8.38261    9.23345  429.81800  221.14800  836.08700
  156.51480    -999.25    8.31304    9.58190  417.97700  218.01600  832.95700
  156.66720   84.34260    8.26389    9.58190  405.86800  234.98700  834.78300
  156.81960   85.89960    8.26389    9.23345  422.55200  231.85500  833.47800
  156.97200   86.67810    8.26389    9.23345  415.01700  229.24200  844.43500
  157.12440   84.60210    8.22917    9.23345  424.70500  223.23900  839.73900
  157.27680   82.00680    8.22917    8.36235  411.25000  220.88700  845.47800
  157.42920   80.70930    8.15972    8.36235  426.31900  215.73900  846.78300
  157.58160   82.26630    8.22917    8.01395  410.44300  231.39000  830.60900
  157.73400   83.04510    8.26389    7.83970  422.82100  227.73900  826.95700
  157.88640   81.22830    8.26389    7.66550  424.97400  215.73900  826.69600
  158.03880   80.70930    8.26389    7.31705  431.16300  207.39000  832.17400
  158.19120   82.26630    8.26389    7.31705  424.97400  211.30500  833.47800
  158.34360    -999.25    8.28423    7.14285  420.93800  212.34900  829.04300
  158.49600    -999.25    8.28423    7.14285  428.74100  210.26100  819.91300
  158.64840    -999.25    8.28423    7.66550  419.05400  224.61000  816.00000
  158.80080    -999.25    8.31889    7.66550  428.47200  227.73900  811.04300
  158.95320    -999.25    8.31889    7.66550  434.66100  223.04400  810.26100
  159.10560    -999.25    8.31889    7.14285  433.58500  209.21700  812.34800
  159.25800    -999.25    8.33910    6.96865  426.31900  218.34900  810.00000
  159.41040    -999.25    8.33910    7.14285  416.63200  213.91200  808.95700
  159.56280    -999.25    8.33910    7.31705  432.24000  206.34900  795.65200
  159.71520    -999.25    8.33910    7.31705  421.47600  209.21700  792.26100
  159.86760    -999.25    8.33910    7.66550  429.81800  221.47800  790.17400
  160.02000    -999.25    8.26990    7.31705  428.47200  210.52200  792.26100
  160.17240    -999.25    8.26990    7.66550  422.55200  217.04400  795.91300
  160.32480    -999.25    8.23529    7.66550  411.25000  219.12900  789.65200
  160.47720    -999.25    8.23529    7.66550  420.13000  223.82700  792.78300
  160.62960    -999.25    8.23529    7.66550  401.56300  228.78300  796.69600
  160.78200    -999.25    8.23529    7.66550  418.78500  223.82700  809.73900
  160.93440    -999.25    8.23529    8.01395  399.67900  226.69500  819.65200
  161.08680    -999.25    8.23529    8.01395  417.70800  202.17300  824.34800
  161.23920    -999.25    8.23529    8.36235  397.52600  205.04400  827.47800
  161.39160    -999.25    8.23529    8.18815  416.09400  208.95600  827.47800
  161.54400    -999.25    8.23529    8.18815  409.36600  189.12900  823.04300
  161.69640    -999.25    8.23529    8.88500  426.58900  201.39000  826.69600
  161.84880    -999.25    8.23529    8.36235  429.54900  208.95600  831.39100
  162.00120    -999.25    8.23529    9.22540  416.09400  194.87100  832.69600
  162.15360    -999.25    8.23529    9.39950  428.47200  206.61000  833.73900
  162.30600    -999.25    8.23529    9.39950  421.74500  206.87100  832.43500
  162.45840    -999.25    8.23529   10.26980  432.24000  205.04400  836.87000
  162.61080    -999.25    8.23529   10.09570  428.74100  218.34900  838.43500
  162.76320    -999.25    8.23529   10.09570  419.86100  204.26100  838.17400
  162.91560    -999.25    8.23529   10.26980  427.39600  201.39000  827.73900
  163.06800    -999.25    8.23529   10.09570  423.89800  203.21700  818.60900
  163.22040    -999.25    8.23529    9.57355  417.70800  210.52200  816.00000
  163.37280    -999.25    8.23529    9.74760  398.33300  221.47800  816.00000
  163.52520    -999.25    8.23529    9.39950  408.29000  223.30500  817.30400
  163.67760    -999.25    8.23529    9.74760  424.97400  216.00000  813.91300
  163.83000    -999.25    8.23529    9.57355  415.01700  213.39000  812.34800
  163.98240    -999.25    8.23529    9.23345  398.60200  219.65100  812.68500
  164.13480    -999.25    8.23529    9.05925  431.16300  223.82700  804.60500
  164.28720    -999.25    8.23529    9.40765  417.70800  227.73900  798.87100
  164.43960    -999.25    8.23529    9.58190  417.97700  228.00000  798.61000
  164.59200    -999.25    8.23529   10.27870  418.78500  217.30500  799.91300
  164.74440    -999.25    8.23529    9.58190  416.09400  202.17300  796.26400
